LapDistance [m],TotalDistance [m],LapTime [s],Sector1Time [s],Sector2Time [s],Speed [km/h],EngineRevs [rpm],ThrottlePercentage [%],BrakePercentage [%],Steer [%],Clutch [%],Gear [int],DRS [0/1],CanUseDRS [0/1],KERSLevel [J],EngineTemperature [C],RacePosition [int],Sector [int],InPits [int],FuelRemaining [kg],CurrentFlag [int],CurrentLapInvalid [int],X [m],Y [m],Z [m],GForceLatitudinal [G],GForceLongitudinal [G],GForceVertical [G],WheelSpeedRearLeft [km/h],WheelSpeedRearRight [km/h],WheelSpeedFrontLeft [km/h],WheelSpeedFrontRight [km/h],BrakeTemperatureRearLeft [C],BrakeTemperatureRearRight [C],BrakeTemperatureFrontLeft [C],BrakeTemperatureFrontRight [C],TyreTemperatureRearLeft [C],TyreTemperatureRearRight [C],TyreTemperatureFrontLeft [C],TyreTemperatureFrontRight [C],TyreWearRearLeft [%],TyreWearRearRight [%],TyreWearFrontLeft [%],TyreWearFrontRight [%],SuspensionPositionRearLeft [m],SuspensionPositionRearRight [m],SuspensionPositionFrontLeft [m],SuspensionPositionFrontRight [m],SuspensionVelocityRearLeft [m/s],SuspensionVelocityRearRight [m/s],SuspensionVelocityFrontLeft [m/s],SuspensionVelocityFrontRight [m/s],SuspensionAccelerationRearLeft [m/s^2],SuspensionAccelerationRearRight [m/s^2],SuspensionAccelerationFrontLeft [m/s^2],SuspensionAccelerationFrontRight [m/s^2],MGUKHarvested [J],MGUHHarvested [J],ERSSpent [J],ERSMode [int],FuelMixMode [int],Yaw [rad],Roll [rad],Pitch [rad],TyreCarcassTemperatureRearLeft [C],TyreCarcassTemperatureRearRight [C],TyreCarcassTemperatureFrontLeft [C],TyreCarcassTemperatureFrontRight [C],TyrePressureRearLeft [PSI],TyrePressureRearRight [PSI],TyrePressureFrontLeft [PSI],TyrePressureFrontRight [PSI],WheelSlipRearLeft [%],WheelSlipRearRight [%],WheelSlipFrontLeft [%],WheelSlipFrontRight [%],Torque [Nm],Handbrake [%],RearLeftInside [C],RearLeftMiddle [C],RearLeftOutside [C],RearRightInside [C],RearRightMiddle [C],RearRightOutside [C],FrontLeftInside [C],FrontLeftMiddle [C],FrontLeftOutside [C],FrontRightInside [C],FrontRightMiddle [C],FrontRightOutside [C],WoldSpeedX [km/h],WoldSpeedY [km/h],WoldSpeedZ [km/h],LocalAngularVelocityX [rad/s],LocalAngularVelocityY [rad/s],LocalAngularVelocityZ [rad/s],IcePower [W],MgukPower [W],FrontRideHeight [m],RearRideHeight [m],LoadRearLeft [N],LoadRearRight [N],LoadFrontLeft [N],LoadFrontRight [N],Extra1 [m],Extra2 [],Extra3 [],Extra4 []
2.1992047,2.1992047,0.033,0.0,0.0,217.32755,10545.0,100.0,0.0,1.9963589,0.0,6.0,1.0,0.0,3632027.2,110.0,3.0,0.0,0.0,6.9026394,0.0,0.0,-715.49945,-139.2161,659.974,-0.3734167,0.87534165,0.119925305,223.65788,223.77469,217.39597,216.91306,453.0,454.0,506.0,515.0,84.0,84.0,84.0,84.0,0.1628303,0.2760365,0.060342345,0.22568053,0.032062873,0.030449437,0.052287288,0.050902426,21.047739,-23.656412,-90.782265,-129.05962,1449.7069,-356.15717,5308.372,3948.4934,0.0,1774.3066,2342.3057,2.0,1.0,0.9516926,-0.0020690623,0.004634857,85.0,85.0,85.0,85.0,20.900429,20.9004,24.200466,24.200432,0.028247533,0.030968985,-7.7167107E-4,-6.978853E-4,1075.843,0.0,0.0,0.0,0.0,0.0,0.0,0.0,0.0,0.0,0.0,0.0,0.0,0.0,49.20959,0.061598618,34.96855,-0.059434086,-0.0844001,0.004738597,541725.56,119984.91,0.021010496,0.032967564,5918.492,5298.5825,4712.464,4020.6948,0.32013798,0.0,0.0,0.0
5.237324,5.237324,0.083,0.0,0.0,218.79196,10627.0,100.0,0.0,1.7044755,0.0,6.0,1.0,0.0,3628525.8,110.0,3.0,0.0,0.0,6.9012914,0.0,0.0,-713.0332,-139.2132,661.7324,-0.42454034,0.82296044,-0.097000204,225.44661,225.50438,218.92169,218.32364,451.0,452.0,504.0,514.0,84.0,84.0,84.0,84.0,0.1628303,0.2760365,0.060342345,0.22568053,0.03129358,0.028846623,0.050235853,0.048308272,-35.23618,-35.36649,-24.686155,-22.233053,-1017.02655,-187.86871,919.7697,1512.1085,0.0,4447.309,5843.6147,2.0,1.0,0.9468801,-0.0027815676,0.004103899,85.0,85.0,85.0,85.0,20.90106,20.900972,24.201096,24.200981,0.02906707,0.031856928,-7.1644323E-4,-7.752022E-4,1087.099,0.0,0.0,0.0,0.0,0.0,0.0,0.0,0.0,0.0,0.0,0.0,0.0,0.0,49.42613,0.0401519,35.365566,0.0073896516,-0.10011577,-0.0086226715,543169.56,119984.91,0.024550674,0.035153437,5557.741,4919.348,4164.0664,3292.2908,0.3230362,0.0,0.0,0.0
8.2964735,8.2964735,0.133,0.0,0.0,220.24185,10701.0,100.0,0.0,1.6194947,0.0,6.0,1.0,0.0,3625046.0,110.0,3.0,0.0,0.0,6.8999424,0.0,0.0,-710.5569,-139.21248,663.51196,-0.5098446,0.826279,-0.07020792,226.9425,227.12196,220.37128,219.77158,450.0,451.0,502.0,512.0,84.0,84.0,83.0,83.0,0.16464767,0.27763817,0.060342345,0.22568053,0.0299831,0.027429769,0.05019663,0.048112147,-13.321749,-20.056105,6.3946095,-0.5487352,872.6298,587.3501,329.05334,128.51804,0.0,7140.8423,9323.3125,2.0,1.0,0.941857,-0.0030822325,0.004676819,85.0,85.0,85.0,85.0,20.90167,20.90152,24.20172,24.201517,0.029292127,0.032598086,-7.021256E-4,-7.640322E-4,1097.2484,0.0,0.0,0.0,0.0,0.0,0.0,0.0,0.0,0.0,0.0,0.0,0.0,0.0,49.613846,-0.0050322684,35.79455,-0.005865545,-0.100016534,-0.010572515,544449.5,119984.91,0.024569996,0.036654867,5579.0,4799.721,4463.8145,3485.0176,0.3237362,0.0,0.0,0.0
11.376158,11.376158,0.183,0.0,0.0,221.69127,10759.0,100.0,0.0,1.5418824,0.0,6.0,1.0,0.0,3621583.2,110.0,3.0,0.0,0.0,6.8985925,0.0,0.0,-708.0717,-139.21317,665.3136,-0.55518043,0.81968725,-0.0030185883,228.1803,228.36772,221.80841,221.23169,448.0,449.0,501.0,510.0,84.0,83.0,83.0,83.0,0.16464767,0.27763817,0.060342345,0.22568053,0.030484853,0.027507339,0.05053083,0.04812756,17.235203,10.753087,5.332902,0.6908923,303.0225,523.7214,-96.0633,23.992357,0.0,9850.542,12785.992,2.0,1.0,0.9369599,-0.0035077007,0.0045973063,85.0,85.0,85.0,85.0,20.9023,20.90207,24.202358,24.20205,0.028198391,0.031436574,-6.871452E-4,-7.6174183E-4,1105.2666,0.0,0.0,0.0,0.0,0.0,0.0,0.0,0.0,0.0,0.0,0.0,0.0,0.0,49.78214,-0.017021963,36.2484,-0.0065372284,-0.09554823,0.0011895727,545471.6,119984.91,0.023977961,0.0358566,5824.38,4979.845,4647.028,3531.8984,0.32303715,0.0,0.0,0.0
14.476233,14.476233,0.233,0.0,0.0,223.11792,10822.0,100.0,0.0,1.2668147,0.0,6.0,1.0,0.0,3618136.5,110.0,3.0,0.0,0.0,6.8972416,0.0,0.0,-705.5784,-139.21387,667.13794,-0.5384103,0.80625117,0.022439973,229.51341,229.69748,223.20468,222.69362,446.0,447.0,499.0,509.0,83.0,83.0,82.0,82.0,0.16641901,0.27914786,0.060342345,0.22568053,0.03117295,0.02823993,0.0506247,0.048258822,9.684339,13.675354,0.3354996,3.366172,-277.95728,-127.21714,-89.384605,24.193523,0.0,12575.469,16232.644,2.0,1.0,0.9324636,-0.003430919,0.004398823,85.0,85.0,85.0,85.0,20.90294,20.902628,24.202988,24.202568,0.027701883,0.03060691,-6.6949235E-4,-7.586779E-4,1113.9705,0.0,0.0,0.0,0.0,0.0,0.0,0.0,0.0,0.0,0.0,0.0,0.0,0.0,49.94226,-0.00944525,36.700733,0.0027594292,-0.08388066,0.005130876,546566.7,119984.91,0.023534479,0.034883853,5900.417,5084.771,4686.792,3610.8193,0.32233334,0.0,0.0,0.0
17.59656,17.59656,0.283,0.0,0.0,224.52443,10888.0,100.0,0.0,0.936759,0.0,6.0,1.0,0.0,3614707.0,110.0,3.0,0.0,0.0,6.8958898,0.0,0.0,-703.07697,-139.21408,668.98456,-0.48066157,0.7954457,0.013919556,230.90619,231.09502,224.56316,224.15305,445.0,446.0,498.0,507.0,83.0,83.0,81.0,82.0,0.16641901,0.27914786,0.060342345,0.22568053,0.031277258,0.028656507,0.05056401,0.04844148,-1.2568383,5.646497,-2.1035223,3.887638,-169.55583,-136.54454,-54.69024,24.220331,0.0,15316.666,19662.168,2.0,1.0,0.928705,-0.0030682771,0.004354596,85.0,85.0,85.0,85.0,20.90358,20.903189,24.203598,24.20308,0.027660409,0.030139755,-6.620804E-4,-7.511813E-4,1123.1162,0.0,0.0,0.0,0.0,0.0,0.0,0.0,0.0,0.0,0.0,0.0,0.0,0.0,50.108906,-0.0011849122,37.1329,0.007191905,-0.066615984,0.005278399,547713.7,119984.91,0.023374757,0.034624595,5860.4023,5134.627,4654.6987,3699.8257,0.32211685,0.0,0.0,0.0
20.73652,20.73652,0.333,0.0,0.0,225.9163,10954.0,100.0,0.0,0.4617951,0.0,6.0,1.0,0.0,3611295.0,110.0,3.0,0.0,0.0,6.8945365,0.0,0.0,-700.5666,-139.21408,670.8517,-0.37736732,0.7876646,-0.0037913567,232.30612,232.48279,225.88545,225.61922,443.0,444.0,496.0,505.0,83.0,83.0,81.0,81.0,0.16809107,0.2806084,0.060342345,0.22568053,0.031033093,0.028911484,0.05038295,0.048662897,-5.8568263,5.890801,-4.066005,4.9214063,-39.622906,48.60832,-7.9259343,20.733488,0.0,18074.553,23074.125,2.0,1.0,0.92601866,-0.0024576886,0.0043742657,85.0,85.0,85.0,85.0,20.904205,20.903751,24.204187,24.20359,0.02783014,0.029644499,-6.5643963E-4,-7.4842316E-4,1132.2883,0.0,0.0,0.0,0.0,0.0,0.0,0.0,0.0,0.0,0.0,0.0,0.0,0.0,50.297405,-0.0019624294,37.527348,0.011450466,-0.041998796,0.008037434,548859.6,119984.9,0.023347152,0.03465501,5767.849,5208.2793,4564.585,3802.1953,0.32210827,0.0,0.0,0.0
23.896048,23.896048,0.383,0.0,0.0,227.29764,11017.0,100.0,0.0,0.012718118,0.0,6.0,1.0,0.0,3607900.2,110.0,3.0,0.0,0.0,6.893182,0.0,0.0,-698.046,-139.21431,672.7375,-0.24753821,0.78095496,9.582816E-4,233.65929,233.80692,227.18707,227.08496,441.0,442.0,494.0,504.0,83.0,82.0,80.0,80.0,0.16809107,0.2806084,0.060342345,0.22568053,0.030791016,0.02936941,0.05016442,0.048996657,-4.263818,11.62894,-4.6817956,7.6255198,4.150743,141.15118,-32.910717,42.767826,0.0,20848.752,26468.912,2.0,1.0,0.9246395,-0.001641888,0.004371524,85.0,85.0,85.0,85.0,20.904823,20.90432,24.204748,24.204098,0.027878871,0.028893458,-6.575622E-4,-7.3438796E-4,1140.4934,0.0,0.0,0.0,0.0,0.0,0.0,0.0,0.0,0.0,0.0,0.0,0.0,0.0,50.51808,-0.004615563,37.87294,0.013867576,-0.014532783,0.011456917,549675.56,119984.91,0.023109328,0.034410857,5705.368,5341.3994,4482.0195,3982.2437,0.32187176,0.0,0.0,0.0
27.074787,27.074787,0.433,0.0,0.0,228.66574,11078.0,100.0,0.0,-0.41878578,0.0,6.0,1.0,0.0,3604521.8,110.0,3.0,0.0,0.0,6.891827,0.0,0.0,-695.5134,-139.21458,674.639,-0.1001755,0.7706407,0.0045639626,234.96385,235.08368,228.47882,228.53346,439.0,440.0,493.0,502.0,82.0,82.0,80.0,80.0,0.16961154,0.28204188,0.060342345,0.22568053,0.030623423,0.029999278,0.049909685,0.049370904,-3.506094,12.594535,-5.2524357,7.5893097,-18.60782,-12.083358,-5.082807,10.205783,0.0,23638.496,29847.334,2.0,1.0,0.9246133,-7.1851944E-4,0.0043216944,85.0,85.0,85.0,85.0,20.90543,20.9049,24.205286,24.204609,0.027737001,0.028004449,-6.5510115E-4,-7.205554E-4,1146.9434,0.0,0.0,0.0,0.0,0.0,0.0,0.0,0.0,0.0,0.0,0.0,0.0,0.0,50.777184,-0.0043970733,38.16081,0.01457081,0.011671186,0.011941122,549740.4,119984.914,0.02290777,0.03406721,5637.9453,5493.034,4371.3096,4162.1133,0.32158756,0.0,0.0,0.0
30.272457,30.272457,0.483,0.0,0.0,230.0131,11139.0,100.0,0.0,-0.58372307,0.0,6.0,1.0,0.0,3601159.8,110.0,3.0,0.0,0.0,6.890472,0.0,0.0,-692.9669,-139.2148,676.5533,0.025237322,0.75898254,0.0067653526,236.30058,236.36958,229.76984,229.93921,438.0,439.0,491.0,500.0,82.0,82.0,79.0,79.0,0.16961154,0.28204188,0.060342345,0.22568053,0.030469798,0.030557932,0.049680073,0.049727872,-2.877563,9.553246,-4.005879,6.2204895,12.867893,-112.55218,42.338673,-67.02838,0.0,26443.76,33209.42,2.0,1.0,0.92573845,1.2287145E-4,0.0042943954,85.0,85.0,85.0,85.0,20.906027,20.905487,24.205795,24.205128,0.027737446,0.027335776,-6.6613435E-4,-6.928559E-4,1153.3971,0.0,0.0,0.0,0.0,0.0,0.0,0.0,0.0,0.0,0.0,0.0,0.0,0.0,51.071953,-0.0024593344,38.391552,0.011365306,0.029887846,0.008931241,549806.25,119984.91,0.022740956,0.033824462,5571.379,5620.0405,4282.498,4333.0415,0.32138062,0.0,0.0,0.0
33.488747,33.488747,0.533,0.0,0.0,231.34077,11201.0,100.0,0.0,-0.50865144,0.0,6.0,1.0,0.0,3597814.0,110.0,3.0,0.0,0.0,6.889116,0.0,0.0,-690.40497,-139.21503,678.47797,0.10536489,0.74889517,0.0029694012,237.63007,237.64847,231.08115,231.28343,436.0,437.0,490.0,499.0,82.0,81.0,79.0,79.0,0.17102651,0.2834931,0.060342345,0.22568053,0.030334067,0.030881928,0.04953222,0.04996695,-1.0928884,6.3756104,-1.6926973,4.253089,103.45278,-14.832629,66.65289,-43.599327,0.0,29264.697,36555.01,2.0,1.0,0.9274102,6.620051E-4,0.004294038,85.0,85.0,85.0,85.0,20.906612,20.906084,24.206287,24.205647,0.027656328,0.026917983,-6.7913305E-4,-6.6781504E-4,1159.9553,0.0,0.0,0.0,0.0,0.0,0.0,0.0,0.0,0.0,0.0,0.0,0.0,0.0,51.391434,-0.0036446985,38.580288,0.005996092,0.034130953,0.004571987,549871.8,119984.91,0.022555195,0.033617128,5531.6562,5702.486,4231.8164,4447.939,0.32116318,0.0,0.0,0.0
36.723347,36.723347,0.583,0.0,0.0,232.65022,11261.0,100.0,0.0,-0.25058267,0.0,6.0,1.0,0.0,3594484.8,110.0,3.0,0.0,0.0,6.887759,0.0,0.0,-687.8268,-139.2153,680.4115,0.12436089,0.73811984,0.0036876118,238.93129,238.90468,232.41606,232.56842,434.0,435.0,488.0,497.0,81.0,81.0,78.0,78.0,0.17102651,0.2834931,0.060342345,0.22568053,0.030410364,0.031098371,0.049528383,0.05009037,2.4771316,3.1227617,0.81740314,1.6137956,46.84477,-80.305336,46.160812,-43.50542,0.0,32100.947,39884.484,2.0,1.0,0.928906,8.2209625E-4,0.0042905807,85.0,85.0,85.0,85.0,20.907194,20.906681,24.206758,24.206158,0.0273517,0.026644174,-6.857416E-4,-6.4781803E-4,1166.305,0.0,0.0,0.0,0.0,0.0,0.0,0.0,0.0,0.0,0.0,0.0,0.0,0.0,51.71864,-0.0033624987,38.750237,-4.5717062E-4,0.024647444,-1.0533689E-4,549936.06,119984.89,0.022365812,0.03338978,5545.2197,5744.7573,4248.675,4508.127,0.32095718,0.0,0.0,0.0
39.97607,39.97607,0.633,0.0,0.0,233.94156,11321.0,100.0,0.0,-0.056643598,0.0,6.0,1.0,0.0,3591171.2,110.0,3.0,0.0,0.0,6.8864017,0.0,0.0,-685.2323,-139.21558,682.35345,0.10414079,0.72800636,0.0018479198,240.20403,240.15332,233.74774,233.82076,433.0,434.0,486.0,496.0,81.0,81.0,78.0,78.0,0.17239349,0.28491998,0.060342345,0.22568053,0.030621605,0.031190466,0.049619507,0.050095785,4.6972184,1.2198462,2.2803245,-0.46268103,11.580447,-57.104225,38.181236,-28.833744,0.0,34952.332,43198.027,2.0,1.0,0.92978656,6.8503787E-4,0.0042794943,85.0,85.0,85.0,85.0,20.907776,20.907274,24.207222,24.206661,0.026960576,0.026475815,-6.779728E-4,-6.440907E-4,1172.6543,0.0,0.0,0.0,0.0,0.0,0.0,0.0,0.0,0.0,0.0,0.0,0.0,0.0,52.03957,-0.0035701452,38.920086,-0.0036016335,0.01118205,-0.0027786552,549999.4,119984.9,0.022243332,0.033190932,5591.5835,5753.5464,4300.7383,4511.147,0.32077694,0.0,0.0,0.0
43.246677,43.246677,0.683,0.0,0.0,235.2147,11380.0,100.0,0.0,0.06494844,0.0,6.0,1.0,0.0,3587873.5,110.0,3.0,0.0,0.0,6.8850427,0.0,0.0,-682.62213,-139.21585,684.30426,0.063938856,0.7178854,-0.001009232,241.45633,241.40637,235.0529,235.06334,431.0,432.0,485.0,494.0,81.0,81.0,77.0,77.0,0.17239349,0.28491998,0.060342345,0.22568053,0.030830454,0.031196013,0.049754824,0.050061725,4.085004,-0.023916362,2.870187,-0.7992982,7.74486,0.1810491,8.837885,-16.723572,0.0,37818.69,46495.805,2.0,1.0,0.93006223,4.4113107E-4,0.004285693,85.0,85.0,85.0,85.0,20.90836,20.907864,24.20768,24.207144,0.026605027,0.02636578,-6.664685E-4,-6.4302504E-4,1178.8036,0.0,0.0,0.0,0.0,0.0,0.0,0.0,0.0,0.0,0.0,0.0,0.0,0.0,52.346294,-0.005170652,39.10043,-0.0045516035,8.83577E-4,-0.0031911065,550017.1,119984.91,0.022142474,0.033062775,5640.5127,5739.091,4375.211,4505.1333,0.320673,0.0,0.0,0.0
46.534763,46.534763,0.733,0.0,0.0,236.4696,11437.0,100.0,0.0,0.14548008,0.0,6.0,1.0,0.0,3584591.2,110.0,3.0,0.0,0.0,6.8836837,0.0,0.0,-679.9971,-139.21616,686.2642,0.018863916,0.70686305,-0.004663503,242.67038,242.63313,236.33096,236.29683,429.0,430.0,483.0,492.0,81.0,80.0,77.0,77.0,0.17374198,0.28628322,0.060342345,0.22568053,0.031064592,0.031184752,0.049895164,0.05000082,4.8626213,-0.055320557,2.74837,-1.2293457,2.333536,15.563515,-12.06994,4.7475095,0.0,40699.793,49778.06,2.0,1.0,0.92989796,1.4767441E-4,0.0042750835,85.0,85.0,85.0,85.0,20.908943,20.908447,24.208132,24.207615,0.026206903,0.02619822,-6.5511087E-4,-6.417236E-4,1182.2594,0.0,0.0,0.0,0.0,0.0,0.0,0.0,0.0,0.0,0.0,0.0,0.0,0.0,52.635574,-0.008582073,39.295635,-0.004564573,-0.0063445535,-0.0032861808,548880.3,119984.91,0.022049025,0.032930743,5697.2725,5725.503,4443.3467,4480.9404,0.32055378,0.0,0.0,0.0
49.84019,49.84019,0.783,0.0,0.0,237.70537,11493.0,100.0,0.0,0.15527603,0.0,6.0,1.0,0.0,3581324.0,110.0,3.0,0.0,0.0,6.8823247,0.0,0.0,-677.35803,-139.21664,688.23444,-0.015848964,0.69570047,0.008564347,243.84047,243.8215,237.57904,237.52237,427.0,428.0,481.0,491.0,80.0,80.0,76.0,76.0,0.17374198,0.28628322,0.060342345,0.22568053,0.03139725,0.031308852,0.05006408,0.050002426,6.806999,3.3914297,3.1205266,0.1913309,-21.09555,32.032284,-24.448326,1.810491,0.0,43595.152,53045.3,2.0,1.0,0.92947024,-9.195869E-5,0.0042414665,85.0,85.0,85.0,85.0,20.90953,20.90903,24.20858,24.20807,0.025752654,0.025900152,-6.406287E-4,-6.400817E-4,1185.67,0.0,0.0,0.0,0.0,0.0,0.0,0.0,0.0,0.0,0.0,0.0,0.0,0.0,52.908947,-0.0077006416,39.50326,-0.00366423,-0.009703197,-0.0012227672,547781.6,119984.92,0.021795012,0.032600798,5775.328,5748.01,4545.8047,4509.842,0.32027054,0.0,0.0,0.0
53.16275,53.16275,0.833,0.0,0.0,238.92001,11548.0,100.0,0.0,0.017722756,0.0,6.0,1.0,0.0,3578071.8,110.0,3.0,0.0,0.0,6.8809657,0.0,0.0,-674.70557,-139.21703,690.2151,-0.020989388,0.6845643,0.00616437,245.01085,245.00749,238.78432,238.74796,426.0,427.0,480.0,489.0,80.0,80.0,76.0,76.0,0.17506352,0.2875866,0.060342345,0.22568053,0.031566165,0.031440623,0.05013383,0.050026707,3.661215,4.2043624,1.548305,1.5120952,54.27449,118.17812,11.868774,48.85643,0.0,46504.62,56297.703,2.0,1.0,0.92906666,-1.4299362E-4,0.004200816,85.0,85.0,85.0,85.0,20.910118,20.909607,24.209023,24.208511,0.025480922,0.02560536,-6.2536786E-4,-6.4196717E-4,1188.957,0.0,0.0,0.0,0.0,0.0,0.0,0.0,0.0,0.0,0.0,0.0,0.0,0.0,53.173134,-0.007899408,39.713383,1.334927E-4,-0.005626444,0.001246355,546684.06,119984.914,0.021624628,0.03236484,5805.664,5767.7905,4581.9653,4532.327,0.3200407,0.0,0.0,0.0
56.502228,56.502228,0.883,0.0,0.0,240.11485,11603.0,100.0,0.0,-0.0496974,0.0,6.0,1.0,0.0,3574833.8,110.0,3.0,0.0,0.0,6.8796062,0.0,0.0,-672.0399,-139.2173,692.2063,-0.013505638,0.6728443,0.003688613,246.1637,246.17451,239.96277,239.96109,424.0,425.0,478.0,487.0,80.0,80.0,75.0,76.0,0.17506352,0.2875866,0.060342345,0.22568053,0.03169693,0.031626325,0.050161768,0.05009749,1.8028914,3.1799822,0.5348771,1.5565752,-53.3089,-10.903172,0.7376074,18.064676,0.0,49427.953,59535.504,2.0,1.0,0.9289404,-8.043845E-5,0.0041719675,85.0,85.0,85.0,85.0,20.910707,20.910185,24.209452,24.208948,0.02524849,0.025289439,-6.211217E-4,-6.3273805E-4,1192.2585,0.0,0.0,0.0,0.0,0.0,0.0,0.0,0.0,0.0,0.0,0.0,0.0,0.0,53.433945,-0.0070449477,39.91883,0.0011099316,1.5457446E-4,0.0012574729,545603.5,119984.91,0.021477895,0.032180164,5818.712,5797.7515,4596.646,4569.8003,0.31989384,0.0,0.0,0.0
59.850388,59.850388,0.933,0.0,0.0,241.29025,11657.0,100.0,0.0,-0.05480589,0.0,6.0,1.0,0.0,3571610.5,110.0,3.0,0.0,0.0,6.878246,0.0,0.0,-669.36145,-139.21758,694.20746,-0.001588285,0.6620743,0.0039418153,247.30128,247.31929,241.12862,241.14775,422.0,423.0,477.0,486.0,79.0,79.0,75.0,75.0,0.1763409,0.28885716,0.060342345,0.22568053,0.031792797,0.03179309,0.050187405,0.050181758,2.4984775,3.8411465,0.4175305,1.4282762,41.788807,38.30193,-4.264712,-22.798775,0.0,52365.01,62758.855,2.0,1.0,0.92905277,2.867101E-6,0.004137039,85.0,85.0,85.0,85.0,20.91129,20.91076,24.209875,24.209375,0.025009077,0.025000714,-6.191876E-4,-6.2095997E-4,1195.4734,0.0,0.0,0.0,0.0,0.0,0.0,0.0,0.0,0.0,0.0,0.0,0.0,0.0,53.694115,-0.0064823916,40.116104,4.847356E-4,0.003353239,0.0013641159,544540.44,119984.91,0.021297494,0.03195634,5837.5503,5837.476,4617.515,4617.135,0.319664,0.0,0.0,0.0
63.210888,63.210888,0.983,0.0,0.0,242.44714,11710.0,100.0,0.0,0.028654473,0.0,6.0,1.0,0.0,3568401.2,110.0,3.0,0.0,0.0,6.8768854,0.0,0.0,-666.6699,-139.21785,696.21844,-0.0013816357,0.65156573,0.0074348617,248.42358,248.43385,242.29253,242.29932,421.0,422.0,475.0,484.0,79.0,79.0,75.0,75.0,0.1763409,0.28885716,0.060342345,0.22568053,0.03197071,0.031967632,0.050243337,0.050242145,3.872439,3.199428,1.3522803,0.9731948,19.432596,-13.075775,3.9294357,-22.101397,0.0,55315.523,65968.05,2.0,1.0,0.9291723,6.175652E-6,0.004103899,85.0,85.0,85.0,85.0,20.911871,20.911337,24.210283,24.209797,0.024719452,0.02473889,-6.171174E-4,-6.0950016E-4,1198.6108,0.0,0.0,0.0,0.0,0.0,0.0,0.0,0.0,0.0,0.0,0.0,0.0,0.0,53.95133,-0.0046597323,40.308754,-8.887835E-4,9.115973E-4,1.4006521E-4,543498.44,119984.92,0.021082029,0.031669848,5868.7764,5868.866,4658.7256,4656.765,0.31941795,0.0,0.0,0.0
66.58725,66.58725,1.049,0.0,0.0,243.58508,11762.0,100.0,0.0,0.09767473,0.0,6.0,1.0,0.0,3565206.0,110.0,3.0,0.0,0.0,6.8755245,0.0,0.0,-663.96564,-139.21802,698.23883,-0.0094025135,0.6406051,0.0060106856,249.53577,249.53787,243.44183,243.42772,419.0,420.0,473.0,482.0,79.0,79.0,74.0,74.0,0.17706756,0.28957933,0.060342345,0.22568053,0.032143544,0.032105036,0.050307132,0.050282143,0.0,0.0,0.0,0.0,-60.67155,-55.347374,-28.552113,-43.518833,0.0,58279.273,69163.305,2.0,1.0,0.9291303,-3.277782E-5,0.004068136,85.0,85.0,85.0,85.0,20.912453,20.911917,24.210688,24.210205,0.024450116,0.024516072,-6.1200466E-4,-6.016052E-4,1201.6611,0.0,0.0,0.0,0.0,0.0,0.0,0.0,0.0,0.0,0.0,0.0,0.0,0.0,54.203224,-0.0020826126,40.49972,-0.0015050021,-0.00274706,-4.272586E-4,542472.6,119984.914,0.02095628,0.031467784,5894.7344,5885.6714,4692.004,4678.5215,0.31924343,0.0,0.0,0.0
69.9687,69.9687,1.083,0.0,0.0,243.04634,11291.0,100.0,0.0,0.17438042,0.0,6.0,1.0,0.0,3567056.5,110.0,3.0,0.0,0.0,6.875071,0.0,0.0,-661.25757,-139.21724,700.26263,-0.030639172,-0.46271187,0.08999121,243.05476,243.02957,243.07547,243.0295,417.0,418.0,472.0,481.0,78.0,78.0,74.0,74.0,0.17706756,0.28957933,0.060342345,0.22568053,0.029343292,0.029207388,0.051036138,0.050920337,-73.273026,-76.20524,21.30568,19.008368,-428.979,-498.77652,177.69641,153.11392,3241.7854,59264.637,70231.08,2.0,1.0,0.9288421,-1.6977522E-4,0.005730748,85.0,85.0,85.0,85.0,20.912983,20.91244,24.211126,24.210648,-2.4800296E-5,5.3220836E-5,1.8421151E-5,3.0000334E-5,1169.4788,0.0,0.0,0.0,0.0,0.0,0.0,0.0,0.0,0.0,0.0,0.0,0.0,0.0,54.07638,0.03650535,40.41945,0.022784578,-0.008247398,-0.03531321,549967.4,0.0,0.019762201,0.034554016,5657.9336,5603.767,5395.9443,5336.927,0.32000923,0.0,0.0,0.0
73.34514,73.34514,1.133,0.0,0.0,243.42468,10748.0,100.0,0.0,0.23684397,0.0,7.0,1.0,0.0,3564583.5,110.0,3.0,0.0,0.0,6.8737183,0.0,0.0,-658.5541,-139.2155,702.2841,-0.05271128,0.66361433,-0.1351618,250.73291,250.75594,243.28432,243.2093,416.0,417.0,470.0,479.0,78.0,78.0,73.0,73.0,0.17824937,0.29073724,0.060342345,0.22568053,0.028409734,0.028143955,0.050821446,0.050610665,27.277058,24.276001,-19.97575,-22.06452,2928.1873,2885.4463,-895.99176,-927.62836,3241.7854,62977.26,73962.45,2.0,1.0,0.92830306,-3.109089E-4,0.005677223,85.0,85.0,85.0,85.0,20.913488,20.91293,24.211546,24.211063,0.02954948,0.029910667,-6.645492E-4,-6.5957615E-4,1103.7217,0.0,0.0,0.0,0.0,0.0,0.0,0.0,0.0,0.0,0.0,0.0,0.0,0.0,54.147106,0.012462767,40.50037,-0.026563274,-0.012871376,0.030603949,545266.6,119984.91,0.021553477,0.03620435,5499.8,5418.6675,4758.5977,4654.1777,0.32173347,0.0,0.0,0.0
76.73682,76.73682,1.183,0.0,0.0,244.79907,10297.0,100.0,0.0,0.17876916,0.0,7.0,1.0,0.0,3562001.0,110.0,3.0,0.0,0.0,6.872378,0.0,0.0,-655.8392,-139.21687,704.3158,-0.066230655,0.77759445,-0.07983498,251.69482,251.71616,244.66505,244.58208,414.0,415.0,469.0,478.0,78.0,78.0,73.0,73.0,0.17824937,0.29073724,0.060342345,0.22568053,0.031422954,0.031054491,0.05006764,0.049772467,60.742306,59.46971,-3.8657334,-4.971474,-149.25818,-108.09287,767.219,812.13257,3241.7854,66523.234,76544.84,2.0,1.0,0.92759913,-4.227439E-4,0.0040123463,85.0,85.0,85.0,85.0,20.914034,20.91346,24.211866,24.211372,0.028133046,0.02853628,-6.982829E-4,-7.099384E-4,1029.596,0.0,0.0,0.0,0.0,0.0,0.0,0.0,0.0,0.0,0.0,0.0,0.0,0.0,54.43381,-0.053321093,40.754417,-0.010546316,-0.013689671,0.012713156,530924.94,119984.91,0.022138046,0.03249761,5951.123,5846.261,4442.67,4304.515,0.3203516,0.0,0.0,0.0
80.14639,80.14639,1.233,0.0,0.0,245.94691,10260.0,100.0,0.0,0.13861232,0.0,7.0,1.0,0.0,3559320.8,110.0,3.0,0.0,0.0,6.8710513,0.0,0.0,-653.11096,-139.21922,706.35956,-0.07013512,0.5951028,0.10102821,251.52399,251.53645,245.834,245.77434,412.0,413.0,467.0,476.0,78.0,77.0,72.0,72.0,0.17944591,0.29189026,0.060342345,0.22568053,0.03326216,0.032907084,0.050589204,0.05029924,23.901386,24.018286,12.851804,13.009383,-680.03375,-721.00464,38.905445,27.425592,3241.7854,69976.16,79225.19,2.0,1.0,0.92702985,-4.1561355E-4,0.0038212538,85.0,85.0,85.0,85.0,20.914608,20.914017,24.212225,24.211727,0.022617962,0.022885552,-5.701131E-4,-5.7803036E-4,1022.3664,0.0,0.0,0.0,0.0,0.0,0.0,0.0,0.0,0.0,0.0,0.0,0.0,0.0,54.66881,-0.028385578,40.972546,7.3504343E-4,-0.009811555,-0.001427481,529098.1,119984.914,0.02002321,0.029897638,6189.6104,6085.965,4987.967,4855.578,0.31800365,0.0,0.0,0.0
83.57081,83.57081,1.283,0.0,0.0,246.9821,10304.0,100.0,0.0,0.055066463,0.0,7.0,1.0,0.0,3556650.0,110.0,3.0,0.0,0.0,6.869721,0.0,0.0,-650.3719,-139.21944,708.41345,-0.05694133,0.58301985,0.057816427,252.61229,252.62976,246.85875,246.81818,411.0,412.0,466.0,474.0,77.0,77.0,72.0,72.0,0.17944591,0.29189026,0.060342345,0.22568053,0.03354521,0.033197533,0.05076967,0.050498392,-3.2515078,-2.3308394,-1.5129893,-0.43898818,-534.28253,-482.1002,-291.3817,-246.4011,3241.7854,73438.25,81895.88,2.0,1.0,0.9266141,-3.8817845E-4,0.0038317442,85.0,85.0,85.0,85.0,20.91518,20.914574,24.212599,24.21209,0.02273171,0.02294579,-5.637245E-4,-5.7789055E-4,1031.0089,0.0,0.0,0.0,0.0,0.0,0.0,0.0,0.0,0.0,0.0,0.0,0.0,0.0,54.880108,0.012149701,41.170086,0.001784375,-0.0063403165,9.613541E-4,531292.4,119984.91,0.019786967,0.02969382,6115.6396,6027.1377,4948.041,4827.6875,0.3177824,0.0,0.0,0.0
87.00945,87.00945,1.333,0.0,0.0,248.00636,10350.0,100.0,0.0,-0.07719745,0.0,7.0,1.0,0.0,3553995.5,110.0,3.0,0.0,0.0,6.8683867,0.0,0.0,-647.62225,-139.21869,710.4769,-0.02882281,0.579164,-0.021581162,253.74443,253.76537,247.86311,247.86147,409.0,410.0,464.0,473.0,77.0,77.0,72.0,72.0,0.1805805,0.29299754,0.060342345,0.22568053,0.0329387,0.032730892,0.05056466,0.050401986,-14.3062315,-10.68972,-3.9086487,-1.1955945,-75.63829,-33.648315,43.304256,62.40158,3241.7854,76915.805,84550.305,2.0,1.0,0.92646337,-2.1133051E-4,0.0039539337,85.0,85.0,85.0,85.0,20.915733,20.915113,24.212936,24.212421,0.02315859,0.023234952,-5.627838E-4,-5.8145006E-4,1040.0563,0.0,0.0,0.0,0.0,0.0,0.0,0.0,0.0,0.0,0.0,0.0,0.0,0.0,55.09592,0.010936387,41.356525,0.005803507,4.2843603E-4,-4.4364575E-4,533572.56,119984.92,0.02040172,0.030613545,5951.424,5911.743,4801.652,4736.0967,0.3185215,0.0,0.0,0.0
90.4624,90.4624,1.383,0.0,0.0,249.02702,10393.0,100.0,0.0,-0.15053694,0.0,7.0,1.0,0.0,3551356.8,110.0,3.0,0.0,0.0,6.867049,0.0,0.0,-644.8615,-139.21852,712.5494,0.0034522712,0.57729465,-0.023059124,254.77638,254.80084,248.86162,248.90344,407.0,408.0,462.0,471.0,77.0,77.0,71.0,71.0,0.1805805,0.29299754,0.060342345,0.22568053,0.032473087,0.032454405,0.050488696,0.050483797,-5.6918707,-1.9922105,-0.46201047,2.3719666,229.47635,220.20934,58.5392,17.514824,3241.7854,80408.32,87188.98,2.0,1.0,0.9266897,1.0942433E-5,0.004091978,85.0,85.0,85.0,85.0,20.916273,20.91565,24.213259,24.212751,0.023218276,0.02314933,-5.658643E-4,-5.751065E-4,1048.4504,0.0,0.0,0.0,0.0,0.0,0.0,0.0,0.0,0.0,0.0,0.0,0.0,0.0,55.32076,-0.0030932194,41.529263,0.0038203576,0.007509658,0.0014439947,535653.56,119984.92,0.02040024,0.030977175,5935.4995,5947.631,4810.3193,4814.8076,0.31868076,0.0,0.0,0.0
93.929375,93.929375,1.433,0.0,0.0,250.0417,10433.0,100.0,0.0,-0.07039202,0.0,7.0,1.0,0.0,3548732.5,111.0,3.0,0.0,0.0,6.8657084,0.0,0.0,-642.0894,-139.21886,714.6301,0.018106192,0.5731402,-0.0038388271,255.76256,255.78036,249.87567,249.91841,406.0,407.0,461.0,470.0,77.0,76.0,71.0,71.0,0.18168953,0.29411447,0.060342345,0.22568053,0.032570086,0.032677457,0.05052662,0.050606158,5.003437,6.3177195,1.0722129,2.029985,164.75467,69.99223,21.015102,-27.86815,3241.7854,83914.59,89813.16,2.0,1.0,0.92708087,1.2636126E-4,0.004063964,85.0,85.0,85.0,85.0,20.916815,20.916187,24.213575,24.21308,0.023013702,0.022924267,-5.712069E-4,-5.6448596E-4,1056.3752,0.0,0.0,0.0,0.0,0.0,0.0,0.0,0.0,0.0,0.0,0.0,0.0,0.0,55.55037,-0.008712296,41.69288,-2.1189079E-4,0.0070520085,0.0018052845,537633.1,119984.914,0.020093119,0.030593866,6000.3354,6031.4326,4851.2974,4890.1357,0.3183365,0.0,0.0,0.0
97.41043,97.41043,1.483,0.0,0.0,251.04788,10473.0,100.0,0.0,-0.16253194,0.0,7.0,1.0,0.0,3546122.5,111.0,3.0,0.0,0.0,6.864364,0.0,0.0,-639.3058,-139.21922,716.71893,0.0401555,0.56795156,0.00627061,256.76178,256.76477,250.88184,250.92487,404.0,405.0,459.0,468.0,76.0,76.0,70.0,70.0,0.18168953,0.29411447,0.060342345,0.22568053,0.032902565,0.033064812,0.05056721,0.050701387,4.5975294,7.1333346,-0.03956258,1.7257779,-163.49403,-62.388176,-61.87855,-3.2991168,3241.7854,87434.4,92423.1,2.0,1.0,0.9274088,2.1772445E-4,0.0039771795,85.0,85.0,85.0,85.0,20.91736,20.916733,24.213882,24.213404,0.02288201,0.022734582,-5.609682E-4,-5.691542E-4,1064.3644,0.0,0.0,0.0,0.0,0.0,0.0,0.0,0.0,0.0,0.0,0.0,0.0,0.0,55.783092,-0.006668534,41.848415,0.002221522,0.007575496,0.0033377507,539630.2,119984.91,0.019850224,0.030111186,6038.5854,6094.422,4873.5674,4940.5293,0.31798077,0.0,0.0,0.0
100.90542,100.90542,1.533,0.0,0.0,252.04529,10514.0,100.0,0.0,-0.30889693,0.0,7.0,1.0,0.0,3543527.0,111.0,3.0,0.0,0.0,6.863017,0.0,0.0,-636.5103,-139.2195,718.8152,0.070887774,0.5632295,0.0065369178,257.75665,257.76248,251.85829,251.9435,402.0,403.0,458.0,466.0,76.0,76.0,70.0,70.0,0.18277614,0.29523122,0.060342345,0.22568053,0.033023965,0.033402875,0.050536238,0.050824698,1.560822,5.7929006,-0.86255366,2.3920832,-54.864574,-54.059914,1.220405,11.184811,3241.7854,90967.89,95018.625,2.0,1.0,0.9279675,4.3948987E-4,0.0039309263,85.0,85.0,85.0,85.0,20.9179,20.917278,24.21418,24.213722,0.022861421,0.022567416,-5.559922E-4,-5.6909426E-4,1071.6196,0.0,0.0,0.0,0.0,0.0,0.0,0.0,0.0,0.0,0.0,0.0,0.0,0.0,56.02254,-0.0038618937,41.99091,0.0034070844,0.014933811,0.0029308933,541189.94,119984.91,0.01968311,0.029791526,6042.2065,6147.687,4864.7773,5005.664,0.31773186,0.0,0.0,0.0
104.41406,104.41406,1.583,0.0,0.0,253.03198,10554.0,100.0,0.0,-0.35388836,0.0,7.0,1.0,0.0,3540945.8,111.0,3.0,0.0,0.0,6.8616695,0.0,0.0,-633.70276,-139.21968,720.91815,0.10021922,0.5562658,1.2624677E-4,258.74344,258.75455,252.82674,252.94885,401.0,402.0,456.0,465.0,76.0,76.0,69.0,70.0,0.18277614,0.29523122,0.060342345,0.22568053,0.033048727,0.03359096,0.050504744,0.050929338,-0.4713982,2.1739302,-0.8209794,1.5038251,-75.9065,-121.343124,-25.58827,-58.217342,3241.7854,94515.016,97599.805,2.0,1.0,0.9288956,6.3244643E-4,0.0039283037,85.0,85.0,85.0,85.0,20.918436,20.917826,24.214466,24.214045,0.022835141,0.022429492,-5.5736344E-4,-5.607488E-4,1077.0958,0.0,0.0,0.0,0.0,0.0,0.0,0.0,0.0,0.0,0.0,0.0,0.0,0.0,56.268864,-0.0029758904,42.119236,0.002420382,0.020865975,0.0018105109,541893.9,119984.91,0.019586984,0.029684804,6023.1694,6173.41,4854.6396,5054.5244,0.31763458,0.0,0.0,0.0
107.93631,107.93631,1.633,0.0,0.0,254.00789,10594.0,100.0,0.0,-0.26874557,0.0,7.0,1.0,0.0,3538378.8,111.0,3.0,0.0,0.0,6.860322,0.0,0.0,-630.88275,-139.21996,723.0273,0.11332342,0.5506474,-8.0339465E-4,259.712,259.713,253.80403,253.92365,399.0,400.0,455.0,463.0,75.0,75.0,69.0,69.0,0.18383491,0.2963551,0.060342345,0.22568053,0.033112854,0.033729173,0.05050246,0.05099774,2.376884,2.8536468,0.25771555,1.0762362,66.71994,-12.753896,16.187128,-23.187695,3241.7854,98075.586,100166.83,2.0,1.0,0.9299431,7.236866E-4,0.003929734,85.0,85.0,85.0,85.0,20.918966,20.918377,24.214739,24.214357,0.022713538,0.022293905,-5.62123E-4,-5.504921E-4,1082.546,0.0,0.0,0.0,0.0,0.0,0.0,0.0,0.0,0.0,0.0,0.0,0.0,0.0,56.518623,-0.0044352673,42.237907,5.0856476E-4,0.01984847,1.2024337E-4,542579.56,119984.91,0.01950184,0.02950723,6042.046,6212.6934,4865.1016,5093.7725,0.31749249,0.0,0.0,0.0
111.47206,111.47206,1.683,0.0,0.0,254.972,10633.0,100.0,0.0,-0.21782455,0.0,7.0,1.0,0.0,3535825.8,111.0,3.0,0.0,0.0,6.8589735,0.0,0.0,-628.05023,-139.22023,725.1423,0.11468218,0.54409945,-0.0058217775,260.68335,260.66788,254.78107,254.87544,397.0,398.0,453.0,462.0,75.0,75.0,69.0,69.0,0.18383491,0.2963551,0.060342345,0.22568053,0.033204004,0.033803463,0.050540175,0.051029507,1.554787,1.2771784,0.79594547,0.6017088,0.80466264,24.475153,8.8647,19.955631,3241.7854,101649.41,102719.9,2.0,1.0,0.93081635,7.170612E-4,0.0039378405,85.0,85.0,85.0,85.0,20.919497,20.91892,24.21501,24.214663,0.022607705,0.02221901,-5.5803504E-4,-5.48059E-4,1087.9037,0.0,0.0,0.0,0.0,0.0,0.0,0.0,0.0,0.0,0.0,0.0,0.0,0.0,56.76696,-0.007306637,42.35294,-4.8425572E-5,0.015580183,-7.7362565E-5,543264.9,119984.914,0.01942899,0.029445263,6050.3887,6221.73,4890.842,5113.617,0.31742,0.0,0.0,0.0
115.02108,115.02108,1.733,0.0,0.0,255.9261,10671.0,100.0,0.0,-0.29699796,0.0,7.0,1.0,0.0,3533286.2,111.0,3.0,0.0,0.0,6.8576245,0.0,0.0,-625.2053,-139.22072,727.26294,0.12118755,0.5385368,0.0061996044,261.61435,261.59723,255.73495,255.83005,396.0,397.0,451.0,460.0,75.0,75.0,68.0,68.0,0.18487713,0.2974649,0.060342345,0.22568053,0.033371523,0.034006383,0.05059987,0.05110323,4.979521,6.4379716,1.4298408,2.0901113,96.31812,149.18445,3.8892028,36.115944,3241.7854,105236.27,105259.24,2.0,1.0,0.93157905,7.483845E-4,0.00390625,85.0,85.0,85.0,85.0,20.920025,20.919468,24.21527,24.214966,0.022441523,0.022038968,-5.4792E-4,-5.514423E-4,1093.1221,0.0,0.0,0.0,0.0,0.0,0.0,0.0,0.0,0.0,0.0,0.0,0.0,0.0,57.014126,-0.008458615,42.464813,5.2224396E-4,0.016181843,0.002149159,543926.94,119984.914,0.019174699,0.029125484,6096.948,6273.4375,4941.6367,5173.882,0.31713486,0.0,0.0,0.0
118.58314,118.58314,1.783,0.0,0.0,256.8686,10709.0,100.0,0.0,-0.28623706,0.0,7.0,1.0,0.0,3530760.2,111.0,3.0,0.0,0.0,6.8562756,0.0,0.0,-622.34814,-139.22101,729.38904,0.1205831,0.5318533,3.7050043E-4,262.54697,262.53745,256.67377,256.77692,394.0,395.0,450.0,458.0,75.0,75.0,68.0,68.0,0.18487713,0.2974649,0.060342345,0.22568053,0.033556804,0.034215707,0.05061985,0.051146705,2.9852984,2.1891294,0.65468246,0.45552847,-19.137568,-102.299446,30.899042,4.7877426,3241.7854,108835.914,107785.14,2.0,1.0,0.932429,7.671965E-4,0.003849864,85.0,85.0,85.0,85.0,20.920553,20.920017,24.215525,24.21526,0.022330966,0.021931255,-5.4750324E-4,-5.460545E-4,1098.3588,0.0,0.0,0.0,0.0,0.0,0.0,0.0,0.0,0.0,0.0,0.0,0.0,0.0,57.259518,-0.00785616,42.573597,-7.146457E-4,0.017383985,2.263519E-4,544593.3,119984.91,0.019129382,0.02895494,6115.025,6288.873,4943.629,5184.013,0.31704807,0.0,0.0,0.0
122.15814,122.15814,1.833,0.0,0.0,257.8004,10747.0,100.0,0.0,-0.45392573,0.0,7.0,1.0,0.0,3528247.8,111.0,3.0,0.0,0.0,6.8549256,0.0,0.0,-619.47864,-139.22134,731.5204,0.14558311,0.5258659,0.004450201,263.4674,263.45764,257.5917,257.72256,393.0,393.0,448.0,457.0,74.0,74.0,68.0,68.0,0.18590091,0.29856738,0.060342345,0.22568053,0.03366234,0.034396052,0.050644998,0.051224973,1.9291787,5.62638,-0.21792947,2.4582443,-10.192393,146.51564,-63.60857,57.037163,3241.7854,112448.36,110297.56,2.0,1.0,0.93339616,8.651662E-4,0.003808856,85.0,85.0,85.0,85.0,20.921082,20.920565,24.21577,24.215551,0.02225895,0.021755783,-5.358465E-4,-5.5136695E-4,1103.5818,0.0,0.0,0.0,0.0,0.0,0.0,0.0,0.0,0.0,0.0,0.0,0.0,0.0,57.506714,-0.007782806,42.674877,0.0031395394,0.02271306,0.003757493,545248.25,119984.91,0.01894925,0.028720258,6126.382,6336.802,4967.0225,5241.1357,0.31682682,0.0,0.0,0.0
125.745995,125.745995,1.883,0.0,0.0,258.72116,10784.0,100.0,0.0,-0.59707505,0.0,7.0,1.0,0.0,3525748.8,111.0,3.0,0.0,0.0,6.853575,0.0,0.0,-616.59656,-139.22162,733.65643,0.18592767,0.5196865,0.0039132345,264.3719,264.37924,258.47888,258.67694,391.0,392.0,447.0,455.0,74.0,74.0,67.0,67.0,0.18590091,0.29856738,0.060342345,0.22568053,0.03367708,0.034701258,0.050580125,0.051374283,0.066384666,6.369352,-1.2613087,3.5604088,0.7376072,7.4565406,6.4909453,30.604002,3241.7854,116073.38,112796.74,2.0,1.0,0.9348404,0.0011805876,0.0037674904,85.0,85.0,85.0,85.0,20.921604,20.921118,24.216005,24.215841,0.022240574,0.021558974,-5.353706E-4,-5.4580515E-4,1108.7009,0.0,0.0,0.0,0.0,0.0,0.0,0.0,0.0,0.0,0.0,0.0,0.0,0.0,57.763145,-0.0074001844,42.75843,0.0041320017,0.03400009,0.0040787663,545898.06,119984.92,0.018795827,0.02849104,6115.659,6394.282,4943.1133,5318.393,0.31664276,0.0,0.0,0.0
129.34651,129.34651,1.933,0.0,0.0,259.63135,10820.0,100.0,0.0,-0.5627574,0.0,7.0,1.0,0.0,3523262.5,111.0,3.0,0.0,0.0,6.8522243,0.0,0.0,-613.7013,-139.2219,735.7962,0.21571802,0.5139176,0.007044542,265.26886,265.27536,259.3771,259.59882,389.0,390.0,445.0,454.0,74.0,74.0,67.0,67.0,0.18689373,0.29968747,0.060342345,0.22568053,0.03378775,0.034961727,0.05056613,0.051490374,2.9249487,5.207732,0.085383646,1.8024443,38.27512,18.252438,22.047754,-31.78417,3241.7854,119710.84,115282.836,2.0,1.0,0.93666667,0.0013669746,0.0037151575,85.0,85.0,85.0,85.0,20.922121,20.921675,24.216228,24.216133,0.022148173,0.02139505,-5.4127275E-4,-5.3477363E-4,1113.7021,0.0,0.0,0.0,0.0,0.0,0.0,0.0,0.0,0.0,0.0,0.0,0.0,0.0,58.02711,-0.0053221206,42.826664,0.0014296621,0.03736769,0.0024113907,546536.06,119984.91,0.018581588,0.028184146,6126.9893,6450.253,4949.5254,5374.828,0.31636143,0.0,0.0,0.0
132.9594,132.9594,1.983,0.0,0.0,260.53113,10857.0,100.0,0.0,-0.08486762,0.0,7.0,1.0,0.0,3520789.5,111.0,3.0,0.0,0.0,6.8508725,0.0,0.0,-610.7929,-139.22209,737.9393,0.17928183,0.50906044,0.00796977,266.17242,266.15857,260.3127,260.46393,388.0,389.0,444.0,452.0,74.0,74.0,66.0,67.0,0.18689373,0.29968747,0.060342345,0.22568053,0.034018517,0.03510918,0.05062903,0.051517442,5.851462,0.8234381,2.3089347,-0.86747104,84.23475,-146.00603,68.90594,-107.34199,3241.7854,123360.625,117755.96,2.0,1.0,0.9382847,0.00126835,0.0036725998,85.0,85.0,85.0,85.0,20.92264,20.922234,24.216446,24.21642,0.02195136,0.021410614,-5.66372E-4,-5.071716E-4,1118.8107,0.0,0.0,0.0,0.0,0.0,0.0,0.0,0.0,0.0,0.0,0.0,0.0,0.0,58.287247,-0.002014667,42.894966,-0.0076495246,0.023367181,-0.0048198286,547171.9,119984.91,0.018423732,0.027928019,6169.5645,6457.2183,4991.7324,5386.3643,0.3161602,0.0,0.0,0.0
136.58455,136.58455,2.033,0.0,0.0,261.4215,10893.0,100.0,0.0,0.9964412,0.0,7.0,1.0,0.0,3518329.2,111.0,3.0,0.0,0.0,6.84952,0.0,0.0,-607.87244,-139.22217,740.0868,0.0039859265,0.50245804,-0.0032221028,267.0879,267.01868,261.34018,261.21936,386.0,387.0,442.0,450.0,73.0,73.0,66.0,66.0,0.18789995,0.3007538,0.060342345,0.22568053,0.03451118,0.034797724,0.050959725,0.05122769,12.088045,-8.4067135,8.4820385,-7.315501,121.986855,-101.76303,97.484886,-69.84472,3241.7854,127022.62,120216.22,2.0,1.0,0.9382882,2.944643E-4,0.003656745,85.0,85.0,85.0,85.0,20.923168,20.92278,24.216675,24.216679,0.02147183,0.021703886,-5.9828965E-4,-4.6885846E-4,1123.8164,0.0,0.0,0.0,0.0,0.0,0.0,0.0,0.0,0.0,0.0,0.0,0.0,0.0,58.508556,-0.003370553,43.011513,-0.02362329,-0.025555287,-0.017029433,547803.56,119984.91,0.018340979,0.027817521,6297.2725,6328.5444,5157.503,5235.047,0.31606293,0.0,0.0,0.0
140.22209,140.22209,2.083,0.0,0.0,262.30124,10929.0,100.0,0.0,1.6307778,0.0,7.0,1.0,0.0,3515881.8,111.0,3.0,0.0,0.0,6.848167,0.0,0.0,-604.9426,-139.2224,742.24243,-0.23098926,0.49581897,0.0052261194,267.98932,267.85468,262.3872,261.92923,384.0,385.0,441.0,449.0,73.0,73.0,66.0,66.0,0.18789995,0.3007538,0.060342345,0.22568053,0.035407815,0.03431241,0.051567227,0.05073894,18.44108,-9.530782,12.376829,-10.233745,15.811615,5.1364512,15.033759,-31.435486,3241.7854,130696.664,122663.8,2.0,1.0,0.9354686,-0.0012939764,0.0036207438,85.0,85.0,85.0,85.0,20.923721,20.923302,24.216932,24.216902,0.020883644,0.02205406,-5.7260063E-4,-4.8364198E-4,1128.803,0.0,0.0,0.0,0.0,0.0,0.0,0.0,0.0,0.0,0.0,0.0,0.0,0.0,58.662186,-0.002482425,43.215046,-0.026315818,-0.08158779,-0.01825737,548421.8,119984.91,0.018156491,0.027509712,6531.1206,6177.004,5461.218,5018.9224,0.31581974,0.0,0.0,0.0
143.87178,143.87178,2.133,0.0,0.0,263.16614,10965.0,100.0,0.0,1.2532743,0.0,7.0,1.0,0.0,3513447.0,111.0,3.0,0.0,0.0,6.846813,0.0,0.0,-602.0069,-139.22255,744.4103,-0.3853821,0.4896122,0.002676939,268.88223,268.73895,263.3024,262.74005,383.0,384.0,439.0,447.0,73.0,73.0,65.0,65.0,0.18908045,0.3017047,0.060342345,0.22568053,0.036010507,0.033933565,0.052012037,0.050357733,9.043737,-4.3118744,6.8606434,-4.6185403,-155.82292,246.24016,-134.27135,210.76797,3241.7854,134382.89,125098.555,2.0,1.0,0.9307862,-0.0024283673,0.0036019087,85.0,85.0,85.0,85.0,20.924292,20.923801,24.217218,24.217087,0.020779857,0.022210186,-5.120745E-4,-5.4015924E-4,1133.8273,0.0,0.0,0.0,0.0,0.0,0.0,0.0,0.0,0.0,0.0,0.0,0.0,0.0,58.75471,-0.0027250925,43.49418,-0.010395811,-0.09474368,-0.0074588545,549054.25,119984.91,0.018026408,0.027337523,6676.6265,6070.5605,5655.47,4870.4014,0.31566525,0.0,0.0,0.0
147.53369,147.53369,2.183,0.0,0.0,264.02225,10999.0,100.0,0.0,-0.051318597,0.0,7.0,1.0,0.0,3511024.8,111.0,3.0,0.0,0.0,6.8454585,0.0,0.0,-599.0671,-139.22267,746.5927,-0.3347875,0.48538148,-4.2668614E-4,269.67133,269.6493,264.03088,263.7267,381.0,382.0,437.0,446.0,73.0,73.0,65.0,65.0,0.18908045,0.3017047,0.060342345,0.22568053,0.03604064,0.034055304,0.052040473,0.050399575,-2.6679037,6.933063,-2.215728,4.2977924,-129.30928,317.45282,-133.06436,221.72478,3241.7854,138081.03,127520.78,2.0,1.0,0.9271115,-0.0023080849,0.0035960674,85.0,85.0,85.0,85.0,20.924868,20.924297,24.2175,24.217262,0.020966388,0.021856071,-4.5239058E-4,-6.0300593E-4,1138.5918,0.0,0.0,0.0,0.0,0.0,0.0,0.0,0.0,0.0,0.0,0.0,0.0,0.0,58.83671,-0.003185116,43.782703,0.013438447,-0.0457999,0.01043216,549657.1,119984.91,0.017922651,0.027220936,6663.3184,6116.8335,5651.131,4920.1787,0.31554317,0.0,0.0,0.0
151.20763,151.20763,2.233,0.0,0.0,264.8727,11033.0,100.0,0.0,-1.3177667,0.0,7.0,1.0,0.0,3508614.5,111.0,3.0,0.0,0.0,6.844104,0.0,0.0,-596.122,-139.22285,748.78796,-0.090537,0.48074174,-0.0017516208,270.39874,270.55353,264.6427,264.82104,380.0,381.0,436.0,444.0,73.0,72.0,65.0,65.0,0.19017877,0.30265763,0.060342345,0.22568053,0.03560414,0.034883507,0.051589653,0.0509372,-11.012256,17.55528,-11.2489605,11.788084,-114.53035,-37.711826,-101.36066,9.079284,3241.7854,141790.6,129930.984,2.0,1.0,0.92701954,-8.110683E-4,0.0035521984,85.0,85.0,85.0,85.0,20.925425,20.924814,24.217752,24.21746,0.021325985,0.02112431,-4.413574E-4,-6.087723E-4,1142.185,0.0,0.0,0.0,0.0,0.0,0.0,0.0,0.0,0.0,0.0,0.0,0.0,0.0,58.971836,-0.0031390851,43.996746,0.029588168,0.037145503,0.023416977,549692.56,119984.9,0.017789908,0.026977295,6484.603,6330.304,5418.154,5183.9346,0.31536293,0.0,0.0,0.0
154.8933,154.8933,2.283,0.0,0.0,265.71295,11066.0,100.0,0.0,-1.5681541,0.0,7.0,1.0,0.0,3506216.0,111.0,3.0,0.0,0.0,6.842749,0.0,0.0,-593.168,-139.22308,750.99084,0.18917058,0.47316402,0.0048624496,271.18533,271.40045,265.30612,265.83817,378.0,379.0,434.0,443.0,72.0,72.0,64.0,64.0,0.19017877,0.30265763,0.060342345,0.22568053,0.035001997,0.03590188,0.050971456,0.05165219,-10.931119,18.854588,-11.350884,13.313814,108.22711,-157.59314,95.593925,-107.04694,3241.7854,145511.28,132329.45,2.0,1.0,0.93062466,0.001098501,0.0035083294,85.0,85.0,85.0,85.0,20.92595,20.92536,24.217955,24.217701,0.021597382,0.02048366,-4.8920664E-4,-5.464749E-4,1145.6754,0.0,0.0,0.0,0.0,0.0,0.0,0.0,0.0,0.0,0.0,0.0,0.0,0.0,59.189026,-0.0024850743,44.09592,0.025755996,0.0932101,0.020103555,549728.1,119984.91,0.017595615,0.026676508,6287.6226,6600.818,5150.915,5530.835,0.3151188,0.0,0.0,0.0
158.59045,158.59045,2.333,0.0,0.0,266.53845,11100.0,100.0,0.0,-0.5739328,0.0,7.0,1.0,0.0,3503829.8,111.0,3.0,0.0,0.0,6.8413944,0.0,0.0,-590.2016,-139.22322,753.1965,0.30097067,0.46713802,0.0017606455,272.05844,272.2081,266.16003,266.63257,377.0,377.0,433.0,441.0,72.0,72.0,64.0,64.0,0.19109981,0.3037912,0.060342345,0.22568053,0.03467436,0.036369797,0.050648905,0.052036006,-2.587214,5.0941854,-2.3726373,4.5966353,281.40393,-235.44429,287.59982,-188.89453,3241.7854,149243.5,134715.78,2.0,1.0,0.93518704,0.0020134184,0.0035014153,85.0,85.0,85.0,85.0,20.926453,20.925924,24.218119,24.217962,0.021561272,0.02052195,-5.668827E-4,-4.6810257E-4,1149.2719,0.0,0.0,0.0,0.0,0.0,0.0,0.0,0.0,0.0,0.0,0.0,0.0,0.0,59.45664,-0.0028751062,44.120308,0.0021882274,0.07672327,0.001558874,549764.6,119984.91,0.017459504,0.026524527,6206.9766,6714.7944,5040.0215,5690.882,0.3149624,0.0,0.0,0.0
162.29881,162.29881,2.399,0.0,0.0,267.3548,11133.0,100.0,0.0,0.4384893,0.0,7.0,1.0,0.0,3501455.2,111.0,3.0,0.0,0.0,6.8400397,0.0,0.0,-587.22174,-139.2233,755.4031,0.22568354,0.4614371,-0.0030118371,272.95074,272.92172,267.1615,267.26688,375.0,376.0,431.0,439.0,72.0,72.0,64.0,64.0,0.19109981,0.3037912,0.060342345,0.22568053,0.03497174,0.036249425,0.05083008,0.05192352,0.0,0.0,0.0,0.0,150.15009,-167.5844,133.14485,-170.74942,3241.7854,152986.94,137090.33,2.0,1.0,0.9373974,0.0015346259,0.0034970045,85.0,85.0,85.0,85.0,20.926962,20.926485,24.218285,24.218218,0.021111213,0.020745913,-5.799849E-4,-4.5262085E-4,1152.7618,0.0,0.0,0.0,0.0,0.0,0.0,0.0,0.0,0.0,0.0,0.0,0.0,0.0,59.71638,-0.0031425427,44.15061,-0.01446051,0.012671471,-0.010543563,549799.56,119984.91,0.017403962,0.026434124,6294.842,6648.3804,5142.9746,5612.6914,0.3148899,0.0,0.0,0.0
166.01843,166.01843,2.433,0.0,0.0,268.16397,11165.0,100.0,0.0,1.3871127,0.0,7.0,1.0,0.0,3499092.0,111.0,3.0,0.0,0.0,6.8386836,0.0,0.0,-584.2303,-139.22357,757.6131,-0.027092084,0.45586187,0.0010507166,273.79083,273.6247,268.17825,267.87128,373.0,374.0,430.0,438.0,72.0,72.0,63.0,63.0,0.19206046,0.3048065,0.060342345,0.22568053,0.035743896,0.035833027,0.051363196,0.05148737,17.890333,-10.334327,12.276693,-10.756552,81.95491,-111.71396,59.719387,-91.34261,3241.7854,156741.17,139453.5,2.0,1.0,0.9361056,7.029805E-5,0.0034726858,85.0,85.0,85.0,85.0,20.92749,20.92703,24.218475,24.21844,0.020449799,0.020986447,-5.731132E-4,-4.507095E-4,1156.1459,0.0,0.0,0.0,0.0,0.0,0.0,0.0,0.0,0.0,0.0,0.0,0.0,0.0,59.91541,-0.0033374762,44.259495,-0.029250909,-0.057388995,-0.020768268,549833.1,119984.91,0.017212836,0.026150353,6519.623,6482.496,5415.91,5406.4814,0.31463814,0.0,0.0,0.0
169.74911,169.74911,2.483,0.0,0.0,268.96017,11197.0,100.0,0.0,1.2288376,0.0,7.0,1.0,0.0,3496740.0,111.0,3.0,0.0,0.0,6.8373275,0.0,0.0,-581.231,-139.22383,759.8312,-0.24353102,0.44820803,0.0035804266,274.6058,274.40854,269.0751,268.56464,372.0,373.0,428.0,436.0,71.0,71.0,63.0,63.0,0.19206046,0.3048065,0.060342345,0.22568053,0.03658685,0.035330288,0.051963527,0.050975416,13.808234,-8.038357,10.125786,-8.382796,-220.51785,158.47829,-147.62872,137.86554,3241.7854,160506.17,141805.34,2.0,1.0,0.9321732,-0.0014879728,0.0034462214,85.0,85.0,85.0,85.0,20.92805,20.927544,24.2187,24.218616,0.020122012,0.02118945,-5.0998334E-4,-5.0385343E-4,1159.5327,0.0,0.0,0.0,0.0,0.0,0.0,0.0,0.0,0.0,0.0,0.0,0.0,0.0,60.04026,-0.0026544097,44.462616,-0.018309517,-0.087430194,-0.013046172,549867.9,119984.91,0.017048748,0.025917439,6729.0386,6329.9155,5693.1416,5191.202,0.31446362,0.0,0.0,0.0
173.49103,173.49103,2.533,0.0,0.0,269.7442,11229.0,100.0,0.0,0.50861883,0.0,7.0,1.0,0.0,3494400.0,111.0,3.0,0.0,0.0,6.8359714,0.0,0.0,-578.2267,-139.22404,762.06085,-0.32279173,0.44351733,-1.6066952E-4,275.34137,275.24603,269.7982,269.40744,370.0,371.0,427.0,435.0,71.0,71.0,63.0,63.0,0.19318034,0.30569282,0.060342345,0.22568053,0.036897376,0.035150576,0.05220593,0.05077497,3.3033638,-0.488162,2.7973204,-1.3285874,-176.65025,204.53181,-125.82241,170.34708,3241.7854,164282.19,144145.6,2.0,1.0,0.92825294,-0.0020646027,0.0034543276,85.0,85.0,85.0,85.0,20.928617,20.928047,24.218945,24.218767,0.020154703,0.021091733,-4.695842E-4,-5.449072E-4,1162.9188,0.0,0.0,0.0,0.0,0.0,0.0,0.0,0.0,0.0,0.0,0.0,0.0,0.0,60.12427,-0.0035927645,44.71486,-0.0010963858,-0.063442566,-0.0015949963,549902.06,119984.91,0.017017137,0.025820343,6799.872,6292.564,5789.6206,5124.7334,0.31438446,0.0,0.0,0.0
177.244,177.244,2.583,0.0,0.0,270.5192,11261.0,100.0,0.0,-0.42378446,0.0,7.0,1.0,0.0,3492071.2,111.0,3.0,0.0,0.0,6.8346143,0.0,0.0,-575.21814,-139.22432,764.30304,-0.22392015,0.4384121,-0.0043711886,276.03763,276.08035,270.42224,270.33722,369.0,370.0,425.0,433.0,71.0,71.0,63.0,63.0,0.19318034,0.30569282,0.060342345,0.22568053,0.036765587,0.035393678,0.052100822,0.050957043,-5.1042433,8.2591915,-4.427656,6.028935,-128.34367,220.33002,-140.17223,133.27896,3241.7854,168068.83,146474.66,2.0,1.0,0.92643434,-0.0015758529,0.0034765005,85.0,85.0,85.0,85.0,20.929184,20.92855,24.21918,24.218916,0.02035235,0.020706026,-4.482152E-4,-5.64051E-4,1166.3035,0.0,0.0,0.0,0.0,0.0,0.0,0.0,0.0,0.0,0.0,0.0,0.0,0.0,60.217342,-0.0057079373,44.950256,0.015788788,-0.009606164,0.012130985,549935.3,119984.91,0.016931836,0.02577676,6726.599,6373.8,5727.881,5235.4893,0.31432343,0.0,0.0,0.0
181.00777,181.00777,2.633,0.0,0.0,271.28757,11291.0,100.0,0.0,-0.9480916,0.0,7.0,1.0,0.0,3489753.0,111.0,3.0,0.0,0.0,6.8332567,0.0,0.0,-572.2038,-139.22464,766.5553,-0.029355839,0.43339312,-0.005367509,276.72153,276.86795,271.04172,271.2574,367.0,368.0,424.0,432.0,71.0,71.0,62.0,62.0,0.1941778,0.30661666,0.060342345,0.22568053,0.03639202,0.03603434,0.051715825,0.051402718,-8.462816,14.308467,-8.834079,9.940936,-74.95433,111.35192,-73.854645,82.115814,3241.7854,171865.78,148792.88,2.0,1.0,0.9273216,-3.5516045E-4,0.0034412146,85.0,85.0,85.0,85.0,20.92973,20.929071,24.219383,24.219093,0.020483775,0.020209007,-4.6019675E-4,-5.449685E-4,1169.4786,0.0,0.0,0.0,0.0,0.0,0.0,0.0,0.0,0.0,0.0,0.0,0.0,0.0,60.357994,-0.008785051,45.118607,0.022070097,0.04041495,0.017582614,549967.3,119984.92,0.01685956,0.02562234,6589.254,6554.0586,5540.041,5452.181,0.3142128,0.0,0.0,0.0
184.78217,184.78217,2.683,0.0,0.0,272.04556,11321.0,100.0,0.0,-1.0417303,0.0,7.0,1.0,0.0,3487445.2,111.0,3.0,0.0,0.0,6.831899,0.0,0.0,-569.1809,-139.2251,768.81384,0.16953543,0.4269914,0.007245075,277.45813,277.60867,271.71393,272.09946,366.0,366.0,422.0,430.0,71.0,71.0,62.0,62.0,0.1941778,0.30661666,0.060342345,0.22568053,0.036053706,0.036842987,0.05131624,0.05193044,-6.1695275,15.565975,-7.793381,10.006204,15.194692,-62.736855,-2.4944398,-47.408062,3241.7854,175672.81,151100.47,2.0,1.0,0.93015546,9.6952857E-4,0.00338912,85.0,85.0,85.0,85.0,20.930258,20.92962,24.21955,24.2193,0.020610455,0.019817907,-4.8425896E-4,-5.134055E-4,1172.6544,0.0,0.0,0.0,0.0,0.0,0.0,0.0,0.0,0.0,0.0,0.0,0.0,0.0,60.557434,-0.0073001906,45.20345,0.018439822,0.066995874,0.015244341,549999.44,119984.92,0.016653685,0.025303451,6482.2925,6754.492,5379.2256,5710.449,0.31395817,0.0,0.0,0.0
188.56682,188.56682,2.733,0.0,0.0,272.79044,11352.0,100.0,0.0,-0.7275634,0.0,7.0,1.0,0.0,3485148.8,111.0,3.0,0.0,0.0,6.83054,0.0,0.0,-566.1468,-139.22537,771.0747,0.28560686,0.4212535,0.0010375413,278.23404,278.34988,272.45963,272.8413,364.0,365.0,421.0,429.0,70.0,70.0,62.0,62.0,0.19505033,0.30767846,0.060342345,0.22568053,0.035799477,0.037322648,0.051035892,0.052261967,-3.2857058,7.494762,-3.9786096,5.110502,142.13025,-77.62312,109.3134,-75.83945,3241.7854,179490.22,153397.16,2.0,1.0,0.9335468,0.0018045916,0.003341794,85.0,85.0,85.0,85.0,20.930765,20.930183,24.219687,24.219528,0.02064025,0.019786043,-5.115814E-4,-4.8303392E-4,1175.9359,0.0,0.0,0.0,0.0,0.0,0.0,0.0,0.0,0.0,0.0,0.0,0.0,0.0,60.79862,-0.006908577,45.226063,0.007263666,0.0638092,0.006189109,550032.44,119984.91,0.016542228,0.025116486,6407.258,6857.431,5263.3213,5848.8467,0.31380177,0.0,0.0,0.0
192.36136,192.36136,2.783,0.0,0.0,273.5264,11381.0,100.0,0.0,-0.26496464,0.0,7.0,1.0,0.0,3482862.8,111.0,3.0,0.0,0.0,6.829181,0.0,0.0,-563.1002,-139.22565,773.3357,0.29068023,0.4160233,0.00617598,279.00104,279.0304,273.26736,273.50626,362.0,363.0,419.0,427.0,70.0,70.0,61.0,61.0,0.19505033,0.30767846,0.060342345,0.22568053,0.03587682,0.037497353,0.051041707,0.05235121,3.7036834,1.8035619,1.7760693,0.4962086,125.43349,-79.25927,85.76362,-69.764244,3241.7854,183317.75,155683.17,2.0,1.0,0.9361051,0.0018884148,0.0033205748,85.0,85.0,85.0,85.0,20.931274,20.93075,24.219814,24.219757,0.020438284,0.019794228,-5.232417E-4,-4.683924E-4,1178.8435,0.0,0.0,0.0,0.0,0.0,0.0,0.0,0.0,0.0,0.0,0.0,0.0,0.0,61.049786,-0.0051120585,45.23071,-0.0037513417,0.038207952,-0.0020231116,549987.4,119984.92,0.016352396,0.024909517,6436.458,6880.047,5297.5786,5891.8633,0.31362152,0.0,0.0,0.0
196.16626,196.16626,2.833,0.0,0.0,274.25357,11410.0,100.0,0.0,0.069622405,0.0,7.0,1.0,0.0,3480587.0,111.0,3.0,0.0,0.0,6.827822,0.0,0.0,-560.0414,-139.22585,775.5978,0.21793509,0.4106969,0.0068633454,279.73944,279.70224,274.07684,274.15378,361.0,362.0,418.0,426.0,70.0,70.0,61.0,61.0,0.19590996,0.30871153,0.060342345,0.22568053,0.03620718,0.037480786,0.05122032,0.052255765,7.894859,-1.0201334,4.192069,-3.217086,74.471535,-50.07683,41.721767,-90.94029,3241.7854,187155.11,157958.83,2.0,1.0,0.93728715,0.0014714748,0.0032697916,85.0,85.0,85.0,85.0,20.931787,20.931314,24.21995,24.219975,0.020147035,0.019814381,-5.1862263E-4,-4.6876338E-4,1180.6256,0.0,0.0,0.0,0.0,0.0,0.0,0.0,0.0,0.0,0.0,0.0,0.0,0.0,61.285126,-0.002072584,45.252205,-0.010455303,0.010742613,-0.0065575996,549418.9,119984.92,0.01621889,0.02467711,6520.916,6846.8467,5388.8604,5838.828,0.31342125,0.0,0.0,0.0
199.981,199.981,2.883,0.0,0.0,274.97195,11438.0,100.0,0.0,0.14928934,0.0,7.0,1.0,0.0,3478321.5,111.0,3.0,0.0,0.0,6.826463,0.0,0.0,-556.9715,-139.22594,777.86176,0.1249555,0.40521392,-0.0017010553,280.4526,280.37674,274.84897,274.8206,359.0,360.0,416.0,424.0,70.0,70.0,61.0,61.0,0.19590996,0.30871153,0.060342345,0.22568053,0.03651961,0.03729341,0.051446974,0.052057564,5.971267,-3.8532164,4.825741,-3.2845883,8.5160055,15.476345,25.910137,55.870396,3241.7854,191002.12,160224.33,2.0,1.0,0.9373227,8.6557464E-4,0.003260374,85.0,85.0,85.0,85.0,20.932306,20.931868,24.220093,24.220171,0.0199115,0.01977094,-5.018689E-4,-4.8048474E-4,1182.3179,0.0,0.0,0.0,0.0,0.0,0.0,0.0,0.0,0.0,0.0,0.0,0.0,0.0,61.491676,-0.0032021396,45.30835,-0.009339379,-0.005980617,-0.0068987175,548859.5,119984.91,0.01612421,0.024571218,6598.6094,6768.749,5497.5234,5751.8667,0.31332397,0.0,0.0,0.0
203.80548,203.80548,2.933,0.0,0.0,275.67972,11467.0,100.0,0.0,0.060943123,0.0,7.0,1.0,0.0,3476066.0,111.0,3.0,0.0,0.0,6.825104,0.0,0.0,-553.8921,-139.226,780.12933,0.054658413,0.3987565,-0.0010070172,281.1347,281.08133,275.5683,275.51767,358.0,359.0,415.0,423.0,70.0,70.0,60.0,60.0,0.19680414,0.3096465,0.060342345,0.22568053,0.03684275,0.037185866,0.051658597,0.05192436,5.2182374,-2.3735313,3.2693892,-2.7494876,-80.546715,-18.158554,-52.15553,15.422701,3241.7854,194858.61,162479.89,2.0,1.0,0.9369029,3.6983236E-4,0.003240347,85.0,85.0,85.0,85.0,20.932835,20.93241,24.220247,24.220356,0.019737277,0.019726356,-4.8584194E-4,-4.9046375E-4,1184.1085,0.0,0.0,0.0,0.0,0.0,0.0,0.0,0.0,0.0,0.0,0.0,0.0,0.0,61.67208,-0.0026738597,45.394913,-0.0061796065,-0.008625368,-0.0042035496,548300.56,119984.914,0.016072014,0.02447025,6672.9365,6733.663,5593.7383,5697.198,0.31324196,0.0,0.0,0.0
207.63968,207.63968,2.983,0.0,0.0,276.3773,11494.0,100.0,0.0,-0.10405736,0.0,7.0,1.0,0.0,3473820.5,111.0,3.0,0.0,0.0,6.8237453,0.0,0.0,-550.8041,-139.22615,782.4017,0.030754566,0.3927213,0.0023580925,281.79834,281.78195,276.24457,276.2372,356.0,357.0,413.0,421.0,69.0,69.0,60.0,60.0,0.19680414,0.3096465,0.060342345,0.22568053,0.037038643,0.037211113,0.05176908,0.051893957,2.9055028,1.3093649,1.3580917,-0.20898877,-106.5105,-1.0326504,-63.890213,-4.3988223,3241.7854,198724.55,164725.48,2.0,1.0,0.9366652,1.8632824E-4,0.0032266378,85.0,85.0,85.0,85.0,20.933369,20.93295,24.220404,24.220528,0.019645574,0.019604303,-4.7662668E-4,-4.9470185E-4,1185.706,0.0,0.0,0.0,0.0,0.0,0.0,0.0,0.0,0.0,0.0,0.0,0.0,0.0,61.83876,-0.0023296098,45.495342,-9.855034E-4,-5.980646E-4,-3.7478714E-4,547750.56,119984.914,0.015931442,0.024280988,6707.3,6743.376,5649.6855,5701.791,0.31307602,0.0,0.0,0.0
211.48349,211.48349,3.033,0.0,0.0,277.0646,11522.0,100.0,0.0,-0.1313317,0.0,7.0,1.0,0.0,3471584.8,111.0,3.0,0.0,0.0,6.8223863,0.0,0.0,-547.7078,-139.22632,784.67914,0.03088294,0.38744584,0.0040924987,282.4546,282.46713,276.90952,276.94742,355.0,356.0,412.0,420.0,69.0,69.0,60.0,60.0,0.19769636,0.31055507,0.060342345,0.22568053,0.037127286,0.037325118,0.051801182,0.051939953,2.9093025,3.4249573,0.80846244,1.5525519,98.18225,70.23364,13.384222,22.503733,3241.7854,202599.83,166961.22,2.0,1.0,0.9368603,2.1417526E-4,0.0032149553,85.0,85.0,85.0,85.0,20.933905,20.933489,24.220558,24.220697,0.019563587,0.019478753,-4.8027092E-4,-4.8740904E-4,1187.4209,0.0,0.0,0.0,0.0,0.0,0.0,0.0,0.0,0.0,0.0,0.0,0.0,0.0,62.001545,-0.0025418024,45.596245,1.4459342E-4,0.0067334445,7.731534E-4,547209.75,119984.91,0.015771838,0.024088534,6730.414,6773.4453,5675.1475,5739.6636,0.31290436,0.0,0.0,0.0
215.3367,215.3367,3.083,0.0,0.0,277.74164,11549.0,100.0,0.0,-0.050027873,0.0,7.0,1.0,0.0,3469358.8,111.0,3.0,0.0,0.0,6.8210273,0.0,0.0,-544.6035,-139.22646,786.96155,0.031762153,0.38182783,0.0016153295,283.1206,283.13144,277.58746,277.62418,353.0,354.0,410.0,418.0,69.0,69.0,60.0,60.0,0.19769636,0.31055507,0.060342345,0.22568053,0.037241504,0.03741907,0.051828895,0.051970717,2.6945024,2.406165,1.0688602,1.0965763,60.188766,82.10241,47.810364,60.242405,3241.7854,206484.3,169187.28,2.0,1.0,0.93720263,2.1417106E-4,0.0031963587,85.0,85.0,85.0,85.0,20.934435,20.934029,24.220705,24.220863,0.01947118,0.019393101,-4.8424394E-4,-4.7860073E-4,1189.037,0.0,0.0,0.0,0.0,0.0,0.0,0.0,0.0,0.0,0.0,0.0,0.0,0.0,62.162354,-0.0029669714,45.695023,-5.0576613E-4,0.00601118,1.2148377E-4,546673.44,119984.914,0.01566676,0.02392898,6742.855,6792.2646,5692.0283,5757.66,0.31276608,0.0,0.0,0.0
219.19919,219.19919,3.133,0.0,0.0,278.4088,11576.0,100.0,0.0,-7.111326E-4,0.0,7.0,1.0,0.0,3467142.2,111.0,3.0,0.0,0.0,6.8196683,0.0,0.0,-541.49133,-139.2266,789.2489,0.027376384,0.3762068,-5.240834E-4,283.78156,283.78152,278.26584,278.28076,352.0,353.0,409.0,417.0,69.0,69.0,59.0,59.0,0.19857274,0.31145367,0.060342345,0.22568053,0.03737357,0.037517447,0.051870298,0.051993363,2.235621,1.7698108,0.68776304,0.65848225,2.0384786,25.95037,5.9276814,45.463436,3241.7854,210377.81,171403.83,2.0,1.0,0.9373976,1.8213036E-4,0.003175497,85.0,85.0,85.0,85.0,20.934969,20.934568,24.220856,24.221027,0.019364059,0.019319959,-4.8219334E-4,-4.7636701E-4,1190.6647,0.0,0.0,0.0,0.0,0.0,0.0,0.0,0.0,0.0,0.0,0.0,0.0,0.0,62.3201,-0.0030314694,45.79332,-7.211375E-4,0.002268947,-1.622935E-4,546145.0,119984.914,0.015533536,0.023763023,6763.2393,6803.7,5711.8506,5769.0215,0.31262589,0.0,0.0,0.0
223.07088,223.07088,3.183,0.0,0.0,279.06638,11602.0,100.0,0.0,0.049342673,0.0,7.0,1.0,0.0,3464935.0,111.0,3.0,0.0,0.0,6.8183084,0.0,0.0,-538.3713,-139.22675,791.5412,0.01298745,0.37073058,6.5937E-5,284.4284,284.4232,278.9341,278.9282,350.0,351.0,407.0,415.0,69.0,69.0,59.0,59.0,0.19857274,0.31145367,0.060342345,0.22568053,0.03752134,0.03761035,0.051930916,0.05200521,2.840012,1.4401226,1.1618434,0.096336,10.889768,-1.9446014,8.341669,16.508993,3241.7854,214280.27,173610.97,2.0,1.0,0.9374139,1.0518654E-4,0.003154993,85.0,85.0,85.0,85.0,20.935503,20.935108,24.221003,24.221186,0.019247524,0.019250872,-4.8053026E-4,-4.7383097E-4,1192.204,0.0,0.0,0.0,0.0,0.0,0.0,0.0,0.0,0.0,0.0,0.0,0.0,0.0,62.47261,-0.002905778,45.894245,-0.0020581384,-0.0012963715,-0.0011040745,545625.56,119984.92,0.015390005,0.023570495,6793.3438,6813.454,5747.6963,5779.326,0.31245613,0.0,0.0,0.0
226.95166,226.95166,3.233,0.0,0.0,279.71448,11628.0,100.0,0.0,0.07837592,0.0,7.0,1.0,0.0,3462737.2,111.0,3.0,0.0,0.0,6.816948,0.0,0.0,-535.2438,-139.2269,793.8387,-0.0039379746,0.36550725,9.69599E-4,285.06467,285.05692,279.59055,279.5686,349.0,350.0,406.0,414.0,68.0,68.0,59.0,59.0,0.19944699,0.31232944,0.060342345,0.22568053,0.03768591,0.037677463,0.05200473,0.052000266,3.443062,1.5447288,1.5990435,0.12025236,63.689037,55.199856,34.654137,37.363167,3241.7854,218191.52,175808.86,2.0,1.0,0.9372774,-3.7963225E-6,0.0031393766,85.0,85.0,85.0,85.0,20.936037,20.935644,24.221153,24.22134,0.019132901,0.01918125,-4.777573E-4,-4.7253782E-4,1193.7544,0.0,0.0,0.0,0.0,0.0,0.0,0.0,0.0,0.0,0.0,0.0,0.0,0.0,62.618397,-0.0029369865,45.999866,-0.0019453147,-0.003970882,-0.0011755113,545113.56,119984.91,0.015261913,0.023382364,6828.3467,6821.398,5791.5483,5785.4697,0.312294,0.0,0.0,0.0
230.84135,230.84135,3.283,0.0,0.0,280.35275,11654.0,100.0,0.0,0.08769047,0.0,7.0,1.0,0.0,3460548.8,111.0,3.0,0.0,0.0,6.8155875,0.0,0.0,-532.1092,-139.22696,796.1416,-0.019722536,0.3596747,-0.003522472,285.69626,285.6875,280.2353,280.20105,347.0,348.0,405.0,412.0,68.0,68.0,59.0,59.0,0.19944699,0.31232944,0.060342345,0.22568053,0.037832003,0.03772522,0.05206863,0.051987924,1.6035138,-0.19691883,0.8965283,-0.5138665,-63.621983,-50.975376,-10.460611,3.7014482,3241.7854,222111.44,177997.61,2.0,1.0,0.93701917,-1.1162095E-4,0.0031266212,85.0,85.0,85.0,85.0,20.936573,20.936182,24.2213,24.221489,0.019044613,0.019128783,-4.7364304E-4,-4.7182286E-4,1195.307,0.0,0.0,0.0,0.0,0.0,0.0,0.0,0.0,0.0,0.0,0.0,0.0,0.0,62.756912,-0.0030927747,46.110786,-0.001414632,-0.0059142653,-0.0010663193,544604.8,119984.91,0.015236905,0.02331405,6845.0547,6813.781,5817.884,5777.2656,0.31224442,0.0,0.0,0.0
