LapDistance [m],TotalDistance [m],LapTime [s],Sector1Time [s],Sector2Time [s],Speed [km/h],EngineRevs [rpm],ThrottlePercentage [%],BrakePercentage [%],Steer [%],Clutch [%],Gear [int],DRS [0/1],CanUseDRS [0/1],KERSLevel [J],EngineTemperature [C],RacePosition [int],Sector [int],InPits [int],FuelRemaining [kg],CurrentFlag [int],CurrentLapInvalid [int],X [m],Y [m],Z [m],GForceLatitudinal [G],GForceLongitudinal [G],GForceVertical [G],WheelSpeedRearLeft [km/h],WheelSpeedRearRight [km/h],WheelSpeedFrontLeft [km/h],WheelSpeedFrontRight [km/h],BrakeTemperatureRearLeft [C],BrakeTemperatureRearRight [C],BrakeTemperatureFrontLeft [C],BrakeTemperatureFrontRight [C],TyreTemperatureRearLeft [C],TyreTemperatureRearRight [C],TyreTemperatureFrontLeft [C],TyreTemperatureFrontRight [C],TyreWearRearLeft [%],TyreWearRearRight [%],TyreWearFrontLeft [%],TyreWearFrontRight [%],SuspensionPositionRearLeft [m],SuspensionPositionRearRight [m],SuspensionPositionFrontLeft [m],SuspensionPositionFrontRight [m],SuspensionVelocityRearLeft [m/s],SuspensionVelocityRearRight [m/s],SuspensionVelocityFrontLeft [m/s],SuspensionVelocityFrontRight [m/s],SuspensionAccelerationRearLeft [m/s^2],SuspensionAccelerationRearRight [m/s^2],SuspensionAccelerationFrontLeft [m/s^2],SuspensionAccelerationFrontRight [m/s^2],MGUKHarvested [J],MGUHHarvested [J],ERSSpent [J],ERSMode [int],FuelMixMode [int],Yaw [rad],Roll [rad],Pitch [rad],TyreCarcassTemperatureRearLeft [C],TyreCarcassTemperatureRearRight [C],TyreCarcassTemperatureFrontLeft [C],TyreCarcassTemperatureFrontRight [C],TyrePressureRearLeft [PSI],TyrePressureRearRight [PSI],TyrePressureFrontLeft [PSI],TyrePressureFrontRight [PSI],WheelSlipRearLeft [%],WheelSlipRearRight [%],WheelSlipFrontLeft [%],WheelSlipFrontRight [%],Torque [Nm],Handbrake [%],RearLeftInside [C],RearLeftMiddle [C],RearLeftOutside [C],RearRightInside [C],RearRightMiddle [C],RearRightOutside [C],FrontLeftInside [C],FrontLeftMiddle [C],FrontLeftOutside [C],FrontRightInside [C],FrontRightMiddle [C],FrontRightOutside [C],WoldSpeedX [km/h],WoldSpeedY [km/h],WoldSpeedZ [km/h],LocalAngularVelocityX [rad/s],LocalAngularVelocityY [rad/s],LocalAngularVelocityZ [rad/s],IcePower [W],MgukPower [W],FrontRideHeight [m],RearRideHeight [m],LoadRearLeft [N],LoadRearRight [N],LoadFrontLeft [N],LoadFrontRight [N],Extra1 [m],Extra2 [],Extra3 [],Extra4 []
278.50696,278.50696,0.0,0.0,0.0,0.16452235,4478.0,100.0,0.0,1.5063813,0.0,0.0,0.0,0.0,4000000.0,110.0,1.0,0.0,0.0,30.799677,0.0,0.0,-492.5366,-139.2003,822.8901,3.4182798E-4,-0.020369172,-0.016720839,0.0,0.0,0.0,0.0,26.0,26.0,26.0,26.0,84.0,84.0,84.0,84.0,0.0,0.0,0.0,0.0,0.006573525,0.006529209,0.047565233,0.04757304,20.491209,20.176636,-77.57417,-77.351776,-933.8411,-853.8846,2495.9695,2473.4119,0.0,0.0,0.0,1.0,1.0,0.9391334,-5.0073293E-5,0.0110599995,84.0,84.0,84.0,84.0,20.899986,20.899986,24.199982,24.199982,-9.5403055E-4,-0.0011355887,-6.0486415E-4,-7.954678E-4,102.41833,0.0,0.0,0.0,0.0,0.0,0.0,0.0,0.0,0.0,0.0,0.0,0.0,0.0,0.0016274253,0.04565854,0.0010948654,-0.015395456,4.1895526E-4,0.021658275,121442.47,0.0,0.032696903,0.061117288,2666.7595,2662.1062,2119.892,2119.7402,0.33994007,0.0,0.0,0.0
278.50803,278.50803,0.2,0.0,0.0,0.4390987,12807.0,79.13787,0.0,1.1643349,0.0,1.0,0.0,0.0,4000000.0,111.0,1.0,0.0,0.0,30.79147,0.0,0.0,-492.5357,-139.19969,822.8907,0.0044581294,0.74218106,-0.08618838,41.016254,41.02889,0.24709368,0.25882927,26.0,26.0,26.0,26.0,74.0,74.0,74.0,74.0,0.0016972139,0.0016943439,0.0,0.0,0.0075018066,0.0073971227,0.046195373,0.04615608,52.751,54.196796,-7.069632,-5.606934,3190.4502,3296.2954,-436.26126,-338.48132,0.0,0.0,0.0,1.0,1.0,0.9391564,-9.133272E-5,0.010350585,84.0,84.0,84.0,84.0,20.876627,20.876644,24.172773,24.172794,0.6118446,0.61224276,-0.0012424259,-0.0011695344,1228.3593,0.0,0.0,0.0,0.0,0.0,0.0,0.0,0.0,0.0,0.0,0.0,0.0,0.0,0.098334365,-0.014904766,0.0706069,-0.015448901,-5.6814635E-4,0.026020791,509278.12,0.0,0.034402385,0.061010826,2546.148,2537.3564,1979.6711,1966.6039,0.34054947,0.0,0.0,0.0
278.5253,278.5253,0.25,0.0,0.0,2.0071056,12093.0,86.96117,0.0,1.6199116,0.0,1.0,0.0,0.0,4000000.0,111.0,1.0,0.0,0.0,30.790306,0.0,0.0,-492.52176,-139.20166,822.9009,-0.0027357638,0.9280362,-0.04080201,106.73388,106.76791,1.8538396,1.8448159,26.0,26.0,26.0,26.0,75.0,75.0,74.0,74.0,0.10477425,0.104529396,0.0,0.0,0.011251665,0.011212932,0.045651633,0.045662574,76.0941,75.61303,-5.240142,-5.2095203,-57.398983,-152.162,436.95862,385.50046,0.0,0.0,0.0,1.0,1.0,0.9391065,-4.8693913E-5,0.008615851,84.0,84.0,84.0,84.0,20.876347,20.876364,24.172373,24.172394,4.884193,4.8856874,-0.0016048282,-0.0016147807,1218.4465,0.0,0.0,0.0,0.0,0.0,0.0,0.0,0.0,0.0,0.0,0.0,0.0,0.0,0.44771165,-0.054563608,0.32774386,-0.015311658,-0.0015510385,0.01961709,534994.6,0.0,0.035118777,0.057260055,2934.5417,2925.46,1627.914,1632.5751,0.338583,0.0,0.0,0.0
278.56583,278.56583,0.3,0.0,0.0,3.7349398,12870.0,100.0,0.0,2.0095406,0.0,1.0,0.0,0.0,4000000.0,111.0,1.0,0.0,0.0,30.788963,0.0,0.0,-492.4891,-139.20409,822.92487,-0.0031188428,1.0004265,0.0845586,113.589035,113.63747,3.5819829,3.5644293,26.0,26.0,26.0,26.0,77.0,77.0,74.0,74.0,0.10477425,0.104529396,0.0,0.0,0.01419815,0.014110723,0.04584939,0.045840975,47.85485,47.140213,5.285963,5.0885973,-710.5675,-675.1252,6.973743,22.222107,0.0,0.0,0.0,3.0,1.0,0.93898726,-8.9012E-5,0.0077934265,84.0,84.0,84.0,84.0,20.876133,20.87615,24.171972,24.171993,5.859495,5.8630056,-0.0015355214,-0.0015247155,1227.8182,0.0,0.0,0.0,0.0,0.0,0.0,0.0,0.0,0.0,0.0,0.0,0.0,0.0,0.83583623,-0.03386452,0.6136795,-0.0063411063,-0.0031060372,0.008106636,506561.9,0.0,0.033980723,0.05401399,3191.943,3179.824,1878.9648,1875.23,0.3361578,0.0,0.0,0.0
278.63074,278.63074,0.35,0.0,0.0,5.5049734,13491.0,100.0,0.0,1.8168077,0.0,1.0,0.0,0.0,4000000.0,112.0,1.0,0.0,0.0,30.787636,0.0,0.0,-492.43683,-139.20471,822.9634,-0.0019663572,0.99646914,0.07362565,119.235,119.27507,5.3537803,5.3322186,26.0,26.0,26.0,26.0,78.0,78.0,74.0,74.0,0.23382936,0.23330463,0.0,0.0,0.015217946,0.015146047,0.045909554,0.045907617,6.5385547,7.4097137,-0.7474422,-0.4161894,-822.288,-784.7204,-104.351326,-93.24699,0.0,0.0,0.0,3.0,1.0,0.9388036,-7.4401265E-5,0.007505536,84.0,84.0,84.0,84.0,20.875982,20.876001,24.171568,24.171589,6.106496,6.1109304,-0.0015599201,-0.0015438902,1215.2307,0.0,0.0,0.0,0.0,0.0,0.0,0.0,0.0,0.0,0.0,0.0,0.0,0.0,1.2323282,0.004354788,0.90535975,4.153799E-4,-0.0039582127,3.2132608E-4,478290.34,0.0,0.033814266,0.053105965,3176.4353,3167.8345,1852.5532,1853.2615,0.3355322,0.0,0.0,0.0
278.7198,278.7198,0.4,0.0,0.0,7.209934,14030.0,100.0,0.0,1.6135153,0.0,1.0,0.0,0.0,4000000.0,112.0,1.0,0.0,0.0,30.786337,0.0,0.0,-492.36505,-139.20404,823.0161,-0.002447635,0.948346,0.009007848,124.23426,124.27421,7.066436,7.04129,26.0,26.0,26.0,26.0,80.0,80.0,74.0,74.0,0.23382936,0.23330463,0.0,0.0,0.014700224,0.014637329,0.04582145,0.04582278,-15.921702,-15.874319,-1.715049,-1.8889456,-290.2418,-294.60712,11.81513,-8.234381,0.0,0.0,0.0,3.0,1.0,0.9385908,-6.568137E-5,0.0076937675,84.0,84.0,84.0,84.0,20.87589,20.875908,24.171162,24.171183,6.215511,6.2202377,-0.0015440345,-0.0015401414,1197.827,0.0,0.0,0.0,0.0,0.0,0.0,0.0,0.0,0.0,0.0,0.0,0.0,0.0,1.6137601,0.015564762,1.1859939,0.0038472551,-0.0045634964,-0.0053763655,453328.94,0.0,0.034221403,0.053992208,3006.8855,2997.852,1782.5419,1781.8574,0.33620548,0.0,0.0,0.0
278.83228,278.83228,0.45,0.0,0.0,8.854131,13662.0,100.0,0.0,1.6150376,0.0,1.0,0.0,0.0,4000000.0,112.0,1.0,0.0,0.0,30.78621,0.0,0.0,-492.2744,-139.20346,823.0827,-0.003283292,0.9278128,-0.014203531,101.48747,101.526344,8.715041,8.683059,26.0,26.0,26.0,26.0,82.0,82.0,74.0,74.0,0.33465362,0.33389995,0.0,0.0,0.013921144,0.01386111,0.045783356,0.045776315,-13.0706835,-13.0875025,-0.43384728,-0.39495525,186.49399,168.73775,4.801152,26.84891,0.0,0.0,0.0,3.0,1.0,0.93833655,-6.550944E-5,0.007957339,84.0,84.0,84.0,84.0,20.875832,20.875849,24.170753,24.170774,5.398641,5.4040504,-0.0015306921,-0.0015244744,1210.3245,0.0,0.0,0.0,0.0,0.0,0.0,0.0,0.0,0.0,0.0,0.0,0.0,0.0,1.9813762,0.0068268157,1.4571023,0.0024577985,-0.005575655,-0.003341655,470397.0,0.0,0.034428157,0.054879807,2936.6636,2926.8052,1773.9373,1770.9075,0.33678913,0.0,0.0,0.0
278.96738,278.96738,0.5,0.0,0.0,10.501239,13333.0,100.0,0.0,1.8505964,0.0,1.0,0.0,0.0,4000000.0,112.0,1.0,0.0,0.0,30.786045,0.0,0.0,-492.16565,-139.20335,823.16284,-0.0050364137,0.93667823,-0.0037929364,78.673836,78.731445,10.364092,10.3214,26.0,26.0,26.0,26.0,83.0,83.0,73.0,73.0,0.33465362,0.33389995,0.0,0.0,0.013660274,0.01358245,0.045793045,0.045778733,-1.5898234,-2.2350063,0.42177734,0.17143784,206.93912,191.07048,18.748638,17.340479,0.0,0.0,0.0,3.0,1.0,0.938006,-8.584626E-5,0.008026123,84.0,84.0,84.0,84.0,20.875793,20.875813,24.170343,24.170368,4.0652905,4.0720572,-0.0015345193,-0.0015238037,1219.429,0.0,0.0,0.0,0.0,0.0,0.0,0.0,0.0,0.0,0.0,0.0,0.0,0.0,2.3489714,-8.789183E-4,1.7295332,-5.2334857E-5,-0.0076136393,-6.3773827E-4,485630.12,0.0,0.034448095,0.05507448,2971.1084,2956.4646,1787.8851,1781.3542,0.3368988,0.0,0.0,0.0
279.12555,279.12555,0.55,0.0,0.0,12.16595,13017.0,100.0,0.0,1.9906944,0.0,1.0,0.0,0.0,4000000.0,112.0,1.0,0.0,0.0,30.785872,0.0,0.0,-492.03824,-139.20352,823.2566,-0.0045086145,0.9468396,0.008465536,55.42119,55.479412,12.0334,11.978792,26.0,26.0,26.0,26.0,83.0,83.0,73.0,73.0,0.3785405,0.3777065,0.0,0.0,0.013768476,0.013674383,0.045813065,0.04579534,4.1521153,4.1288695,0.603944,0.7219612,137.1447,154.92104,13.089177,33.08504,0.0,0.0,0.0,3.0,1.0,0.9375666,-9.470479E-5,0.007986426,84.0,84.0,84.0,84.0,20.875769,20.875788,24.169926,24.169954,2.7100458,2.717903,-0.0015338004,-0.0015292896,1226.3324,0.0,0.0,0.0,0.0,0.0,0.0,0.0,0.0,0.0,0.0,0.0,0.0,0.0,2.7202938,-0.0030745012,2.005129,-2.6110935E-4,-0.009540418,8.221109E-4,500235.25,0.0,0.034352195,0.05488046,3008.567,2994.2605,1803.7749,1796.8452,0.33673382,0.0,0.0,0.0
279.2439,279.2439,0.6,0.0,0.0,13.283122,12815.0,100.0,0.0,2.0250368,0.0,1.0,0.0,0.0,4000000.0,112.0,1.0,0.0,0.0,30.785751,0.0,0.0,-491.94296,-139.20357,823.32684,-0.006045997,0.94829714,0.009626573,39.73851,39.798702,13.153795,13.091458,26.0,26.0,26.0,26.0,84.0,84.0,73.0,73.0,0.3785405,0.3777065,0.0,0.0,0.0138967065,0.013811314,0.045812905,0.045802657,0.0,0.0,0.0,0.0,-95.11112,-122.14107,-42.875103,-47.340984,0.0,0.0,0.0,3.0,1.0,0.9372294,-9.225879E-5,0.0079398155,84.0,84.0,84.0,84.0,20.87576,20.875776,24.169651,24.169676,1.824137,1.8317283,-0.0015574631,-0.0015463552,1228.3075,0.0,0.0,0.0,0.0,0.0,0.0,0.0,0.0,0.0,0.0,0.0,0.0,0.0,2.969376,-0.0019289469,2.190229,-5.518091E-4,-0.010685952,1.0512835E-4,508938.75,0.0,0.03440502,0.054808065,3014.5723,2999.4165,1793.9702,1789.689,0.33669186,0.0,0.0,0.0
279.44086,279.44086,0.65,0.0,0.0,14.973809,12521.0,100.0,0.0,2.1541226,0.0,1.0,0.0,0.0,4000000.0,112.0,1.0,0.0,0.0,30.785564,0.0,0.0,-491.78458,-139.20361,823.44385,-0.008415163,0.97659165,0.003985932,15.82425,15.909459,14.835762,14.7609215,26.0,26.0,26.0,26.0,84.0,84.0,73.0,73.0,0.3863752,0.38537866,0.0,0.0,0.013973156,0.013864398,0.045816164,0.0457879,0.0,0.0,0.0,0.0,77.27107,98.09508,-5.2973614,13.853608,0.0,0.0,0.0,3.0,1.0,0.9366352,-1.1335413E-4,0.007921934,84.0,84.0,84.0,84.0,20.875742,20.87576,24.169233,24.169258,0.54544973,0.55319524,-0.0016266914,-0.0016263684,1229.5887,0.0,0.0,0.0,0.0,0.0,0.0,0.0,0.0,0.0,0.0,0.0,0.0,0.0,3.3456821,-0.0027706774,2.4712226,-6.6114636E-4,-0.012878652,2.622235E-4,521432.25,0.0,0.034415618,0.054758657,3011.4292,2993.4878,1797.9563,1784.6582,0.3366499,0.0,0.0,0.0
279.73413,279.73413,0.7,0.0,0.0,16.921988,11973.0,100.0,0.0,2.1338258,0.0,1.0,0.0,0.0,4000000.0,112.0,1.0,0.0,0.0,30.785004,0.0,0.0,-491.5489,-139.20317,823.6184,0.0015522242,1.0553712,-0.03059955,22.13098,21.964249,17.046118,16.698368,26.0,26.0,26.0,26.0,84.0,84.0,73.0,73.0,0.3863752,0.38537866,0.0,0.0,0.01341809,0.013325235,0.045877017,0.045844816,13.099964,12.912098,-9.466186,-7.619708,132.7023,1052.3143,-557.3227,-282.07446,0.0,0.0,0.0,3.0,1.0,0.93593884,-9.9870405E-5,0.008120418,84.0,84.0,84.0,84.0,20.875721,20.875736,24.168673,24.1687,0.2622879,0.2452659,-0.0032039369,-0.0018092515,1214.0562,0.0,0.0,0.0,0.0,0.0,0.0,0.0,0.0,0.0,0.0,0.0,0.0,0.0,3.7758615,0.0020595058,2.7996526,-0.0057884934,-0.010423049,0.012950957,538409.6,0.0,0.034576897,0.055431988,2931.3398,2937.1665,1725.2783,1723.4095,0.33709812,0.0,0.0,0.0
279.98093,279.98093,0.749,0.0,0.0,18.600367,11578.0,100.0,0.0,2.0951757,0.0,1.0,0.0,0.0,4000000.0,112.0,1.0,0.0,0.0,30.78456,0.0,0.0,-491.35074,-139.20338,823.7655,-0.007978737,1.0671831,-0.014902492,24.52433,24.612173,18.629406,18.682861,26.0,26.0,26.0,26.0,84.0,84.0,73.0,73.0,0.38881052,0.3878666,0.0,0.0,0.013760749,0.01364675,0.045764938,0.045744088,16.051622,13.334881,0.08940696,-1.0889767,363.36545,260.80792,-67.31002,-112.08949,0.0,0.0,0.0,3.0,1.0,0.9353448,-1.142145E-4,0.00795269,84.0,84.0,84.0,84.0,20.875702,20.875717,24.168247,24.168276,0.24177502,0.24524139,-0.001289606,-0.002999371,1190.7506,0.0,0.0,0.0,0.0,0.0,0.0,0.0,0.0,0.0,0.0,0.0,0.0,0.0,4.1482453,-0.010045101,3.0801713,-0.0034338885,-0.012675479,0.003373345,546090.06,0.0,0.034655344,0.055069696,2982.3816,2959.3943,1756.5145,1739.7849,0.33689117,0.0,0.0,0.0
280.25128,280.25128,0.799,0.0,0.0,20.299753,11214.0,100.0,0.0,2.0648863,0.0,1.0,0.0,0.0,4000000.0,112.0,1.0,0.0,0.0,30.784111,0.0,0.0,-491.13382,-139.20372,823.9268,-0.009042442,1.0710064,0.008445489,26.702517,26.829191,20.16717,20.082033,26.0,26.0,26.0,26.0,84.0,84.0,73.0,73.0,0.38881052,0.3878666,0.0,0.0,0.01407594,0.013950712,0.04585567,0.04581274,14.41609,14.068632,-0.049397346,-0.31292436,316.2458,276.29428,-278.9631,-291.30127,0.0,0.0,0.0,3.0,1.0,0.9347085,-1.2843759E-4,0.007905126,84.0,84.0,84.0,84.0,20.875683,20.875696,24.167822,24.167849,0.25654486,0.26454607,-0.0016660623,-0.0015129632,1161.331,0.0,0.0,0.0,0.0,0.0,0.0,0.0,0.0,0.0,0.0,0.0,0.0,0.0,4.525349,-0.0070336447,3.3641434,-0.004154397,-0.01321154,0.0057992097,549885.8,0.0,0.034418747,0.054718412,3020.287,2999.614,1818.5452,1798.906,0.33656025,0.0,0.0,0.0
280.5453,280.5453,0.849,0.0,0.0,22.012259,10856.0,100.0,0.0,2.0640998,0.0,1.0,0.0,0.0,4000000.0,112.0,1.0,0.0,0.0,30.783463,0.0,0.0,-490.89798,-139.20389,824.1023,-0.013511062,1.1029811,0.006807207,31.809666,31.962152,22.164385,22.085165,26.0,26.0,26.0,26.0,84.0,84.0,73.0,73.0,0.39106864,0.3902205,0.0,0.0,0.014305436,0.014173409,0.045868985,0.045818433,12.910645,11.977404,-1.330152,-1.811385,313.9324,248.39265,-276.7637,-288.45813,0.0,0.0,0.0,3.0,1.0,0.9340242,-1.4493243E-4,0.007829547,84.0,84.0,84.0,84.0,20.87566,20.875673,24.16739,24.167421,0.17367822,0.18246667,-0.0031505101,-0.0030931623,1118.692,0.0,0.0,0.0,0.0,0.0,0.0,0.0,0.0,0.0,0.0,0.0,0.0,0.0,4.9043207,-0.0029217696,3.6517034,-0.0041080667,-0.014009041,0.004390018,547164.25,0.0,0.0344229,0.054499283,3041.0903,3013.1294,1804.9369,1779.5403,0.33639908,0.0,0.0,0.0
280.86398,280.86398,0.899,0.0,0.0,23.727575,10553.0,100.0,0.0,1.9765973,0.0,1.0,0.0,0.0,4000000.0,112.0,1.0,0.0,0.0,30.78299,0.0,0.0,-490.6425,-139.20401,824.2927,-0.014011323,1.1033874,0.01180654,27.720762,27.846153,23.730118,23.646915,26.0,26.0,26.0,26.0,84.0,84.0,73.0,73.0,0.39106864,0.3902205,0.0,0.0,0.014326741,0.014215822,0.04586746,0.04582775,2.4372897,3.4577024,3.2427905,3.3076105,960.5392,944.7477,193.68228,160.91911,0.0,0.0,0.0,3.0,1.0,0.933299,-1.249601E-4,0.007852435,84.0,84.0,84.0,84.0,20.875639,20.875654,24.166958,24.166986,0.10850818,0.11663088,-0.0024331596,-0.0024987706,1076.9418,0.0,0.0,0.0,0.0,0.0,0.0,0.0,0.0,0.0,0.0,0.0,0.0,0.0,5.284192,6.71561E-5,3.9393535,4.8441108E-4,-0.014316417,-0.001568848,541867.75,0.0,0.034320842,0.054435242,3029.2205,3006.3164,1863.2094,1844.3846,0.33628464,0.0,0.0,0.0
281.0902,281.0902,0.949,0.0,0.0,24.99597,10340.0,100.0,0.0,1.8969156,0.0,1.0,0.0,0.0,4000000.0,112.0,1.0,0.0,0.0,30.782852,0.0,0.0,-490.46115,-139.20401,824.428,-0.006188035,1.0643125,-0.0035507078,25.35043,25.46908,24.978893,24.891571,26.0,26.0,26.0,26.0,84.0,84.0,73.0,73.0,0.39362246,0.3928481,0.0,0.0,0.014552539,0.014428096,0.04580874,0.045767784,0.0,0.0,0.0,0.0,-8.640059,60.567623,-124.06556,-72.72809,0.0,0.0,0.0,3.0,1.0,0.93280584,-1.2036376E-4,0.0077198744,84.0,84.0,84.0,84.0,20.875626,20.875639,24.16667,24.166698,0.2227601,0.2312739,-0.0026948187,-0.0027116754,1038.0896,0.0,0.0,0.0,0.0,0.0,0.0,0.0,0.0,0.0,0.0,0.0,0.0,0.0,5.565676,-0.0026041544,4.1512656,-0.0012333947,-0.0151006505,0.0034293453,533078.7,0.0,0.03456667,0.05431078,3061.3777,3045.876,1754.4115,1738.2148,0.33629036,0.0,0.0,0.0
281.44907,281.44907,0.999,0.0,0.0,26.717665,9979.0,100.0,0.0,1.6669875,0.0,1.0,0.0,0.0,4000000.0,112.0,1.0,0.0,0.0,30.782366,0.0,0.0,-490.17365,-139.20401,824.6426,-0.006137967,1.0941497,-0.0032729807,38.735054,38.80152,26.555515,26.475353,26.0,26.0,26.0,26.0,84.0,84.0,73.0,73.0,0.39362246,0.3928481,0.0,0.0,0.014375938,0.014268143,0.045843918,0.045802817,0.0,0.0,0.0,0.0,475.3276,344.53305,-219.27055,-231.94398,0.0,0.0,0.0,3.0,1.0,0.93211085,-1.1008826E-4,0.007816553,84.0,84.0,84.0,84.0,20.875603,20.875618,24.166231,24.16626,0.2593765,0.2646765,-0.0020137662,-0.0020229928,967.22156,0.0,0.0,0.0,0.0,0.0,0.0,0.0,0.0,0.0,0.0,0.0,0.0,0.0,5.9467125,-3.9585106E-4,4.440311,-0.002724962,-0.0136404075,0.004984626,514654.72,0.0,0.03447946,0.05446871,3048.476,3029.1309,1789.4354,1770.2562,0.3362999,0.0,0.0,0.0
281.96606,281.96606,1.049,0.0,0.0,29.054571,9548.0,100.0,0.0,1.6691159,0.0,1.0,0.0,0.0,4000000.0,112.0,1.0,0.0,0.0,30.781841,0.0,0.0,-489.75955,-139.20407,824.952,-0.012594521,1.0843041,-0.0033089712,37.935226,38.07963,29.195229,29.103184,26.0,26.0,26.0,26.0,84.0,84.0,72.0,72.0,0.39666197,0.39598978,0.0,0.0,0.014441651,0.014295998,0.04586714,0.045805905,9.066313,5.9961896,-0.6984919,-1.9819287,314.58618,210.53326,-232.72183,-247.08508,0.0,0.0,0.0,3.0,1.0,0.93115735,-1.4432799E-4,0.00783062,84.0,84.0,84.0,84.0,20.875574,20.87559,24.165644,24.165672,0.25882927,0.26612493,-0.0030114155,-0.0030116532,865.07275,0.0,0.0,0.0,0.0,0.0,0.0,0.0,0.0,0.0,0.0,0.0,0.0,0.0,6.4632077,-0.0029485268,4.833566,-0.0030644005,-0.015397693,0.0026765647,481079.94,0.0,0.034476887,0.054460827,3051.9688,3023.17,1806.6449,1774.5067,0.3362522,0.0,0.0,0.0
282.38214,282.38214,1.099,0.0,0.0,30.78743,9202.0,100.0,0.0,1.7885635,0.0,1.0,0.0,0.0,4000000.0,112.0,1.0,0.0,0.0,30.781332,0.0,0.0,-489.42657,-139.20416,825.20135,-0.023900151,1.1175447,0.0041419603,38.923225,39.100025,30.740967,30.641161,26.0,26.0,26.0,26.0,83.0,83.0,72.0,72.0,0.39666197,0.39598978,0.0,0.0,0.014438412,0.014262406,0.045909245,0.045817852,7.164515,5.223546,0.8372962,-0.6191432,1498.2416,1328.9707,-186.73537,-261.6897,0.0,0.0,0.0,3.0,1.0,0.93034345,-1.958993E-4,0.0078725815,84.0,84.0,84.0,84.0,20.875551,20.875566,24.165197,24.165226,0.12875964,0.13664107,-0.0022392394,-0.0022611835,774.35004,0.0,0.0,0.0,0.0,0.0,0.0,0.0,0.0,0.0,0.0,0.0,0.0,0.0,6.843506,-0.0017450468,5.128764,-0.0034952448,-0.017054893,0.0013965899,446819.5,0.0,0.034411084,0.05445468,3057.13,3011.3047,1856.9584,1810.1584,0.336195,0.0,0.0,0.0
282.8228,282.8228,1.149,0.0,0.0,32.501606,8837.0,100.0,0.0,1.8385466,0.0,1.0,0.0,0.0,4000000.0,112.0,1.0,0.0,0.0,30.78096,0.0,0.0,-489.0741,-139.20428,825.4657,-0.023406684,1.1104448,0.0042297114,38.04185,38.21697,32.67225,32.56018,26.0,26.0,26.0,26.0,83.0,83.0,72.0,72.0,0.39985365,0.3993016,0.0,0.0,0.0144662,0.014292218,0.045917053,0.045839258,2.5041773,3.4753604,4.034042,4.361048,849.6902,799.8614,323.2866,294.27853,0.0,0.0,0.0,3.0,1.0,0.92942375,-1.8028963E-4,0.007884026,84.0,84.0,84.0,84.0,20.875528,20.875546,24.164751,24.164778,0.12146888,0.12992726,-0.0033033057,-0.0033376953,683.8633,0.0,0.0,0.0,0.0,0.0,0.0,0.0,0.0,0.0,0.0,0.0,0.0,0.0,7.219737,-0.0016927028,5.4207206,9.522921E-4,-0.018805962,-0.002371674,410905.0,0.0,0.03434772,0.054385956,3086.275,3049.8591,1896.8867,1860.7634,0.3361311,0.0,0.0,0.0
283.28772,283.28772,1.199,0.0,0.0,34.229446,8426.0,100.0,0.0,1.8158194,0.0,1.0,0.0,0.0,4000000.0,112.0,1.0,0.0,0.0,30.780643,0.0,0.0,-488.70248,-139.20438,825.74493,-0.024841994,0.75047576,0.032323264,40.053387,40.238766,34.229877,34.116577,26.0,26.0,26.0,26.0,83.0,83.0,72.0,72.0,0.39985365,0.3993016,0.0,0.0,0.014470541,0.014300627,0.045923617,0.045844436,-17.383898,-16.722677,3.2966583,3.2575426,-1642.3466,-1625.5995,344.95886,314.36826,0.0,0.0,0.0,3.0,1.0,0.9284363,-1.820748E-4,0.007889509,84.0,84.0,84.0,84.0,20.875505,20.87552,24.164299,24.164328,0.13158107,0.14014961,-0.0032758159,-0.0033353954,591.14087,0.0,0.0,0.0,0.0,0.0,0.0,0.0,0.0,0.0,0.0,0.0,0.0,0.0,7.5984364,-7.429879E-4,5.7157006,0.0019886699,-0.019884335,-0.0043066996,372517.38,0.0,0.034324747,0.054330047,3158.439,3117.7185,1900.721,1862.9885,0.3361025,0.0,0.0,0.0
283.61127,283.61127,1.249,0.0,0.0,35.501293,8140.0,100.0,0.0,1.8129567,0.0,1.0,0.0,0.0,4000000.0,112.0,1.0,0.0,0.0,30.780533,0.0,0.0,-488.44406,-139.20442,825.93945,-0.01556921,1.0746177,-0.006524049,36.884377,37.062183,35.489338,35.3624,26.0,26.0,26.0,26.0,83.0,83.0,72.0,72.0,0.4031355,0.40270394,0.0,0.0,0.014727069,0.014535022,0.045892518,0.04580396,0.0,0.0,0.0,0.0,19.878529,144.91972,-171.92957,-130.71744,0.0,0.0,0.0,3.0,1.0,0.92773694,-1.8278179E-4,0.007784486,84.0,84.0,84.0,84.0,20.87549,20.875507,24.163996,24.164026,0.18219437,0.19155693,-0.0029232728,-0.0029591594,530.03143,0.0,0.0,0.0,0.0,0.0,0.0,0.0,0.0,0.0,0.0,0.0,0.0,0.0,7.8778076,-0.0039235204,5.932009,-0.001964544,-0.021676157,0.004392732,345743.66,0.0,0.0344795,0.054206975,3088.532,3062.322,1808.2617,1767.4668,0.33609962,0.0,0.0,0.0
284.1163,284.1163,1.299,0.0,0.0,37.22845,7656.0,100.0,0.0,1.8469598,0.0,1.0,0.0,0.0,4000000.0,112.0,1.0,0.0,0.0,30.780174,0.0,0.0,-488.04092,-139.20448,826.24347,-0.017702997,1.0794904,-0.0068274867,41.048866,41.257755,37.05078,36.918297,26.0,26.0,26.0,26.0,83.0,83.0,72.0,72.0,0.4031355,0.40270394,0.0,0.0,0.014723352,0.0144751575,0.04591701,0.045802675,0.0,0.0,0.0,0.0,88.34859,187.00694,-239.91016,-150.84741,0.0,0.0,0.0,3.0,1.0,0.92664194,-2.2840756E-4,0.007816315,84.0,84.0,84.0,84.0,20.87547,20.875486,24.163538,24.163568,0.20928425,0.2194431,-0.0020757855,-0.0020951843,448.31064,0.0,0.0,0.0,0.0,0.0,0.0,0.0,0.0,0.0,0.0,0.0,0.0,0.0,8.254097,-0.003934771,6.2298503,-0.0025067283,-0.0231765,0.0050621144,310923.9,0.0,0.03445261,0.054251283,3087.693,3052.9077,1828.8972,1778.2991,0.3361063,0.0,0.0,0.0
284.82947,284.82947,1.349,0.0,0.0,39.740765,6971.0,100.0,0.0,1.7869657,0.0,1.0,0.0,0.0,4000000.0,112.0,1.0,0.0,0.0,30.779816,0.0,0.0,-487.4722,-139.2049,826.6734,-0.017258883,1.1385809,-0.0030622112,41.503513,41.559116,39.740696,39.57046,26.0,26.0,26.0,26.0,83.0,83.0,72.0,72.0,0.4075417,0.4067366,0.0,0.0,0.015131068,0.014992823,0.045843013,0.045782045,11.328365,9.412262,-0.8080154,-1.2174993,-181.41785,53.902355,-15.127658,19.660591,0.0,0.0,0.0,3.0,1.0,0.9252263,-1.4342972E-4,0.0076221228,84.0,84.0,84.0,84.0,20.875439,20.875458,24.162924,24.162954,0.16885611,0.17112038,-0.0013130663,-0.0031380148,351.53232,0.0,0.0,0.0,0.0,0.0,0.0,0.0,0.0,0.0,0.0,0.0,0.0,0.0,8.802829,-0.009582276,6.661221,-0.0032937115,-0.0243226,0.0033165852,267760.9,0.0,0.03450193,0.05376121,3146.6895,3120.016,1793.3274,1764.5986,0.33579063,0.0,0.0,0.0
285.3954,285.3954,1.399,0.0,0.0,41.68571,6367.0,100.0,0.0,1.7804518,0.0,1.0,0.0,0.0,4000000.0,112.0,1.0,0.0,0.0,30.779533,0.0,0.0,-487.02127,-139.2052,827.0151,-0.017123818,1.1518663,0.004289102,48.87731,48.89047,41.720196,41.495235,26.0,26.0,26.0,26.0,83.0,83.0,72.0,72.0,0.4075417,0.4067366,0.0,0.0,0.015426726,0.015255013,0.045872662,0.045788035,13.812369,7.142778,-0.052973624,-2.382919,-184.46553,415.10864,-131.36116,-151.54478,0.0,0.0,0.0,3.0,1.0,0.92414534,-1.8454123E-4,0.007548332,84.0,84.0,84.0,84.0,20.87542,20.875435,24.162458,24.16249,0.24581608,0.24566834,-0.0013122605,-0.0019991363,275.4382,0.0,0.0,0.0,0.0,0.0,0.0,0.0,0.0,0.0,0.0,0.0,0.0,0.0,9.2262535,-0.0077441256,6.99699,-0.003681911,-0.025278768,0.0026024273,229702.81,0.0,0.034450233,0.053475454,3179.8271,3150.9226,1811.5283,1766.9022,0.3355608,0.0,0.0,0.0
285.78833,285.78833,1.449,0.0,0.0,43.030148,5984.0,100.0,0.0,1.786199,0.0,1.0,0.0,0.0,4000000.0,112.0,1.0,0.0,0.0,30.779352,0.0,0.0,-486.7084,-139.20549,827.25256,-0.051332295,1.1119741,0.019872848,47.505123,47.46765,43.03845,42.84804,26.0,26.0,26.0,26.0,83.0,83.0,72.0,72.0,0.4102922,0.40961105,0.0,0.0,0.015653614,0.01546009,0.045871675,0.045737833,0.0,0.0,0.0,0.0,-483.25684,-397.69107,122.670815,-14.725327,0.0,0.0,0.0,3.0,1.0,0.92332125,-2.7921196E-4,0.0074412823,84.0,84.0,84.0,84.0,20.875406,20.875422,24.162144,24.16218,0.05212795,0.056222167,-0.0010774306,-0.0019751661,231.73734,0.0,0.0,0.0,0.0,0.0,0.0,0.0,0.0,0.0,0.0,0.0,0.0,0.0,9.516365,-0.00701121,7.23247,-0.003950578,-0.022732621,-0.0037359216,205627.61,0.0,0.034429356,0.053143933,3279.1597,3192.0103,1818.3599,1746.4989,0.33532333,0.0,0.0,0.0
286.61243,286.61243,1.499,0.0,0.0,45.84146,6070.0,100.0,0.0,1.7643628,0.0,1.0,0.0,0.0,4000000.0,112.0,1.0,0.0,0.0,30.778624,0.0,0.0,-486.0529,-139.20586,827.7516,-0.034112394,1.2099543,0.0054882765,51.520412,51.767654,45.855118,45.621307,26.0,26.0,26.0,26.0,83.0,83.0,71.0,71.0,0.4102922,0.40961105,0.0,0.0,0.016131291,0.015900884,0.045863986,0.04573438,5.2116437,7.1408224,-0.9465962,-0.57913357,44.65207,-87.21198,39.401646,-92.48255,0.0,0.0,0.0,3.0,1.0,0.9216163,-2.476849E-4,0.007323265,84.0,84.0,84.0,84.0,20.875378,20.875393,24.16152,24.161552,0.118972406,0.12764102,-0.0013624639,-0.0023702367,241.14015,0.0,0.0,0.0,0.0,0.0,0.0,0.0,0.0,0.0,0.0,0.0,0.0,0.0,10.126731,-0.007676913,7.719933,-0.0014493188,-0.026419604,0.0016231291,210939.47,0.0,0.034467027,0.05281128,3258.3132,3205.6294,1802.4858,1745.3734,0.33510303,0.0,0.0,0.0
287.26486,287.26486,1.549,0.0,0.0,47.96802,6486.0,100.0,0.0,1.5858425,0.0,1.0,0.0,0.0,4000000.0,112.0,1.0,0.0,0.0,30.777954,0.0,0.0,-485.53442,-139.2062,828.1473,-0.026479542,1.2010666,0.013284702,55.28849,55.532726,47.98069,47.90971,26.0,26.0,26.0,26.0,83.0,83.0,71.0,71.0,0.41461247,0.41412568,0.0,0.0,0.01640351,0.016165337,0.045879327,0.04575073,5.2265077,5.843192,0.5243718,1.3308226,-7.604055,61.013542,-4.1440125,86.05866,0.0,0.0,0.0,3.0,1.0,0.9202957,-2.3917833E-4,0.007264614,84.0,84.0,84.0,84.0,20.875359,20.875376,24.161043,24.161076,0.14398745,0.15279068,-0.0013453311,-0.002079637,289.70154,0.0,0.0,0.0,0.0,0.0,0.0,0.0,0.0,0.0,0.0,0.0,0.0,0.0,10.588331,-0.0075685317,8.088767,7.0510356E-4,-0.026274925,0.0012259693,237165.16,0.0,0.034363292,0.052516747,3282.872,3238.9463,1828.3921,1769.3723,0.3349123,0.0,0.0,0.0
287.94675,287.94675,1.599,0.0,0.0,50.081802,6983.0,100.0,0.0,1.5510017,0.0,1.0,0.0,0.0,4000000.0,112.0,1.0,0.0,0.0,30.77721,0.0,0.0,-484.9929,-139.20648,828.56146,-0.031094491,1.194759,0.012980092,59.821247,60.070198,50.094486,49.85537,26.0,26.0,26.0,26.0,83.0,83.0,71.0,71.0,0.41461247,0.41412568,0.0,0.0,0.016535986,0.01631561,0.045902323,0.045778185,2.4170055,1.6926973,0.7747113,0.27403232,5.216903,-70.0727,19.727644,-35.914776,0.0,0.0,0.0,3.0,1.0,0.91897166,-2.333716E-4,0.007258415,84.0,84.0,84.0,84.0,20.875345,20.875362,24.160563,24.160595,0.18353042,0.19195563,-0.0013319417,-0.002278032,353.1605,0.0,0.0,0.0,0.0,0.0,0.0,0.0,0.0,0.0,0.0,0.0,0.0,0.0,11.046655,-0.0057010488,8.456023,-8.086477E-4,-0.02754399,-9.465291E-4,268538.8,0.0,0.034283202,0.052366056,3292.711,3244.9688,1843.5076,1787.5618,0.33480358,0.0,0.0,0.0
288.65753,288.65753,1.649,0.0,0.0,52.16026,7357.0,100.0,0.0,1.495402,0.0,1.0,0.0,0.0,4000000.0,112.0,1.0,0.0,0.0,30.7766,0.0,0.0,-484.42865,-139.20676,828.9939,-0.031817615,1.1718359,0.01525192,57.992905,58.25258,52.180283,52.07999,26.0,26.0,26.0,26.0,84.0,84.0,71.0,71.0,0.418733,0.41840008,0.0,0.0,0.01659892,0.016332509,0.045953825,0.04581238,0.9647011,0.8359551,0.9617954,1.329258,-1.1332332,44.028454,-3.835555,70.63596,0.0,0.0,0.0,3.0,1.0,0.9175074,-2.634532E-4,0.007262826,84.0,84.0,84.0,84.0,20.875336,20.875353,24.16008,24.160116,0.18285622,0.19172749,-0.0012972887,-0.0019841166,404.755,0.0,0.0,0.0,0.0,0.0,0.0,0.0,0.0,0.0,0.0,0.0,0.0,0.0,11.496005,-0.00314553,8.818834,-2.8854545E-4,-0.030607026,5.004263E-4,292124.84,0.0,0.03417214,0.052271172,3300.7915,3250.1445,1879.0864,1812.6869,0.3347025,0.0,0.0,0.0
289.14746,289.14746,1.699,0.0,0.0,53.57381,6962.0,100.0,0.0,1.4514065,0.0,1.0,0.0,0.0,4000000.0,112.0,1.0,0.0,0.0,30.77632,0.0,0.0,-484.04,-139.20679,829.29236,-0.059490502,1.1880355,0.0076797595,62.796696,63.121777,53.576244,53.497112,26.0,26.0,26.0,26.0,83.0,83.0,71.0,71.0,0.418733,0.41840008,0.0,0.0,0.016630942,0.016330538,0.045977496,0.04576329,0.0,0.0,0.0,0.0,-25.95037,-310.92834,11.748075,-94.293045,0.0,0.0,0.0,3.0,1.0,0.91657376,-3.7912428E-4,0.0072101355,84.0,84.0,84.0,84.0,20.87533,20.875347,24.159758,24.159792,0.111072995,0.11936198,-0.001324484,-0.0020768477,350.29422,0.0,0.0,0.0,0.0,0.0,0.0,0.0,0.0,0.0,0.0,0.0,0.0,0.0,11.796607,-0.0024240382,9.072073,-0.0043260437,-0.026817037,-0.0017998306,267162.78,0.0,0.03428647,0.05231439,3345.2886,3233.86,1873.3495,1757.1932,0.33479023,0.0,0.0,0.0
289.907,289.907,1.749,0.0,0.0,55.702797,7288.0,100.0,0.0,1.3593491,0.0,1.0,0.0,0.0,4000000.0,113.0,1.0,0.0,0.0,30.775583,0.0,0.0,-483.43814,-139.20705,829.7558,-0.038806915,1.2153178,0.0052274046,62.469646,62.743626,55.705864,55.457573,26.0,26.0,26.0,26.0,84.0,84.0,71.0,71.0,0.42471382,0.4246207,0.0,0.0,0.016746812,0.01646638,0.045952782,0.045778293,0.0,0.0,0.0,0.0,-45.38968,139.5285,-4.8279757,13.719499,0.0,0.0,0.0,3.0,1.0,0.9151831,-2.9552108E-4,0.007139325,84.0,84.0,84.0,84.0,20.875324,20.875341,24.159267,24.159304,0.121958844,0.13027984,-0.0013464154,-0.0023801157,394.93375,0.0,0.0,0.0,0.0,0.0,0.0,0.0,0.0,0.0,0.0,0.0,0.0,0.0,12.254448,-0.00514165,9.446809,6.929728E-4,-0.027610296,0.0027990555,287735.12,0.0,0.03424557,0.05215409,3322.7292,3270.8462,1863.0642,1793.5673,0.3347149,0.0,0.0,0.0
290.96603,290.96603,1.799,0.0,0.0,58.552013,8111.0,100.0,0.0,1.1500864,0.0,1.0,0.0,0.0,4000000.0,113.0,1.0,0.0,0.0,30.774393,0.0,0.0,-482.59988,-139.20741,830.40314,-0.0296157,1.2053547,0.0063485834,69.9677,70.226845,58.54981,58.30951,26.0,26.0,26.0,26.0,84.0,84.0,71.0,71.0,0.42471382,0.4246207,0.0,0.0,0.016971854,0.016717449,0.04595957,0.045805104,2.3826954,3.2755358,0.25682148,0.54828817,-89.61931,-10.614838,6.5445886,-0.7644295,0.0,0.0,0.0,3.0,1.0,0.9133862,-2.5635844E-4,0.0070238113,84.0,84.0,84.0,84.0,20.875324,20.875341,24.158611,24.158644,0.18241024,0.19002454,-0.0013230179,-0.0023256296,524.0172,0.0,0.0,0.0,0.0,0.0,0.0,0.0,0.0,0.0,0.0,0.0,0.0,0.0,12.867136,-0.0070640077,9.948318,4.99571E-4,-0.026475424,0.0017159175,343042.7,0.0,0.03419744,0.051920522,3347.9353,3300.0127,1874.2222,1807.847,0.33451653,0.0,0.0,0.0
291.79468,291.79468,1.849,0.0,0.0,60.664326,8116.0,100.0,0.0,0.9492569,0.0,1.0,0.0,0.0,4000000.0,113.0,1.0,0.0,0.0,30.77386,0.0,0.0,-481.94455,-139.20769,830.91034,-0.047872186,1.2100838,0.011009398,62.965042,63.151543,60.655254,60.522617,26.0,26.0,26.0,26.0,84.0,84.0,71.0,71.0,0.42988577,0.42993775,0.0,0.0,0.017013812,0.016856017,0.045979124,0.045861088,0.44222918,2.3781135,0.6189197,0.5628168,-18.373129,-25.55474,16.72357,-51.82027,0.0,0.0,0.0,3.0,1.0,0.9121066,-2.1911481E-4,0.0069800615,84.0,84.0,84.0,84.0,20.875324,20.875345,24.158113,24.158148,0.06472,0.07076836,-0.0013096993,-0.0013405492,525.04553,0.0,0.0,0.0,0.0,0.0,0.0,0.0,0.0,0.0,0.0,0.0,0.0,0.0,13.3212805,-0.00662444,10.320196,-0.0037538086,-0.022339232,-0.001495483,343504.12,0.0,0.034105025,0.05180079,3371.5322,3310.8364,1894.0342,1835.5098,0.33432198,0.0,0.0,0.0
292.6525,292.6525,1.899,0.0,0.0,62.786045,8029.0,100.0,0.0,0.8225657,0.0,1.0,0.0,0.0,4000000.0,113.0,1.0,0.0,0.0,30.77315,0.0,0.0,-481.2667,-139.20796,831.43616,-0.02548778,1.2210934,0.01438208,72.500854,72.71503,62.760166,62.64273,26.0,26.0,26.0,26.0,84.0,84.0,70.0,70.0,0.42988577,0.42993775,0.0,0.0,0.017234582,0.016929334,0.046061505,0.04586737,5.830228,7.4912977,-0.25771555,1.8265842,-211.37814,327.33676,-141.75473,144.19553,0.0,0.0,0.0,3.0,1.0,0.911128,-2.887104E-4,0.0069252253,84.0,84.0,84.0,84.0,20.875334,20.875353,24.157612,24.157646,0.14911774,0.1547539,-0.0013204194,-0.0013594944,507.01645,0.0,0.0,0.0,0.0,0.0,0.0,0.0,0.0,0.0,0.0,0.0,0.0,0.0,13.775615,-0.003681211,10.696066,0.0014366412,-0.019741131,0.0056129396,335303.12,0.0,0.033994477,0.051608417,3384.1394,3346.4285,1933.9218,1854.6053,0.33413124,0.0,0.0,0.0
293.54025,293.54025,1.949,0.0,0.0,64.92966,8772.0,100.0,0.0,0.6816296,0.0,1.0,0.0,0.0,4000000.0,113.0,1.0,0.0,0.0,30.772125,0.0,0.0,-480.56567,-139.20801,831.9809,-0.020543873,1.2053976,0.008989864,79.246086,79.40956,64.898384,64.78557,26.0,26.0,26.0,26.0,84.0,84.0,70.0,70.0,0.43603423,0.43620962,0.0,0.0,0.017424185,0.01729905,0.04599589,0.04591393,3.1246614,4.3746824,-0.8377432,-0.2530217,-37.26259,-203.7674,63.64881,-64.48029,0.0,0.0,0.0,3.0,1.0,0.910157,-1.3774431E-4,0.006708622,84.0,84.0,84.0,84.0,20.875347,20.875368,24.157108,24.15714,0.20699146,0.21160601,-0.0013176277,-0.0013456909,668.76904,0.0,0.0,0.0,0.0,0.0,0.0,0.0,0.0,0.0,0.0,0.0,0.0,0.0,14.239016,-0.0012832073,11.070153,-0.0014091919,-0.019249158,0.0030249506,404813.1,0.0,0.034029614,0.05134965,3407.127,3377.019,1892.7109,1854.7874,0.3341751,0.0,0.0,0.0
294.45767,294.45767,1.999,0.0,0.0,67.08914,8455.0,100.0,0.0,0.4430651,0.0,1.0,0.0,0.0,4000000.0,113.0,1.0,0.0,0.0,30.771624,0.0,0.0,-479.8415,-139.20801,832.5442,-0.029380381,1.2310795,0.008187048,76.36631,76.56154,67.03227,66.955956,26.0,26.0,26.0,26.0,84.0,84.0,70.0,70.0,0.43603423,0.43620962,0.0,0.0,0.017516725,0.017360397,0.046029307,0.045900162,2.5419517,-0.5349889,1.6864388,-0.68664545,88.492775,-122.91222,74.820206,-22.463497,0.0,0.0,0.0,3.0,1.0,0.9093393,-1.9823956E-4,0.006576538,84.0,84.0,84.0,84.0,20.875364,20.875387,24.1566,24.156633,0.11736437,0.12130805,-0.0013411025,-0.0013955374,597.4314,0.0,0.0,0.0,0.0,0.0,0.0,0.0,0.0,0.0,0.0,0.0,0.0,0.0,14.704304,-0.0013217517,11.448983,-0.00316593,-0.012848935,0.0012803297,375190.16,0.0,0.03400296,0.051251948,3444.9258,3382.6326,1926.7922,1857.7815,0.33425713,0.0,0.0,0.0
295.0862,295.0862,2.049,0.0,0.0,68.54196,8752.0,100.0,0.0,0.31839806,0.0,1.0,0.0,0.0,4000000.0,113.0,1.0,0.0,0.0,30.770983,0.0,0.0,-479.34564,-139.20801,832.93054,-0.014576733,1.2331401,0.0038998625,79.0807,79.21402,68.47777,68.41704,26.0,26.0,26.0,26.0,84.0,84.0,70.0,70.0,0.4429713,0.44323072,0.0,0.0,0.017632317,0.017490858,0.046016574,0.045917045,0.0,0.0,0.0,0.0,-144.7588,136.16905,-77.32807,74.29718,0.0,0.0,0.0,3.0,1.0,0.90896106,-1.3248666E-4,0.0064651966,84.0,84.0,84.0,84.0,20.87538,20.8754,24.156258,24.15629,0.14457664,0.14775158,-0.0013469133,-0.0013738782,664.1687,0.0,0.0,0.0,0.0,0.0,0.0,0.0,0.0,0.0,0.0,0.0,0.0,0.0,15.019578,-0.002466063,11.7009535,5.949866E-4,-0.010214912,0.004754848,402947.16,0.0,0.03400694,0.051168934,3426.8696,3405.7798,1907.0623,1869.0181,0.33405495,0.0,0.0,0.0
296.38303,296.38303,2.099,0.0,0.0,71.43119,9362.0,100.0,0.0,0.14639132,0.0,1.0,0.0,0.0,4000000.0,113.0,1.0,0.0,0.0,30.769941,0.0,0.0,-478.32254,-139.20813,833.72766,-0.0134987235,1.2464902,0.012542589,76.35375,76.413284,71.34983,71.31371,26.0,26.0,26.0,26.0,84.0,84.0,70.0,70.0,0.4429713,0.44323072,0.0,0.0,0.017884163,0.017878765,0.04602137,0.045997255,6.2436233,7.0388985,0.3008544,0.22619961,177.85725,154.455,-3.5271046,-53.63076,0.0,0.0,0.0,3.0,1.0,0.9084321,-2.4087498E-5,0.0062476397,84.0,84.0,84.0,84.0,20.875416,20.875439,24.155571,24.155605,0.09387768,0.095227905,-0.0013763338,-0.0013943929,816.71985,0.0,0.0,0.0,0.0,0.0,0.0,0.0,0.0,0.0,0.0,0.0,0.0,0.0,15.648492,-0.0012355659,12.199571,-0.0029574863,-0.005806553,0.0017540173,463213.78,0.0,0.033878457,0.050795335,3482.0322,3469.7256,1925.0664,1911.2661,0.33351326,0.0,0.0,0.0
297.39133,297.39133,2.149,0.0,0.0,73.64105,9464.0,100.0,0.0,0.027872493,0.0,1.0,0.0,0.0,4000000.0,113.0,1.0,0.0,0.0,30.769012,0.0,0.0,-477.52747,-139.20796,834.34784,-0.0045212507,1.2556236,0.03122875,85.559944,85.61867,73.54688,73.531715,26.0,26.0,26.0,26.0,84.0,84.0,70.0,70.0,0.4500568,0.45035207,0.0,0.0,0.018280225,0.018220622,0.046115886,0.04606371,8.832737,9.388066,0.96626574,1.5427171,3.3728597,171.65465,-85.50882,5.9813256,0.0,0.0,0.0,3.0,1.0,0.9082483,-4.866295E-5,0.006022334,84.0,84.0,84.0,84.0,20.87545,20.875475,24.155052,24.155085,0.15375724,0.15489066,-0.0013379802,-0.001354057,844.22095,0.0,0.0,0.0,0.0,0.0,0.0,0.0,0.0,0.0,0.0,0.0,0.0,0.0,16.129843,0.008549795,12.580534,-0.0029506546,-0.002470162,0.0066300575,473650.94,0.0,0.03362304,0.05031665,3525.976,3518.4912,1992.4662,1971.5643,0.33336067,0.0,0.0,0.0
298.4301,298.4301,2.199,0.0,0.0,75.83712,9980.0,100.0,0.0,0.02558831,0.0,1.0,0.0,0.0,4000000.0,113.0,1.0,0.0,0.0,30.768356,0.0,0.0,-476.70834,-139.20734,834.98676,-0.0055095553,1.2475637,0.014764171,81.624214,81.64618,75.734886,75.72479,26.0,26.0,26.0,26.0,84.0,84.0,70.0,70.0,0.4500568,0.45035207,0.0,0.0,0.018464014,0.018470863,0.046069454,0.046058774,1.5150009,2.0673125,-0.47676262,-0.16249715,-115.18075,-176.90506,41.98997,3.312528,0.0,0.0,0.0,3.0,1.0,0.908154,1.142868E-5,0.005735278,84.0,84.0,84.0,84.0,20.875492,20.87552,24.15453,24.154562,0.11471175,0.115101054,-0.0013640026,-0.0013670436,967.4297,0.0,0.0,0.0,0.0,0.0,0.0,0.0,0.0,0.0,0.0,0.0,0.0,0.0,16.609442,0.014484456,12.957508,-0.0028347482,-0.0016311177,0.0032569813,514713.88,0.0,0.033756223,0.050188158,3522.4927,3518.8892,1949.332,1944.204,0.33366013,0.0,0.0,0.0
299.49933,299.49933,2.249,0.0,0.0,78.03345,10007.0,100.0,0.0,0.07099008,0.0,1.0,0.0,0.0,4000000.0,113.0,1.0,0.0,0.0,30.767416,0.0,0.0,-475.86523,-139.20657,835.64453,-0.0064468384,1.2445816,-0.0010353334,90.46997,90.53177,77.93366,77.919205,26.0,26.0,26.0,26.0,84.0,84.0,69.0,69.0,0.45334095,0.45364866,0.0,0.0,0.018399261,0.018350434,0.046081606,0.046032008,0.27269122,-1.1071935,0.56460494,-0.35248694,102.909645,108.730034,8.033214,7.1749086,0.0,0.0,0.0,3.0,1.0,0.9080627,-3.292649E-5,0.005576372,84.0,84.0,84.0,84.0,20.875538,20.875568,24.154003,24.154036,0.15224446,0.15320669,-0.0013412877,-0.0013514797,973.66144,0.0,0.0,0.0,0.0,0.0,0.0,0.0,0.0,0.0,0.0,0.0,0.0,0.0,17.087994,0.012878107,13.335946,-0.001984505,-0.0024061617,0.0028718081,516631.75,0.0,0.03382311,0.05033669,3510.996,3497.7651,1958.5623,1933.073,0.33342552,0.0,0.0,0.0
300.5895,300.5895,2.299,0.0,0.0,78.48693,9544.0,100.0,0.0,0.09331359,0.0,1.0,0.0,0.0,4000000.0,113.0,1.0,0.0,0.0,30.766985,0.0,0.0,-475.00586,-139.20508,836.3155,-0.008261044,-0.06738613,0.14089876,78.49064,78.486,78.49721,78.48416,26.0,26.0,26.0,26.0,84.0,84.0,69.0,69.0,0.45334095,0.45364866,0.0,0.0,0.015230781,0.015188163,0.046822548,0.046775136,-92.726364,-93.01576,26.634558,26.544928,-473.88928,-534.12823,572.893,569.27203,0.0,0.0,0.0,3.0,1.0,0.90795124,-3.059358E-5,0.0072107315,84.0,84.0,84.0,84.0,20.875574,20.875608,24.153473,24.153505,-2.9473985E-4,-3.1615864E-4,-1.9506226E-5,9.8460205E-6,864.1304,0.0,0.0,0.0,0.0,0.0,0.0,0.0,0.0,0.0,0.0,0.0,0.0,0.0,17.184383,0.059575535,13.417055,0.03459107,-0.0020533616,-0.04384873,480757.25,0.0,0.031998843,0.053076115,3356.7915,3341.9814,2756.9102,2734.838,0.3338604,0.0,0.0,0.0
301.68817,301.68817,2.349,0.0,0.0,79.97253,8906.0,100.0,0.0,0.056777563,0.0,2.0,0.0,0.0,3997749.5,113.0,1.0,0.0,0.0,30.766169,0.0,0.0,-474.1399,-139.20169,836.99176,-4.982352E-4,1.1038432,-0.11565079,91.771065,91.77073,79.86357,79.85098,26.0,26.0,26.0,26.0,84.0,84.0,69.0,69.0,0.45703393,0.45734906,0.0,0.0,0.014332897,0.014317769,0.04652964,0.046507124,25.791283,26.876347,-27.893185,-27.173681,2139.8257,2180.6794,-1157.2256,-1141.5481,190.53407,0.0,982.3306,3.0,1.0,0.9078399,1.2134019E-5,0.0068315268,84.0,84.0,84.0,84.0,20.875608,20.875645,24.152943,24.152975,0.19587578,0.19612576,-0.0012615557,-0.0012700536,700.1498,0.0,0.0,0.0,0.0,0.0,0.0,0.0,0.0,0.0,0.0,0.0,0.0,0.0,17.508442,0.04984207,13.672603,-0.027682818,-0.0021183242,0.037962887,417431.56,7998.9775,0.03412733,0.05483536,3125.8708,3126.3774,1925.6597,1918.029,0.33619022,0.0,0.0,0.0
302.81247,302.81247,2.399,0.0,0.0,81.81105,8492.0,100.0,0.0,-0.017947966,0.0,2.0,0.0,0.0,3996798.0,113.0,1.0,0.0,0.0,30.765566,0.0,0.0,-473.25378,-139.20091,837.68384,0.0014668703,1.1122469,-0.062079944,90.89677,90.89106,81.70478,81.70249,26.0,26.0,26.0,26.0,84.0,84.0,69.0,69.0,0.45703393,0.45734906,0.0,0.0,0.015835958,0.015853465,0.045940578,0.045938138,29.114761,29.01418,4.1840224,4.1681523,555.1702,518.5414,993.62415,974.6073,994.76483,0.0,982.3306,3.0,1.0,0.90777516,4.4215474E-5,0.005641222,84.0,84.0,84.0,84.0,20.875647,20.875683,24.1524,24.152431,0.08265689,0.08264731,-0.0013713151,-0.0013844749,605.6533,0.0,0.0,0.0,0.0,0.0,0.0,0.0,0.0,0.0,0.0,0.0,0.0,0.0,17.910723,-0.004219584,13.987311,-0.004615341,-2.8705335E-4,0.006792135,378696.34,0.0,0.03465192,0.05300144,3421.5415,3422.5603,1916.4647,1914.2172,0.33567333,0.0,0.0,0.0
303.96454,303.96454,2.449,0.0,0.0,84.00655,8478.0,100.0,0.0,-0.15581076,0.0,2.0,0.0,0.0,3994822.0,113.0,1.0,0.0,0.0,30.76479,0.0,0.0,-472.34564,-139.20132,838.393,0.009647429,1.2787436,0.044479102,87.47676,87.421974,83.87688,83.89709,26.0,26.0,26.0,26.0,84.0,84.0,69.0,69.0,0.46268496,0.4629957,0.0,0.0,0.018160664,0.018228231,0.04618877,0.046224903,50.43078,51.611286,2.8949974,3.7010012,12.780761,2.6955411,-225.90903,-235.0151,1556.7401,0.0,1056.9877,3.0,1.0,0.90785223,1.07485146E-4,0.004741311,84.0,84.0,84.0,84.0,20.875694,20.875734,24.151854,24.151886,0.09795187,0.09717306,-0.0013500575,-0.0013585407,602.47986,0.0,0.0,0.0,0.0,0.0,0.0,0.0,0.0,0.0,0.0,0.0,0.0,0.0,18.393482,-0.0019691908,14.359987,-0.013500164,0.0034179038,0.019826297,377334.16,0.0,0.0335242,0.050283544,3648.3154,3661.0935,2071.248,2089.8394,0.33312225,0.0,0.0,0.0
305.1445,305.1445,2.499,0.0,0.0,85.95624,8124.0,100.0,0.0,-0.45138672,0.0,2.0,0.0,0.0,3993284.0,113.0,1.0,0.0,0.0,30.76408,0.0,0.0,-471.41525,-139.2002,839.11896,0.029726744,1.2920091,0.09857724,94.40935,94.284,85.80739,85.867004,26.0,26.0,26.0,26.0,84.0,84.0,69.0,69.0,0.46268496,0.4629957,0.0,0.0,0.019095598,0.019289479,0.04641937,0.04653688,23.767387,27.590206,4.7895308,6.758496,666.96466,710.8792,-141.11102,-124.333786,2252.2766,0.0,1056.9877,3.0,1.0,0.9081595,2.4094898E-4,0.0043889284,84.0,84.0,84.0,84.0,20.875742,20.875784,24.151308,24.15134,0.09714292,0.09541095,-0.0012666014,-0.0012895539,526.61945,0.0,0.0,0.0,0.0,0.0,0.0,0.0,0.0,0.0,0.0,0.0,0.0,0.0,18.827522,0.04481578,14.68403,-0.0051894374,0.010198025,0.0121682985,344194.53,0.0,0.03269067,0.049047004,3700.2637,3741.362,2256.892,2316.4146,0.33206367,0.0,0.0,0.0
306.35516,306.35516,2.549,0.0,0.0,88.26764,8583.0,100.0,0.0,-0.5817125,0.0,2.0,0.0,0.0,3989232.8,113.0,1.0,0.0,0.0,30.763077,0.0,0.0,-470.46027,-139.19725,839.8633,0.03403294,1.3074865,0.018647123,99.786026,99.57636,88.09039,88.18982,26.0,26.0,26.0,26.0,84.0,84.0,68.0,68.0,0.46875152,0.46897838,0.0,0.0,0.019822981,0.020093668,0.046161797,0.04632202,8.849166,8.500143,-6.1869617,-6.3841043,-377.88968,-490.90457,19.915407,-40.407482,2342.8481,0.0,1907.6736,3.0,1.0,0.9088567,3.0878486E-4,0.0035649538,84.0,84.0,84.0,84.0,20.875797,20.875841,24.150757,24.150793,0.12532549,0.121859655,-0.0014155991,-0.0014075821,625.82825,0.0,0.0,0.0,0.0,0.0,0.0,0.0,0.0,0.0,0.0,0.0,0.0,0.0,19.343462,0.06462421,15.066431,-0.0073039015,0.016856615,0.009843301,387162.28,23996.941,0.033425014,0.048593543,3701.9736,3747.8975,1951.8987,2023.6472,0.33276653,0.0,0.0,0.0
307.18,307.18,2.599,0.0,0.0,89.781975,8992.0,100.0,0.0,-0.6021409,0.0,2.0,0.0,0.0,3985974.0,113.0,1.0,0.0,0.0,30.762344,0.0,0.0,-469.80936,-139.19507,840.37,0.03468895,1.277852,-0.004414176,104.55983,104.31044,89.59727,89.71966,26.0,26.0,26.0,26.0,84.0,84.0,68.0,68.0,0.46875152,0.46897838,0.0,0.0,0.01977474,0.020049054,0.04606889,0.04623719,0.0,0.0,0.0,0.0,-299.7301,-264.17075,160.39609,172.25145,2342.8481,0.0,2749.6714,3.0,1.0,0.90949184,3.201035E-4,0.003327608,84.0,84.0,84.0,84.0,20.875841,20.875887,24.150387,24.150423,0.15778756,0.15360479,-0.001375528,-0.0013561834,720.49414,0.0,0.0,0.0,0.0,0.0,0.0,0.0,0.0,0.0,0.0,0.0,0.0,0.0,19.682442,0.062974535,15.315778,-0.0025029988,0.02071349,0.0031936686,425452.6,23996.932,0.03362752,0.04883425,3643.2393,3696.5623,1949.7617,2029.032,0.33284092,0.0,0.0,0.0
308.44287,308.44287,2.649,0.0,0.0,91.86737,9062.0,100.0,0.0,-0.55487067,0.0,2.0,0.0,0.0,3983757.8,113.0,1.0,0.0,0.0,30.761644,0.0,0.0,-468.8122,-139.192,841.14526,0.07120237,1.0101187,0.03438082,94.25128,94.36989,91.77251,91.8851,26.0,26.0,26.0,26.0,84.0,84.0,68.0,68.0,0.47591138,0.4760345,0.0,0.0,0.019400947,0.019633744,0.046156954,0.04634606,0.0,0.0,0.0,0.0,-661.5064,-751.7962,-41.145084,89.57236,2891.2778,0.0,3240.8367,3.0,1.0,0.910574,3.8758744E-4,0.0031573772,84.0,84.0,84.0,84.0,20.875908,20.875956,24.149828,24.149866,0.023773279,0.021794511,-9.606519E-4,-8.371711E-4,738.19885,0.0,0.0,0.0,0.0,0.0,0.0,0.0,0.0,0.0,0.0,0.0,0.0,0.0,20.154331,0.06685323,15.65258,0.0090852305,0.017751865,-0.0011980073,432540.03,0.0,0.0333885,0.049118053,3670.2761,3771.6772,2049.314,2146.5435,0.33218384,0.0,0.0,0.0
310.16983,310.16983,2.699,0.0,0.0,94.71905,9230.0,100.0,0.0,-0.5186408,0.0,2.0,0.0,0.0,3979905.5,113.0,1.0,0.0,0.0,30.76029,0.0,0.0,-467.4473,-139.1865,842.2037,0.038756907,1.312322,0.038575046,107.31879,107.08325,94.52764,94.63986,26.0,26.0,26.0,26.0,84.0,85.0,68.0,68.0,0.47591138,0.4760345,0.0,0.0,0.019782418,0.02007108,0.046386268,0.04657027,27.202291,21.409279,-3.3391266,-7.153451,275.3622,82.84675,-560.39386,-608.24445,3638.7163,0.0,3588.6528,3.0,1.0,0.9117486,3.4198127E-4,0.0025861263,84.0,84.0,84.0,84.0,20.876003,20.87605,24.149084,24.149122,0.1268817,0.123212524,-0.0013739144,-0.0013548383,781.8095,0.0,0.0,0.0,0.0,0.0,0.0,0.0,0.0,0.0,0.0,0.0,0.0,0.0,20.799294,0.096506044,16.11337,-0.019211954,0.01896842,0.018761054,449755.28,19825.52,0.03312006,0.048621017,3757.439,3807.5708,2119.8652,2191.9763,0.3326187,0.0,0.0,0.0
311.0544,311.0544,2.749,0.0,0.0,96.26026,9702.0,100.0,0.0,-0.4806287,0.0,2.0,0.0,0.0,3976416.2,113.0,1.0,0.0,0.0,30.759464,0.0,0.0,-466.74774,-139.1832,842.7453,0.035534084,1.3045843,-9.935079E-4,112.80296,112.55217,96.0631,96.1845,26.0,26.0,26.0,26.0,85.0,85.0,68.0,68.0,0.48163527,0.4816956,0.0,0.0,0.020362483,0.020595217,0.046185568,0.046327554,0.0,0.0,0.0,0.0,-528.91815,-377.44043,90.162445,198.75171,3638.7163,0.0,4430.6504,3.0,1.0,0.9124085,2.9957783E-4,0.0018808842,84.0,84.0,84.0,84.0,20.876062,20.876112,24.148705,24.148745,0.1645388,0.1606388,-0.0014083761,-0.0013869464,900.9164,0.0,0.0,0.0,0.0,0.0,0.0,0.0,0.0,0.0,0.0,0.0,0.0,0.0,21.145128,0.097333886,16.366007,-0.009055075,0.020582823,0.012035976,493060.5,23996.926,0.033753414,0.048295636,3773.601,3825.1436,1971.8562,2037.572,0.3328619,0.0,0.0,0.0
312.40637,312.40637,2.799,0.0,0.0,98.177864,9503.0,100.0,0.0,-0.41710088,0.0,2.0,0.0,0.0,3975210.5,113.0,1.0,0.0,0.0,30.758873,0.0,0.0,-465.6781,-139.17813,843.57245,0.066471696,0.89745045,0.049411464,104.58374,104.470184,98.002686,98.08907,26.0,26.0,26.0,26.0,85.0,85.0,68.0,68.0,0.48163527,0.4816956,0.0,0.0,0.019671991,0.019994123,0.046305176,0.046568908,0.0,0.0,0.0,0.0,-1390.0814,-974.9561,428.05368,588.9594,4504.444,0.0,4570.9834,3.0,1.0,0.91331756,4.962117E-4,0.0017921925,84.0,84.0,84.0,84.0,20.876143,20.876194,24.148134,24.148178,0.050790668,0.04965832,-0.0010883874,-0.0010730224,854.727,0.0,0.0,0.0,0.0,0.0,0.0,0.0,0.0,0.0,0.0,0.0,0.0,0.0,21.583862,0.109013595,16.669334,0.009224683,0.014088435,-0.004014666,477577.3,0.0,0.033339072,0.048965152,3736.0977,3881.727,2244.6707,2382.7722,0.33208084,0.0,0.0,0.0
314.2533,314.2533,2.849,0.0,0.0,101.2491,10041.0,100.0,0.0,-0.36954916,0.0,2.0,0.0,0.0,3970092.8,113.0,1.0,0.0,0.0,30.757254,0.0,0.0,-464.2156,-139.16977,844.7009,0.032591045,1.3408847,0.050627988,116.71745,116.50914,101.05633,101.15306,26.0,26.0,26.0,26.0,85.0,85.0,67.0,67.0,0.4903444,0.490303,0.0,0.0,0.020919554,0.02113233,0.046478316,0.0466073,31.105799,26.438421,-2.6933846,-5.4911523,56.936527,153.55647,-271.4529,-180.4456,5088.8374,0.0,5261.0566,3.0,1.0,0.91434187,2.8483837E-4,5.965233E-4,84.0,84.0,84.0,84.0,20.876266,20.876322,24.147373,24.147423,0.14627676,0.14320454,-0.0013721032,-0.0013591282,980.12537,0.0,0.0,0.0,0.0,0.0,0.0,0.0,0.0,0.0,0.0,0.0,0.0,0.0,22.274353,0.14217876,17.170746,-0.020166472,0.01639597,0.022500014,518300.56,23996.918,0.033271953,0.047694456,3909.4473,3951.793,2182.696,2234.795,0.33249474,0.0,0.0,0.0
315.67575,315.67575,2.899,0.0,0.0,103.29024,10084.0,100.0,0.0,-0.33300623,0.0,2.0,0.0,0.0,3967954.2,114.0,1.0,0.0,0.0,30.756414,0.0,0.0,-463.0884,-139.16226,845.5689,0.06439549,0.7930323,-0.0030604906,107.37259,107.41809,103.193634,103.26324,26.0,26.0,26.0,26.0,85.0,85.0,67.0,67.0,0.4903444,0.490303,0.0,0.0,0.020829413,0.02102822,0.0462259,0.046396416,-43.604332,-43.18412,-6.894618,-3.971457,-3444.0698,-3441.0322,-182.0147,-54.18062,5781.519,0.0,5682.055,3.0,1.0,0.91512746,3.9387317E-4,-2.5081635E-4,84.0,84.0,84.0,84.0,20.87637,20.876423,24.1468,24.146845,0.025948161,0.025580678,-5.977581E-4,-5.174595E-4,988.31604,0.0,0.0,0.0,0.0,0.0,0.0,0.0,0.0,0.0,0.0,0.0,0.0,0.0,22.737152,0.1532921,17.49897,0.013013668,0.011878415,-0.0055821063,520403.28,0.0,0.033368118,0.04761094,3786.1714,3895.0742,1980.9055,2074.072,0.3321514,0.0,0.0,0.0
316.6386,316.6386,2.949,0.0,0.0,104.6719,9972.0,100.0,0.0,-0.30602595,0.0,2.0,0.0,0.0,3966609.0,114.0,1.0,0.0,0.0,30.755697,0.0,0.0,-462.3251,-139.1568,846.1561,0.036666512,1.2674755,0.04492004,115.92519,115.69103,104.49627,104.56877,26.0,26.0,26.0,26.0,85.0,85.0,67.0,67.0,0.4968149,0.49671707,0.0,0.0,0.020332087,0.020704646,0.04655377,0.046800643,0.0,0.0,0.0,0.0,1040.5494,846.0222,-442.09506,-675.55457,6468.1045,0.0,5682.055,3.0,1.0,0.91551304,4.6763805E-4,-2.2137165E-4,84.0,84.0,84.0,84.0,20.876438,20.876492,24.146414,24.146463,0.10201226,0.09934533,-0.0012595359,-0.0012410905,965.4611,0.0,0.0,0.0,0.0,0.0,0.0,0.0,0.0,0.0,0.0,0.0,0.0,0.0,23.05013,0.17124821,17.72141,-0.011332639,0.012079612,0.009895053,514078.6,0.0,0.032952,0.04851288,3757.8035,3835.4932,2367.2227,2477.6685,0.33157158,0.0,0.0,0.0
318.10922,318.10922,2.999,0.0,0.0,107.06083,10617.0,100.0,0.0,-0.3251201,0.0,2.0,0.0,0.0,3961675.0,114.0,1.0,0.0,0.0,30.75436,0.0,0.0,-461.15857,-139.14758,847.05206,0.032108963,1.3709929,0.07712616,123.39034,123.20586,106.86827,106.95215,26.0,26.0,26.0,26.0,85.0,85.0,67.0,67.0,0.4968149,0.49671707,0.0,0.0,0.021893805,0.022071185,0.046599098,0.04670418,0.0,0.0,0.0,0.0,37.18208,166.15607,-105.34374,-3.8489697,6657.654,0.0,6507.521,3.0,1.0,0.91616076,2.7533196E-4,-0.0015449524,84.0,84.0,84.0,84.0,20.876556,20.876614,24.145834,24.145885,0.14725457,0.14474152,-0.0013494545,-0.0013491784,1085.7014,0.0,0.0,0.0,0.0,0.0,0.0,0.0,0.0,0.0,0.0,0.0,0.0,0.0,23.58545,0.2005394,18.113575,-0.019706992,0.014322617,0.02506312,542982.2,23996.916,0.03264223,0.046612743,4051.234,4088.8398,2300.6367,2345.2412,0.3315897,0.0,0.0,0.0
320.11816,320.11816,3.049,0.0,0.0,109.705284,10409.0,100.0,0.0,-0.27618244,0.0,2.0,0.0,0.0,3959233.8,114.0,1.0,0.0,0.0,30.753447,0.0,0.0,-459.56427,-139.13226,848.2751,0.042006016,1.1661733,0.059921604,119.307755,119.14468,109.5397,109.602196,26.0,26.0,26.0,26.0,85.0,85.0,67.0,67.0,0.5047271,0.50456613,0.0,0.0,0.021429176,0.021753969,0.04669161,0.046925742,-26.042683,-21.175144,5.706846,7.7437606,857.8777,955.06757,67.67211,-49.94273,7822.367,0.0,6788.1865,3.0,1.0,0.9170025,4.7684187E-4,-0.0025069714,84.0,84.0,84.0,84.0,20.876713,20.876776,24.145056,24.145113,0.071115136,0.06945399,-0.001146267,-0.0011178955,1051.669,0.0,0.0,0.0,0.0,0.0,0.0,0.0,0.0,0.0,0.0,0.0,0.0,0.0,24.185728,0.25591186,18.537283,-0.0051880805,0.010438193,0.0071509327,536472.0,0.0,0.032470338,0.047377888,3867.4136,3959.7976,2455.247,2565.482,0.33132935,0.0,0.0,0.0
321.6584,321.6584,3.099,0.0,0.0,112.033195,10925.0,100.0,0.0,-0.23554654,0.0,2.0,0.0,0.0,3954823.0,114.0,1.0,0.0,0.0,30.752115,0.0,0.0,-458.34128,-139.11942,849.2118,0.026140451,1.3312823,-0.027083484,126.963234,126.795685,111.84214,111.91251,26.0,26.0,26.0,26.0,85.0,85.0,67.0,67.0,0.5047271,0.50456613,0.0,0.0,0.021632701,0.021840412,0.04645894,0.046583217,11.4686775,7.18642,-5.8141346,-7.928609,-66.86079,-118.67434,14.685086,81.32455,8248.8,0.0,7332.404,3.0,1.0,0.91756564,2.968858E-4,-0.0036004782,84.0,84.0,84.0,84.0,20.87684,20.876907,24.144464,24.144524,0.12845492,0.12627281,-0.0013801128,-0.0013624036,1128.264,0.0,0.0,0.0,0.0,0.0,0.0,0.0,0.0,0.0,0.0,0.0,0.0,0.0,24.707735,0.25441632,18.919252,-0.016184652,0.011839368,0.015595243,548360.7,23996.914,0.03268987,0.046529997,3937.942,3972.8386,2120.4116,2171.3757,0.33084965,0.0,0.0,0.0
323.22836,323.22836,3.149,0.0,0.0,113.37714,10792.0,100.0,0.0,-0.17671013,0.0,2.0,0.0,0.0,3952323.2,114.0,1.0,0.0,0.0,30.751211,0.0,0.0,-457.09412,-139.105,850.16614,0.045448724,-0.12277394,0.21811524,113.37205,113.442276,113.35651,113.402405,26.0,26.0,26.0,26.0,85.0,85.0,66.0,66.0,0.5082095,0.5080462,0.0,0.0,0.021537011,0.021674063,0.046984985,0.047122832,-78.440865,-77.79367,17.0774,19.677578,-6073.3926,-5937.6123,807.1034,968.90765,9849.61,0.0,8174.401,3.0,1.0,0.9180886,3.3914662E-4,-0.0040661097,84.0,84.0,84.0,84.0,20.876974,20.877043,24.14388,24.143942,-7.2478125E-4,-6.2058726E-4,1.6583646E-4,1.8951659E-4,1109.8258,0.0,0.0,0.0,0.0,0.0,0.0,0.0,0.0,0.0,0.0,0.0,0.0,0.0,25.014282,0.33336052,19.131767,0.028701203,0.0067890105,-0.030787455,546046.8,0.0,0.03123524,0.04625786,4333.6646,4418.1733,2767.8413,2842.5671,0.331069,0.0,0.0,0.0
324.8039,324.8039,3.199,0.0,0.0,113.99334,10341.0,100.0,0.0,-0.1631605,0.0,3.0,0.0,0.0,3948706.5,114.0,1.0,0.0,0.0,30.750319,0.0,0.0,-455.84213,-139.08623,851.12317,0.021318555,0.9336737,-0.032493472,124.64759,124.60186,113.84109,113.87275,26.0,26.0,26.0,26.0,85.0,85.0,66.0,66.0,0.5082095,0.5080462,0.0,0.0,0.017464703,0.017671999,0.04751865,0.047653995,-36.354435,-37.964878,-10.538622,-12.546032,3728.4575,3582.492,-1620.0004,-1718.4911,11443.086,0.0,10279.397,3.0,1.0,0.9183541,3.2278325E-4,-0.0030497313,84.0,84.0,84.0,84.0,20.877085,20.877155,24.143305,24.143368,0.06812748,0.067657255,-9.666471E-4,-9.6758036E-4,1038.2083,0.0,0.0,0.0,0.0,0.0,0.0,0.0,0.0,0.0,0.0,0.0,0.0,0.0,25.157877,0.38489875,19.224821,-0.024939548,0.005398093,0.027340183,533088.06,59992.406,0.031959154,0.051866844,3403.0396,3435.4849,2789.327,2842.7593,0.33280563,0.0,0.0,0.0
325.86615,325.86615,3.249,0.0,0.0,115.38447,10131.0,100.0,0.0,-0.09743349,0.0,3.0,0.0,0.0,3947430.8,114.0,1.0,0.0,0.0,30.750097,0.0,0.0,-454.99786,-139.07413,851.7682,0.013765812,1.1663014,-0.11433705,116.069275,116.05641,115.24789,115.28075,26.0,26.0,26.0,26.0,85.0,85.0,66.0,66.0,0.51185614,0.5116883,0.0,0.0,0.018727921,0.018812573,0.046643622,0.046698455,0.0,0.0,0.0,0.0,1736.5356,1607.4946,395.4246,390.8648,12366.795,0.0,10981.063,3.0,1.0,0.91854364,2.0133783E-4,-0.0047744513,84.0,84.0,84.0,84.0,20.877161,20.877232,24.142902,24.142967,0.03448664,0.03376971,-0.0013115285,-0.0012915613,997.3625,0.0,0.0,0.0,0.0,0.0,0.0,0.0,0.0,0.0,0.0,0.0,0.0,0.0,25.467995,0.34627962,19.456192,-0.030353885,0.0050173867,0.035363637,522730.34,0.0,0.03387658,0.0502819,3793.5693,3806.774,2035.5203,2051.9915,0.33343887,0.0,0.0,0.0
327.478,327.478,3.299,0.0,0.0,116.98525,9954.0,100.0,0.0,0.03870612,0.0,3.0,0.0,0.0,3946426.8,114.0,1.0,0.0,0.0,30.74904,0.0,0.0,-453.7166,-139.0567,852.7469,0.0017946959,1.1880482,-0.024025522,128.17937,128.16113,116.83167,116.83368,26.0,26.0,26.0,26.0,85.0,85.0,66.0,66.0,0.51185614,0.5116883,0.0,0.0,0.019650185,0.019682689,0.046774168,0.0467885,0.0,0.0,0.0,0.0,-48.454166,-19.070433,-570.0096,-555.7268,14395.154,0.0,10981.063,3.0,1.0,0.91865146,1.66946E-4,-0.0056966543,84.0,84.0,84.0,84.0,20.877281,20.877356,24.1423,24.142365,0.07967759,0.07948189,-0.0012180536,-0.0012074343,961.1593,0.0,0.0,0.0,0.0,0.0,0.0,0.0,0.0,0.0,0.0,0.0,0.0,0.0,25.823664,0.34870774,19.723097,-0.018305894,2.1940639E-4,0.022543296,512713.5,0.0,0.0324723,0.04869784,3827.6602,3838.0164,2411.9263,2417.461,0.33256817,0.0,0.0,0.0
329.67078,329.67078,3.349,0.0,0.0,119.45599,9698.0,100.0,0.0,0.06948455,0.0,3.0,0.0,0.0,3944429.5,114.0,1.0,0.0,0.0,30.747925,0.0,0.0,-451.97366,-139.03178,854.0783,-0.0038044453,0.88695383,0.1639089,124.49071,124.484375,119.34847,119.334755,26.0,26.0,26.0,26.0,85.0,85.0,66.0,66.0,0.51851004,0.5183467,0.0,0.0,0.022049516,0.022035534,0.04707838,0.047051292,4.336461,4.3927875,17.397701,17.395466,-29.49088,-21.015099,1036.9152,1072.7091,16311.862,0.0,11457.402,3.0,1.0,0.9185444,1.0700024E-4,-0.0073884726,84.0,84.0,84.0,84.0,20.877459,20.877533,24.141499,24.141563,0.036935713,0.03699993,-9.050444E-4,-9.064815E-4,899.94354,0.0,0.0,0.0,0.0,0.0,0.0,0.0,0.0,0.0,0.0,0.0,0.0,0.0,26.36729,0.4143599,20.140856,0.0013823481,-0.0023326513,-0.0019802966,492731.25,0.0,0.0314426,0.0457186,4398.125,4393.0693,2796.045,2783.729,0.3296442,0.0,0.0,0.0
331.34534,331.34534,3.399,0.0,0.0,121.739296,9813.0,100.0,0.0,0.042563777,0.0,3.0,0.0,0.0,3940371.8,114.0,1.0,0.0,0.0,30.746689,0.0,0.0,-450.6426,-139.00903,855.0951,-0.0032738447,1.3812957,0.062443618,133.66112,133.67029,121.573425,121.55926,26.0,26.0,26.0,26.0,85.0,85.0,66.0,66.0,0.51851004,0.5183467,0.0,0.0,0.023370154,0.02335202,0.047114372,0.0470853,30.436811,30.656082,-12.51161,-12.234225,14.886245,39.16019,-734.6838,-707.3387,17151.184,0.0,12467.226,3.0,1.0,0.9184197,1.3187382E-4,-0.008758545,84.0,84.0,84.0,84.0,20.877598,20.877672,24.140898,24.14096,0.09477492,0.0949941,-0.0013381842,-0.0013459173,927.2509,0.0,0.0,0.0,0.0,0.0,0.0,0.0,0.0,0.0,0.0,0.0,0.0,0.0,26.869358,0.47920954,20.527098,-0.024926564,-0.002320761,0.03459323,501732.78,54876.305,0.03185625,0.044994365,4254.867,4251.859,2475.6562,2463.7002,0.33060646,0.0,0.0,0.0
333.05353,333.05353,3.449,0.0,0.0,124.192795,10260.0,100.0,0.0,-0.04123599,0.0,3.0,0.0,0.0,3932972.8,114.0,1.0,0.0,0.0,30.745375,0.0,0.0,-449.28485,-138.98488,856.1324,0.0020240545,1.3898985,-0.013918675,139.7648,139.7299,124.014565,124.01532,26.0,26.0,26.0,26.0,85.0,85.0,65.0,65.0,0.5266843,0.526521,0.0,0.0,0.024030004,0.024088489,0.04659457,0.046599373,6.583258,8.590668,-4.6373158,-3.787726,-282.51035,-246.49496,391.95114,405.6036,17151.184,0.0,15624.722,3.0,1.0,0.9183658,2.0357312E-4,-0.010238647,84.0,84.0,84.0,84.0,20.877754,20.87783,24.14028,24.140345,0.12248361,0.122228675,-0.0014019898,-0.0014085913,1022.3645,0.0,0.0,0.0,0.0,0.0,0.0,0.0,0.0,0.0,0.0,0.0,0.0,0.0,27.411104,0.4830153,20.940628,-0.009891888,2.599062E-4,0.014643771,529097.1,59992.41,0.033227272,0.044747766,4247.736,4258.6035,2231.8584,2237.3418,0.3295784,0.0,0.0,0.0
334.79318,334.79318,3.499,0.0,0.0,125.98819,10197.0,100.0,0.0,-0.13420057,0.0,3.0,0.0,0.0,3931158.5,114.0,1.0,0.0,0.0,30.744875,0.0,0.0,-447.90204,-138.95981,857.1886,0.010409653,0.7248583,0.23454222,129.66801,129.67278,125.89512,125.9127,26.0,26.0,26.0,26.0,85.0,85.0,65.0,65.0,0.5266843,0.526521,0.0,0.0,0.023821805,0.023871912,0.04733511,0.047356613,-26.700495,-27.175245,27.32992,27.407703,-2628.3499,-2609.5142,301.72162,308.80267,18655.11,0.0,16501.805,3.0,1.0,0.91844827,2.2164798E-4,-0.010334015,84.0,84.0,84.0,84.0,20.877913,20.87799,24.139671,24.139734,0.02511037,0.025043333,-7.6870876E-4,-7.789866E-4,1010.1514,0.0,0.0,0.0,0.0,0.0,0.0,0.0,0.0,0.0,0.0,0.0,0.0,0.0,27.808437,0.5495108,21.240509,0.00734149,0.003126313,-0.0072802426,526006.44,0.0,0.030164035,0.04367322,4590.88,4602.9863,3093.9868,3104.5962,0.32903767,0.0,0.0,0.0
335.96503,335.96503,3.549,0.0,0.0,127.25309,10099.0,100.0,0.0,-0.21844795,0.0,3.0,0.0,0.0,3930173.2,114.0,1.0,0.0,0.0,30.744083,0.0,0.0,-446.97043,-138.94037,857.9,0.019525886,1.2064713,0.10473622,137.44037,137.38889,127.07407,127.11165,26.0,26.0,26.0,26.0,85.0,85.0,65.0,65.0,0.5339004,0.5337003,0.0,0.0,0.023307465,0.02340558,0.047505327,0.04757497,0.0,0.0,0.0,0.0,776.4592,843.9838,-1184.4365,-1149.4471,20002.04,0.0,16501.805,3.0,1.0,0.91861135,3.0568556E-4,-0.010727763,84.0,84.0,84.0,84.0,20.878017,20.878096,24.13927,24.139336,0.06790664,0.06734605,-0.0011299644,-0.0011382408,991.26044,0.0,0.0,0.0,0.0,0.0,0.0,0.0,0.0,0.0,0.0,0.0,0.0,0.0,28.090498,0.6035407,21.448694,-0.017130822,0.0065392475,0.02704252,521178.4,0.0,0.030654214,0.044937275,4222.628,4255.0605,2845.3152,2883.7937,0.32945824,0.0,0.0,0.0
