LapDistance [m],TotalDistance [m],LapTime [s],Sector1Time [s],Sector2Time [s],Speed [km/h],EngineRevs [rpm],ThrottlePercentage [%],BrakePercentage [%],Steer [%],Clutch [%],Gear [int],DRS [0/1],CanUseDRS [0/1],KERSLevel [J],EngineTemperature [C],RacePosition [int],Sector [int],InPits [int],FuelRemaining [kg],CurrentFlag [int],CurrentLapInvalid [int],X [m],Y [m],Z [m],GForceLatitudinal [G],GForceLongitudinal [G],GForceVertical [G],WheelSpeedRearLeft [km/h],WheelSpeedRearRight [km/h],WheelSpeedFrontLeft [km/h],WheelSpeedFrontRight [km/h],BrakeTemperatureRearLeft [C],BrakeTemperatureRearRight [C],BrakeTemperatureFrontLeft [C],BrakeTemperatureFrontRight [C],TyreTemperatureRearLeft [C],TyreTemperatureRearRight [C],TyreTemperatureFrontLeft [C],TyreTemperatureFrontRight [C],TyreWearRearLeft [%],TyreWearRearRight [%],TyreWearFrontLeft [%],TyreWearFrontRight [%],SuspensionPositionRearLeft [m],SuspensionPositionRearRight [m],SuspensionPositionFrontLeft [m],SuspensionPositionFrontRight [m],SuspensionVelocityRearLeft [m/s],SuspensionVelocityRearRight [m/s],SuspensionVelocityFrontLeft [m/s],SuspensionVelocityFrontRight [m/s],SuspensionAccelerationRearLeft [m/s^2],SuspensionAccelerationRearRight [m/s^2],SuspensionAccelerationFrontLeft [m/s^2],SuspensionAccelerationFrontRight [m/s^2],MGUKHarvested [J],MGUHHarvested [J],ERSSpent [J],ERSMode [int],FuelMixMode [int],Yaw [rad],Roll [rad],Pitch [rad],TyreCarcassTemperatureRearLeft [C],TyreCarcassTemperatureRearRight [C],TyreCarcassTemperatureFrontLeft [C],TyreCarcassTemperatureFrontRight [C],TyrePressureRearLeft [PSI],TyrePressureRearRight [PSI],TyrePressureFrontLeft [PSI],TyrePressureFrontRight [PSI],WheelSlipRearLeft [%],WheelSlipRearRight [%],WheelSlipFrontLeft [%],WheelSlipFrontRight [%],Torque [Nm],Handbrake [%],RearLeftInside [C],RearLeftMiddle [C],RearLeftOutside [C],RearRightInside [C],RearRightMiddle [C],RearRightOutside [C],FrontLeftInside [C],FrontLeftMiddle [C],FrontLeftOutside [C],FrontRightInside [C],FrontRightMiddle [C],FrontRightOutside [C],WoldSpeedX [km/h],WoldSpeedY [km/h],WoldSpeedZ [km/h],LocalAngularVelocityX [rad/s],LocalAngularVelocityY [rad/s],LocalAngularVelocityZ [rad/s],IcePower [W],MgukPower [W],FrontRideHeight [m],RearRideHeight [m],LoadRearLeft [N],LoadRearRight [N],LoadFrontLeft [N],LoadFrontRight [N],Extra1 [m],Extra2 [],Extra3 [],Extra4 []
3.4019752,3.4019752,0.05,0.0,0.0,284.16794,10569.0,100.0,0.0,-0.16911215,0.0,8.0,1.0,0.0,4000000.0,110.0,1.0,0.0,0.0,10.0,0.0,0.0,445.4511,-42.158726,181.9474,0.08565141,0.5270102,0.07800555,290.35352,290.3586,283.9673,284.02887,364.0,363.0,390.0,382.0,89.0,89.0,89.0,89.0,0.0,0.0,0.0,0.0,0.043749325,0.044169374,0.051140696,0.051757794,0.0,0.0,0.0,0.0,2281.8489,1807.4062,698.769,650.1003,0.0,0.0,0.0,2.0,1.0,-1.2887757,0.025725752,0.0048538446,89.0,89.0,89.0,89.0,22.047926,22.047926,24.919281,24.919281,0.021951208,0.021782102,-5.720149E-4,-5.72347E-4,1079.1499,0.0,0.0,0.0,0.0,0.0,0.0,0.0,0.0,0.0,0.0,0.0,0.0,0.0,-75.83989,-0.39604378,21.885464,-0.005811966,0.008939633,-0.053637292,542156.75,119984.9,0.016710091,0.019232616,6837.255,6925.4937,5318.916,5604.913,0.31430054,0.0,0.0,0.0
7.35526,7.35526,0.1,0.0,0.0,285.09082,10281.0,100.0,0.0,-0.16922194,0.0,8.0,1.0,0.0,4000000.0,110.0,1.0,0.0,0.0,10.0,0.0,0.0,441.6529,-42.17521,183.0446,0.08650279,0.5228965,0.30627048,290.81674,290.8052,284.89093,284.95526,362.0,361.0,388.0,381.0,89.0,89.0,89.0,89.0,0.0,0.0,0.0,0.0,0.048742797,0.04913713,0.05149477,0.05215448,0.0,0.0,0.0,0.0,-2886.07,-3786.0044,-56.996937,105.71925,0.0,0.0,0.0,2.0,1.0,-1.2883067,0.02535833,0.0024495125,89.0,89.0,89.0,89.0,22.047926,22.047926,24.919281,24.919281,0.020874929,0.020647775,-5.708218E-4,-5.709982E-4,1026.4734,0.0,0.0,0.0,0.0,0.0,0.0,0.0,0.0,0.0,0.0,0.0,0.0,0.0,-76.07553,-0.26228762,21.995472,0.003983572,0.009793967,-0.03975394,530138.5,119984.91,0.01490858,0.0139957415,7350.117,7467.2764,5602.4194,5916.3154,0.31137085,0.0,0.0,0.0
11.320328,11.320328,0.15,0.0,0.0,285.8446,10295.0,100.0,0.0,-0.20359513,0.0,8.0,1.0,0.0,4000000.0,110.0,1.0,0.0,0.0,10.0,0.0,0.0,437.8439,-42.18466,184.14694,0.09280616,0.40714622,0.23480637,291.22812,291.2136,285.66153,285.73386,361.0,360.0,387.0,379.0,89.0,89.0,89.0,89.0,0.0,0.0,0.0,0.0,0.04825854,0.048510212,0.051548436,0.05209545,0.0,0.0,0.0,0.0,-676.7481,-236.30257,115.95187,571.60547,0.0,0.0,0.0,2.0,1.0,-1.2877489,0.024813354,0.0017143488,89.0,89.0,89.0,89.0,22.047926,22.047926,24.919281,24.919281,0.018902991,0.018625861,-5.0725345E-4,-5.1010516E-4,1029.2515,0.0,0.0,0.0,0.0,0.0,0.0,0.0,0.0,0.0,0.0,0.0,0.0,0.0,-76.26523,-0.13137913,22.094347,0.008387318,0.012169177,-0.00429248,530850.4,119984.92,0.0145885805,0.014107349,7205.8623,7375.052,5594.7773,5858.9824,0.31126213,0.0,0.0,0.0
15.295459,15.295459,0.2,0.0,0.0,286.56442,10327.0,100.0,0.0,-0.1647325,0.0,8.0,1.0,0.0,4000000.0,110.0,1.0,0.0,0.0,10.0,0.0,0.0,434.0259,-42.189903,185.25423,0.08887412,0.4153059,0.04737427,292.1334,292.12332,286.38104,286.44925,359.0,358.0,386.0,378.0,89.0,89.0,89.0,89.0,0.0,0.0,0.0,0.0,0.0467845,0.047112286,0.051321816,0.051815763,0.0,0.0,0.0,0.0,1061.5511,1531.9971,259.0477,345.2003,0.0,0.0,0.0,2.0,1.0,-1.2871615,0.024403563,0.0013765097,89.0,89.0,89.0,89.0,22.047926,22.047926,24.919281,24.919281,0.019579979,0.019349845,-5.143666E-4,-5.1245955E-4,1035.5199,0.0,0.0,0.0,0.0,0.0,0.0,0.0,0.0,0.0,0.0,0.0,0.0,0.0,-76.44541,-0.09298731,22.191126,0.0019393056,0.011069717,-0.009844595,532428.5,119984.91,0.015083123,0.015523058,6834.265,6987.972,5359.751,5581.782,0.31172276,0.0,0.0,0.0
19.28066,19.28066,0.233,0.0,0.0,287.2902,10351.0,100.0,0.0,-0.117350206,0.0,8.0,1.0,0.0,4000000.0,110.0,1.0,0.0,0.0,10.0,0.0,0.0,430.19882,-42.19362,186.36638,0.084318705,0.41213673,0.08785406,292.81616,292.80426,287.1132,287.16925,358.0,357.0,384.0,377.0,89.0,89.0,89.0,89.0,0.0,0.0,0.0,0.0,0.04652395,0.046983913,0.051303737,0.051839747,7.78377,7.708892,-0.95978373,0.36545095,1050.715,985.97986,-40.05879,-28.324123,0.0,0.0,0.0,2.0,1.0,-1.2866522,0.024188759,8.660555E-4,89.0,89.0,89.0,89.0,22.047926,22.047926,24.919281,24.919281,0.019347625,0.019143851,-5.14745E-4,-5.09168E-4,1040.2484,0.0,0.0,0.0,0.0,0.0,0.0,0.0,0.0,0.0,0.0,0.0,0.0,0.0,-76.62739,-0.05562892,22.287481,0.0018667353,0.008872033,-0.0090720225,533619.56,119984.9,0.01481606,0.015509345,6992.829,7112.1304,5406.576,5657.054,0.31124496,0.0,0.0,0.0
23.275854,23.275854,0.3,0.0,0.0,288.00687,10379.0,100.0,0.0,-0.10417946,0.0,8.0,1.0,0.0,4000000.0,110.0,1.0,0.0,0.0,10.0,0.0,0.0,426.3627,-42.195465,187.4832,0.07494245,0.4057271,0.035208154,293.59326,293.58627,287.83566,287.88086,356.0,355.0,383.0,375.0,89.0,89.0,89.0,89.0,0.0,0.0,0.0,0.0,0.046365935,0.046759356,0.051277544,0.051790904,0.0,0.0,0.0,0.0,-175.24211,-198.59074,35.136932,-228.76558,0.0,0.0,0.0,2.0,1.0,-1.2862496,0.023809839,6.1154366E-4,89.0,89.0,89.0,89.0,22.047926,22.047926,24.919281,24.919281,0.019489229,0.019345602,-5.1188306E-4,-5.082818E-4,1045.7174,0.0,0.0,0.0,0.0,0.0,0.0,0.0,0.0,0.0,0.0,0.0,0.0,0.0,-76.80789,-0.025702635,22.379742,0.00660113,0.007241473,-0.004867639,534977.9,119984.9,0.014488446,0.015498799,6857.717,6952.657,5375.7197,5592.0254,0.31102276,0.0,0.0,0.0
27.280998,27.280998,0.35,0.0,0.0,288.72205,10405.0,100.0,0.0,-0.07723994,0.0,8.0,1.0,0.0,4000000.0,110.0,1.0,0.0,0.0,10.0,0.0,0.0,422.51752,-42.196327,188.60452,0.06376535,0.40446353,0.022688573,294.33557,294.32834,288.55606,288.5899,355.0,354.0,381.0,374.0,89.0,89.0,89.0,89.0,0.0,0.0,0.0,0.0,0.046039335,0.046423595,0.051368445,0.051795255,0.0,0.0,0.0,0.0,85.374695,-115.85798,-73.868034,19.44601,0.0,0.0,0.0,2.0,1.0,-1.2859402,0.023483653,4.645586E-4,89.0,89.0,89.0,89.0,22.047926,22.047926,24.919281,24.919281,0.019520892,0.019406782,-5.109182E-4,-5.0802145E-4,1050.873,0.0,0.0,0.0,0.0,0.0,0.0,0.0,0.0,0.0,0.0,0.0,0.0,0.0,-76.98935,-0.01074787,22.467127,0.003343574,0.0052794353,-0.007077997,536272.06,119984.9,0.013455546,0.015197918,6831.8296,6909.952,5458.1343,5654.6167,0.3102808,0.0,0.0,0.0
31.296072,31.296072,0.4,0.0,0.0,289.43307,10429.0,100.0,0.0,-0.072220646,0.0,8.0,1.0,0.0,4000000.0,110.0,1.0,0.0,0.0,10.0,0.0,0.0,418.66324,-42.195557,189.73007,0.054483734,0.40020317,0.029008565,295.00342,294.99976,289.2694,289.29947,353.0,352.0,380.0,373.0,89.0,89.0,89.0,89.0,0.0,0.0,0.0,0.0,0.046736028,0.047035083,0.05134122,0.051808644,0.0,0.0,0.0,0.0,-738.8546,-843.7558,-204.82683,-316.3263,0.0,0.0,0.0,2.0,1.0,-1.285697,0.023167942,-1.9192696E-5,89.0,89.0,89.0,89.0,22.047926,22.047926,24.919281,24.919281,0.019301042,0.019198934,-5.1013526E-4,-5.076479E-4,1055.5946,0.0,0.0,0.0,0.0,0.0,0.0,0.0,0.0,0.0,0.0,0.0,0.0,0.0,-77.17099,0.028187329,22.549698,0.008527792,0.004793182,-0.0034041277,537441.9,119984.9,0.014050146,0.014550026,6962.445,7028.577,5333.04,5543.957,0.31034374,0.0,0.0,0.0
35.320942,35.320942,0.45,0.0,0.0,290.13858,10458.0,100.0,0.0,-0.005193128,0.0,8.0,1.0,0.0,4000000.0,110.0,1.0,0.0,0.0,10.0,0.0,0.0,414.79993,-42.194866,190.85962,0.03856068,0.4002665,-0.07189568,295.82416,295.81458,289.98358,289.99997,352.0,351.0,379.0,371.0,89.0,89.0,89.0,89.0,0.0,0.0,0.0,0.0,0.045811776,0.04608713,0.05111257,0.051437113,0.0,0.0,0.0,0.0,177.13313,70.22025,113.92681,183.53015,0.0,0.0,0.0,2.0,1.0,-1.2854916,0.02280382,4.5228004E-4,89.0,89.0,89.0,89.0,22.047926,22.047926,24.919281,24.919281,0.019638687,0.019566033,-5.130357E-4,-5.047625E-4,1061.3329,0.0,0.0,0.0,0.0,0.0,0.0,0.0,0.0,0.0,0.0,0.0,0.0,0.0,-77.35264,-0.0017865415,22.626772,0.011825897,0.0026503436,0.01370721,538865.0,119984.9,0.01468242,0.015468647,6734.585,6793.9897,5232.2236,5376.558,0.31081295,0.0,0.0,0.0
39.355667,39.355667,0.483,0.0,0.0,290.83932,10484.0,100.0,0.0,0.110590495,0.0,8.0,1.0,0.0,4000000.0,110.0,1.0,0.0,0.0,10.0,0.0,0.0,410.9274,-42.19574,191.99275,0.01141528,0.39625198,-0.07418257,296.5732,296.5521,290.7005,290.6827,350.0,349.0,377.0,370.0,89.0,89.0,89.0,89.0,0.0,0.0,0.0,0.0,0.04513925,0.045238268,0.051266614,0.051504947,-12.927799,-15.737412,2.2213159,-1.0941176,167.43689,205.39008,-136.57808,-270.46048,0.0,0.0,0.0,2.0,1.0,-1.2855083,0.022411777,0.0011149645,89.0,89.0,89.0,89.0,22.047926,22.047926,24.919281,24.919281,0.019720523,0.019724242,-5.1367615E-4,-4.99757E-4,1066.5302,0.0,0.0,0.0,0.0,0.0,0.0,0.0,0.0,0.0,0.0,0.0,0.0,0.0,-77.53622,-0.033214234,22.692484,0.010474166,-0.0035826804,0.0044649867,540160.9,119984.9,0.014634447,0.016512344,6681.501,6701.224,5372.8193,5470.3584,0.31127834,0.0,0.0,0.0
43.4,43.4,0.55,0.0,0.0,291.53592,10507.0,100.0,0.0,0.17281926,0.0,8.0,1.0,0.0,4000000.0,110.0,1.0,0.0,0.0,10.0,0.0,0.0,407.04565,-42.197945,193.12874,-0.02129712,0.39106292,-0.031008743,297.23346,297.1974,291.41684,291.3586,349.0,347.0,376.0,369.0,89.0,89.0,89.0,89.0,0.0,0.0,0.0,0.0,0.045384802,0.04528848,0.05147787,0.051507536,0.0,0.0,0.0,0.0,-466.48975,-437.70966,-430.80298,-286.9293,0.0,0.0,0.0,2.0,1.0,-1.2858776,0.022017617,0.0013180971,89.0,89.0,89.0,89.0,22.047926,22.047926,24.919281,24.919281,0.019475417,0.019552693,-5.09532E-4,-5.004501E-4,1070.6721,0.0,0.0,0.0,0.0,0.0,0.0,0.0,0.0,0.0,0.0,0.0,0.0,0.0,-77.72328,-0.0505516,22.742167,0.006347316,-0.01035774,3.7844875E-5,541071.6,119984.9,0.014688634,0.016509928,6816.5664,6799.16,5481.117,5488.623,0.31139088,0.0,0.0,0.0
47.453888,47.453888,0.6,0.0,0.0,292.22418,10531.0,100.0,0.0,0.19006677,0.0,8.0,1.0,0.0,4000000.0,110.0,1.0,0.0,0.0,10.0,0.0,0.0,403.15457,-42.201004,194.2668,-0.053889114,0.38799775,4.4798653E-4,297.90424,297.86612,292.1161,292.03528,347.0,346.0,375.0,367.0,89.0,89.0,89.0,89.0,0.0,0.0,0.0,0.0,0.04563916,0.04538548,0.05163241,0.051506408,0.0,0.0,0.0,0.0,228.0414,181.81354,475.38126,384.2532,0.0,0.0,0.0,2.0,1.0,-1.2864977,0.021727344,0.0014281273,89.0,89.0,89.0,89.0,22.047926,22.047926,24.919281,24.919281,0.019351829,0.01948634,-5.045895E-4,-5.016044E-4,1073.9375,0.0,0.0,0.0,0.0,0.0,0.0,0.0,0.0,0.0,0.0,0.0,0.0,0.0,-77.91269,-0.06593332,22.775564,0.003998311,-0.01396269,-0.0032918747,541484.94,119984.9,0.0149247255,0.01640846,6895.3047,6835.4443,5653.9077,5584.3945,0.31151867,0.0,0.0,0.0
51.517303,51.517303,0.65,0.0,0.0,292.90256,10555.0,100.0,0.0,0.11666182,0.0,8.0,1.0,0.0,4000000.0,110.0,1.0,0.0,0.0,10.0,0.0,0.0,399.25394,-42.20454,195.40619,-0.067860454,0.38131943,-0.019404251,298.5794,298.5545,292.7908,292.7198,346.0,344.0,373.0,366.0,89.0,89.0,89.0,89.0,0.0,0.0,0.0,0.0,0.046068817,0.045664433,0.051576626,0.051398337,0.0,0.0,0.0,0.0,-488.77884,-352.1204,186.90971,75.611465,0.0,0.0,0.0,2.0,1.0,-1.2871492,0.021490235,0.0014742613,89.0,89.0,89.0,89.0,22.047926,22.047926,24.919281,24.919281,0.019293167,0.019429399,-4.974657E-4,-5.038261E-4,1077.2205,0.0,0.0,0.0,0.0,0.0,0.0,0.0,0.0,0.0,0.0,0.0,0.0,0.0,-78.102325,-0.0758321,22.798407,0.004672707,-0.011698347,0.0032567685,541905.25,119984.91,0.016069649,0.016822783,6907.3374,6829.1094,5517.4863,5426.822,0.31249237,0.0,0.0,0.0
55.590034,55.590034,0.683,0.0,0.0,293.56894,10579.0,100.0,0.0,0.04158939,0.0,8.0,1.0,0.0,4000000.0,110.0,1.0,0.0,0.0,10.0,0.0,0.0,395.34387,-42.208687,196.54666,-0.0647622,0.37553814,-0.012299487,299.23935,299.24005,293.44217,293.40134,344.0,343.0,372.0,365.0,89.0,89.0,89.0,89.0,0.0,0.0,0.0,0.0,0.045999184,0.04555683,0.051604755,0.051429365,1.8630176,-0.89697534,2.223104,0.8840113,220.22273,137.23521,131.33435,2.8699634,0.0,0.0,0.0,2.0,1.0,-1.2876,0.021283355,0.0016283989,89.0,89.0,89.0,89.0,22.047926,22.047926,24.919281,24.919281,0.019288776,0.019418787,-4.937188E-4,-5.0258165E-4,1080.4965,0.0,0.0,0.0,0.0,0.0,0.0,0.0,0.0,0.0,0.0,0.0,0.0,0.0,-78.28912,-0.0874538,22.819004,0.0023228924,-0.0064915325,2.7877936E-4,542320.1,119984.9,0.017108284,0.017928882,6913.2803,6818.672,5558.035,5471.5757,0.31364727,0.0,0.0,0.0
59.671974,59.671974,0.749,0.0,0.0,294.23303,10601.0,100.0,0.0,0.015118066,0.0,8.0,1.0,0.0,4000000.0,110.0,1.0,0.0,0.0,10.0,0.0,0.0,391.42456,-42.21456,197.68828,-0.052538212,0.37781,0.03275799,299.86725,299.87595,294.09207,294.07327,343.0,342.0,371.0,363.0,89.0,89.0,89.0,89.0,0.0,0.0,0.0,0.0,0.045565445,0.045262326,0.051815145,0.051628172,0.0,0.0,0.0,0.0,1733.5382,1583.8441,260.6302,279.47272,0.0,0.0,0.0,2.0,1.0,-1.2878276,0.021171432,0.0015211105,89.0,89.0,89.0,89.0,22.047926,22.047926,24.919281,24.919281,0.019208739,0.019293647,-4.9841066E-4,-5.032834E-4,1083.5228,0.0,0.0,0.0,0.0,0.0,0.0,0.0,0.0,0.0,0.0,0.0,0.0,0.0,-78.47384,-0.12133644,22.844336,-0.0056936955,-0.0033334773,-0.017392356,542710.5,119984.89,0.014899893,0.016932644,6977.029,6914.5576,5848.0815,5761.5684,0.31196785,0.0,0.0,0.0
63.763233,63.763233,0.799,0.0,0.0,294.8949,10618.0,100.0,0.0,0.053009786,0.0,8.0,1.0,0.0,4000000.0,110.0,1.0,0.0,0.0,10.0,0.0,0.0,387.49594,-42.218914,198.83122,-0.04424803,0.3714415,0.15332748,300.35062,300.34753,294.75153,294.73456,341.0,340.0,369.0,362.0,89.0,89.0,89.0,89.0,0.0,0.0,0.0,0.0,0.048112407,0.04798501,0.052183155,0.052052017,0.0,0.0,0.0,0.0,-814.89526,-832.9195,-323.5012,-344.10052,0.0,0.0,0.0,2.0,1.0,-1.2879864,0.0213089,3.2877922E-4,89.0,89.0,89.0,89.0,22.047926,22.047926,24.919281,24.919281,0.01852027,0.018564815,-5.014971E-4,-4.997769E-4,1085.853,0.0,0.0,0.0,0.0,0.0,0.0,0.0,0.0,0.0,0.0,0.0,0.0,0.0,-78.65734,-0.051988468,22.872,-0.010258657,-0.0034936366,-0.02416742,543006.9,119984.9,0.012965257,0.013487349,7333.163,7310.329,5959.804,5902.619,0.3094635,0.0,0.0,0.0
67.86352,67.86352,0.849,0.0,0.0,295.552,10640.0,100.0,0.0,0.07570042,0.0,8.0,1.0,0.0,4000000.0,110.0,1.0,0.0,0.0,10.0,0.0,0.0,383.55832,-42.21969,199.9756,-0.04107642,0.36908028,0.14031625,300.97543,300.96414,295.41693,295.3896,340.0,339.0,368.0,361.0,89.0,89.0,89.0,89.0,0.0,0.0,0.0,0.0,0.048632704,0.04859865,0.0520767,0.051988147,0.0,0.0,0.0,0.0,-1062.5703,-1101.2076,120.87373,33.782417,0.0,0.0,0.0,2.0,1.0,-1.288193,0.021427007,-3.9231777E-4,89.0,89.0,89.0,89.0,22.047926,22.047926,24.919281,24.919281,0.018312788,0.018363563,-5.0068286E-4,-4.980652E-4,1088.8707,0.0,0.0,0.0,0.0,0.0,0.0,0.0,0.0,0.0,0.0,0.0,0.0,0.0,-78.83885,0.017243596,22.901522,-0.002055266,-0.0047938065,-0.0014766026,543390.06,119984.91,0.012342296,0.011971441,7430.12,7406.2686,5843.6523,5801.476,0.3084488,0.0,0.0,0.0
71.97284,71.97284,0.899,0.0,0.0,296.19376,10667.0,100.0,0.0,0.025195401,0.0,8.0,1.0,0.0,4000000.0,110.0,1.0,0.0,0.0,10.0,0.0,0.0,379.61172,-42.21762,201.12152,-0.03318221,0.36105344,0.057396147,301.72678,301.71545,296.0556,296.03604,338.0,337.0,366.0,359.0,89.0,89.0,89.0,89.0,0.0,0.0,0.0,0.0,0.048130017,0.048114788,0.052041177,0.051958784,0.0,0.0,0.0,0.0,-381.9063,-292.46805,-507.07156,-503.78586,0.0,0.0,0.0,2.0,1.0,-1.2883972,0.021553827,-4.1794777E-4,89.0,89.0,89.0,89.0,22.047926,22.047926,24.919281,24.919281,0.018651562,0.018676471,-4.93835E-4,-4.961487E-4,1092.5619,0.0,0.0,0.0,0.0,0.0,0.0,0.0,0.0,0.0,0.0,0.0,0.0,0.0,-79.015076,0.05879529,22.933844,-0.0041437517,-0.003245291,5.1343604E-4,543852.06,119984.9,0.012908593,0.012917454,7200.039,7188.3276,5782.642,5744.866,0.30907726,0.0,0.0,0.0
76.09105,76.09105,0.949,0.0,0.0,296.8299,10693.0,100.0,0.0,0.04649264,0.0,8.0,1.0,0.0,4000000.0,110.0,1.0,0.0,0.0,10.0,0.0,0.0,375.65637,-42.214916,202.26912,-0.032476448,0.36123028,-0.03046846,302.4622,302.45676,296.6907,296.67386,337.0,336.0,365.0,358.0,89.0,89.0,89.0,89.0,0.0,0.0,0.0,0.0,0.047410868,0.04742143,0.051778708,0.05171797,0.0,0.0,0.0,0.0,238.0058,92.2277,383.0328,267.7649,0.0,0.0,0.0,2.0,1.0,-1.2885394,0.02167971,-3.1924248E-4,89.0,89.0,89.0,89.0,22.047926,22.047926,24.919281,24.919281,0.018985206,0.019020597,-4.953683E-4,-4.9352314E-4,1096.14,0.0,0.0,0.0,0.0,0.0,0.0,0.0,0.0,0.0,0.0,0.0,0.0,0.0,-79.18911,0.046453416,22.96821,-0.0012334711,-0.0028912616,0.002975415,544306.44,119984.9,0.013938298,0.0141209485,7008.424,6991.9805,5652.8447,5620.1777,0.30994034,0.0,0.0,0.0
80.21806,80.21806,0.983,0.0,0.0,297.46213,10715.0,100.0,0.0,0.024291728,0.0,8.0,1.0,0.0,4000000.0,110.0,1.0,0.0,0.0,10.0,0.0,0.0,371.69235,-42.213062,203.41847,-0.027336486,0.3558123,-0.037285537,303.1079,303.09857,297.32306,297.30725,335.0,334.0,364.0,357.0,89.0,89.0,89.0,89.0,0.0,0.0,0.0,0.0,0.047028452,0.047054015,0.05170715,0.051667344,-7.2055306,-7.513761,-0.5746632,0.29459593,0.9387588,-98.691864,50.65351,45.181805,0.0,0.0,0.0,2.0,1.0,-1.2886773,0.021805288,-1.0752678E-4,89.0,89.0,89.0,89.0,22.047926,22.047926,24.919281,24.919281,0.018988358,0.019005863,-4.9142767E-4,-4.927574E-4,1099.196,0.0,0.0,0.0,0.0,0.0,0.0,0.0,0.0,0.0,0.0,0.0,0.0,0.0,-79.361595,0.028450893,23.004004,-7.741733E-4,-0.0025372382,0.0050273924,544703.25,119984.91,0.014669001,0.014952615,6985.4287,6979.261,5615.351,5599.754,0.3108015,0.0,0.0,0.0
84.353806,84.353806,1.033,0.0,0.0,298.08536,10737.0,100.0,0.0,-0.036954276,0.0,8.0,1.0,0.0,4000000.0,110.0,1.0,0.0,0.0,10.0,0.0,0.0,367.7198,-42.212048,204.56967,-0.016459301,0.35053238,-0.017731588,303.72287,303.71286,297.93997,297.9366,334.0,333.0,362.0,355.0,89.0,89.0,89.0,89.0,0.0,0.0,0.0,0.0,0.046879184,0.046939183,0.05175145,0.051741675,-1.798421,-0.4559755,2.1594017,2.714172,25.373688,39.817383,83.52399,79.1788,0.0,0.0,0.0,2.0,1.0,-1.2887555,0.021934602,7.891655E-5,89.0,89.0,89.0,89.0,22.047926,22.047926,24.919281,24.919281,0.018945627,0.018921614,-4.8706587E-4,-4.935645E-4,1102.2196,0.0,0.0,0.0,0.0,0.0,0.0,0.0,0.0,0.0,0.0,0.0,0.0,0.0,-79.53063,0.015085064,23.042665,-0.002593063,-2.9584064E-4,0.0022970024,545082.44,119984.9,0.015090357,0.015585725,7002.2803,7015.9004,5673.6787,5669.99,0.31149673,0.0,0.0,0.0
88.49814,88.49814,1.099,0.0,0.0,298.70535,10757.0,100.0,0.0,-0.048520144,0.0,8.0,1.0,0.0,4000000.0,110.0,1.0,0.0,0.0,10.0,0.0,0.0,363.73886,-42.212143,205.72292,-0.006924242,0.35261872,0.012436943,304.28482,304.2793,298.55188,298.55994,332.0,331.0,361.0,354.0,89.0,89.0,89.0,89.0,0.0,0.0,0.0,0.0,0.046806462,0.046952765,0.05186265,0.051887635,0.0,0.0,0.0,0.0,1128.8612,1099.5983,69.1876,151.24971,0.0,0.0,0.0,2.0,1.0,-1.2887232,0.022069495,-3.7550926E-5,89.0,89.0,89.0,89.0,22.047926,22.047926,24.919281,24.919281,0.018770937,0.01872668,-4.912507E-4,-4.95504E-4,1104.9791,0.0,0.0,0.0,0.0,0.0,0.0,0.0,0.0,0.0,0.0,0.0,0.0,0.0,-79.69745,-0.0048645735,23.085787,-0.006035108,0.0013034793,-0.008587819,545431.1,119984.89,0.013895496,0.014702243,7106.6484,7131.8145,5805.556,5821.741,0.3103714,0.0,0.0,0.0
92.651115,92.651115,1.149,0.0,0.0,299.32147,10775.0,100.0,0.0,-0.08481522,0.0,8.0,1.0,0.0,4000000.0,110.0,1.0,0.0,0.0,10.0,0.0,0.0,359.74963,-42.211376,206.87854,0.009766348,0.34674883,0.08866161,304.7913,304.77606,299.1581,299.18408,331.0,330.0,360.0,353.0,89.0,89.0,89.0,89.0,0.0,0.0,0.0,0.0,0.04840457,0.048585255,0.052064493,0.052175887,0.0,0.0,0.0,0.0,-743.6961,-862.45074,-268.4086,-266.2226,0.0,0.0,0.0,2.0,1.0,-1.2885767,0.02230978,-8.1038475E-4,89.0,89.0,89.0,89.0,22.047926,22.047926,24.919281,24.919281,0.018367086,0.018239172,-4.9073604E-4,-4.940859E-4,1107.4585,0.0,0.0,0.0,0.0,0.0,0.0,0.0,0.0,0.0,0.0,0.0,0.0,0.0,-79.861336,0.036152214,23.13509,-0.007201366,0.0041602864,-0.01343794,545741.75,119984.9,0.012733213,0.012573168,7310.3125,7389.3984,5867.831,5923.0913,0.30879402,0.0,0.0,0.0
96.81258,96.81258,1.199,0.0,0.0,299.92987,10797.0,100.0,0.0,-0.06036529,0.0,8.0,1.0,0.0,4000000.0,110.0,1.0,0.0,0.0,10.0,0.0,0.0,355.7523,-42.208214,208.03667,0.01675468,0.3397733,0.07194992,305.41138,305.39032,299.7708,299.79367,329.0,328.0,359.0,352.0,89.0,89.0,89.0,89.0,0.0,0.0,0.0,0.0,0.04837856,0.04851955,0.05208633,0.05214566,0.0,0.0,0.0,0.0,-565.423,-414.6024,-146.8107,-81.13681,0.0,0.0,0.0,2.0,1.0,-1.2883806,0.022424398,-0.001059413,89.0,89.0,89.0,89.0,22.047926,22.047926,24.919281,24.919281,0.018311083,0.018180542,-4.887628E-4,-4.8821451E-4,1110.4929,0.0,0.0,0.0,0.0,0.0,0.0,0.0,0.0,0.0,0.0,0.0,0.0,0.0,-80.02207,0.08316671,23.187494,-0.004191192,0.0037836873,0.0017598794,546122.06,119984.89,0.012405308,0.0122502195,7309.0654,7398.788,5863.9077,5888.5576,0.30847263,0.0,0.0,0.0
100.98237,100.98237,1.233,0.0,0.0,300.52707,10820.0,100.0,0.0,-0.042634904,0.0,8.0,1.0,0.0,4000000.0,110.0,1.0,0.0,0.0,10.0,0.0,0.0,351.74704,-42.20355,209.19748,0.019876823,0.33619833,0.014413093,306.09634,306.04868,300.37177,300.38696,328.0,327.0,357.0,350.0,89.0,89.0,89.0,89.0,0.0,0.0,0.0,0.0,0.047996663,0.048229136,0.052062187,0.052083448,-9.023174,-5.5298204,-2.2438912,-1.9399076,-323.6085,-149.72089,-353.90402,-161.81764,0.0,0.0,0.0,2.0,1.0,-1.2882264,0.022776946,-0.0010266304,89.0,89.0,89.0,89.0,22.047926,22.047926,24.919281,24.919281,0.018566346,0.018374624,-4.8753663E-4,-4.8579127E-4,1113.701,0.0,0.0,0.0,0.0,0.0,0.0,0.0,0.0,0.0,0.0,0.0,0.0,0.0,-80.17895,0.099652775,23.242077,-0.009326883,0.0023744165,0.0014029079,546535.5,119984.89,0.01276997,0.012923303,7136.2026,7270.6055,5826.245,5841.119,0.30897045,0.0,0.0,0.0
105.16045,105.16045,1.299,0.0,0.0,301.12033,10843.0,100.0,0.0,-0.041916814,0.0,8.0,1.0,0.0,4000000.0,110.0,1.0,0.0,0.0,10.0,0.0,0.0,347.73398,-42.19891,210.36104,0.01872766,0.33499193,-0.069023386,306.74582,306.70322,300.96725,300.97903,327.0,326.0,356.0,349.0,89.0,89.0,89.0,89.0,0.0,0.0,0.0,0.0,0.047654476,0.04793741,0.051812608,0.051880985,0.0,0.0,0.0,0.0,-419.75226,-105.75948,-69.93859,-146.31448,0.0,0.0,0.0,2.0,1.0,-1.288119,0.02314208,-0.0010020733,89.0,89.0,89.0,89.0,22.047926,22.047926,24.919281,24.919281,0.018723397,0.01856053,-4.8646677E-4,-4.856808E-4,1116.8882,0.0,0.0,0.0,0.0,0.0,0.0,0.0,0.0,0.0,0.0,0.0,0.0,0.0,-80.33451,0.08114893,23.297398,-0.0072983047,0.0019637456,0.0070091486,546936.94,119984.9,0.013044071,0.013206723,7027.674,7136.6045,5623.8823,5650.9023,0.3092003,0.0,0.0,0.0
109.34678,109.34678,1.349,0.0,0.0,301.71393,10863.0,100.0,0.0,-0.06793505,0.0,8.0,1.0,0.0,4000000.0,110.0,1.0,0.0,0.0,10.0,0.0,0.0,343.71313,-42.19543,211.52739,0.021398976,0.3355496,-0.026894039,307.29935,307.26657,301.5572,301.57465,325.0,324.0,355.0,348.0,89.0,89.0,89.0,89.0,0.0,0.0,0.0,0.0,0.047574382,0.047985025,0.051896423,0.051994916,0.0,0.0,0.0,0.0,314.23413,302.98227,116.22009,-114.409615,0.0,0.0,0.0,2.0,1.0,-1.2879925,0.023499265,-8.1145763E-4,89.0,89.0,89.0,89.0,22.047926,22.047926,24.919281,24.919281,0.018577041,0.01843344,-4.8668496E-4,-4.877593E-4,1119.6539,0.0,0.0,0.0,0.0,0.0,0.0,0.0,0.0,0.0,0.0,0.0,0.0,0.0,-80.489914,0.062201127,23.353586,-0.0085421335,0.0029229256,0.0040702596,547281.8,119984.9,0.012238728,0.012714811,7124.6074,7212.668,5789.3237,5823.994,0.30848885,0.0,0.0,0.0
113.54131,113.54131,1.399,0.0,0.0,302.3041,10883.0,100.0,0.0,-0.07477206,0.0,8.0,1.0,0.0,4000000.0,110.0,1.0,0.0,0.0,10.0,0.0,0.0,339.68457,-42.19249,212.69656,0.022961773,0.3335827,-0.009090006,307.85345,307.81335,302.1463,302.1647,324.0,323.0,353.0,346.0,89.0,89.0,89.0,89.0,0.0,0.0,0.0,0.0,0.047998574,0.048233297,0.052007563,0.052079387,0.0,0.0,0.0,0.0,177.522,-220.74577,174.12898,-247.8629,0.0,0.0,0.0,2.0,1.0,-1.2878429,0.023780053,-8.097887E-4,89.0,89.0,89.0,89.0,22.047926,22.047926,24.919281,24.919281,0.018416049,0.018250851,-4.8707647E-4,-4.8801856E-4,1122.412,0.0,0.0,0.0,0.0,0.0,0.0,0.0,0.0,0.0,0.0,0.0,0.0,0.0,-80.6443,0.056609005,23.409817,-0.0054304022,0.0030083728,0.0011187705,547621.75,119984.9,0.011300455,0.011666511,7198.1143,7307.296,5849.2725,5859.1494,0.3075552,0.0,0.0,0.0
117.744,117.744,1.449,0.0,0.0,302.88632,10901.0,100.0,0.0,-0.07019243,0.0,8.0,1.0,0.0,4000000.0,110.0,1.0,0.0,0.0,10.0,0.0,0.0,335.64832,-42.18851,213.86853,0.023805976,0.3249473,0.0078759175,308.38028,308.35004,302.72916,302.75,322.0,321.0,352.0,345.0,89.0,89.0,89.0,89.0,0.0,0.0,0.0,0.0,0.048393555,0.04860208,0.05204858,0.05213823,0.0,0.0,0.0,0.0,-552.2131,-1138.544,-403.94058,-578.9145,0.0,0.0,0.0,2.0,1.0,-1.2876862,0.024265619,-9.4664097E-4,89.0,89.0,89.0,89.0,22.047926,22.047926,24.919281,24.919281,0.01816768,0.018013652,-4.8239515E-4,-4.8353834E-4,1124.9426,0.0,0.0,0.0,0.0,0.0,0.0,0.0,0.0,0.0,0.0,0.0,0.0,0.0,-80.79645,0.08897536,23.465694,-0.006377165,0.0036341308,0.009177046,547950.1,119984.9,0.012122509,0.011700126,7317.414,7426.8706,5740.023,5780.6787,0.30775833,0.0,0.0,0.0
121.954636,121.954636,1.499,0.0,0.0,303.4531,10928.0,100.0,0.0,-0.05592493,0.0,8.0,1.0,0.0,4000000.0,110.0,1.0,0.0,0.0,10.0,0.0,0.0,331.6046,-42.18502,215.04333,0.0238311,0.32234576,-0.11263679,309.1218,309.10776,303.29514,303.31848,321.0,320.0,351.0,344.0,89.0,89.0,89.0,89.0,0.0,0.0,0.0,0.0,0.047323674,0.047661867,0.051794052,0.05193599,0.0,0.0,0.0,0.0,573.8586,472.67227,10.608143,-54.85117,0.0,0.0,0.0,2.0,1.0,-1.2874807,0.024608374,-3.2889843E-4,89.0,89.0,89.0,89.0,22.047926,22.047926,24.919281,24.919281,0.018748652,0.018634653,-4.8107895E-4,-4.8008468E-4,1128.6761,0.0,0.0,0.0,0.0,0.0,0.0,0.0,0.0,0.0,0.0,0.0,0.0,0.0,-80.9438,0.046088338,23.522943,-0.0028771313,0.004026451,0.009988739,548410.4,119984.89,0.013292723,0.013390782,6962.4834,7043.91,5666.372,5732.062,0.30914402,0.0,0.0,0.0
126.17313,126.17313,1.549,0.0,0.0,304.02106,10947.0,100.0,0.0,-0.057717104,0.0,8.0,1.0,0.0,4000000.0,110.0,1.0,0.0,0.0,10.0,0.0,0.0,327.55356,-42.184013,216.22101,0.026195183,0.31730902,-0.075991414,309.67435,309.65277,303.86533,303.88495,320.0,318.0,349.0,343.0,89.0,89.0,89.0,89.0,0.0,0.0,0.0,0.0,0.047078513,0.047548626,0.05173986,0.051954888,0.0,0.0,0.0,0.0,-72.51353,-347.62766,185.71613,177.37445,0.0,0.0,0.0,2.0,1.0,-1.2872968,0.024912866,1.655817E-4,89.0,89.0,89.0,89.0,22.047926,22.047926,24.919281,24.919281,0.018653952,0.018528728,-4.78419E-4,-4.7906092E-4,1131.3368,0.0,0.0,0.0,0.0,0.0,0.0,0.0,0.0,0.0,0.0,0.0,0.0,0.0,-81.09141,0.0013258522,23.580414,-0.0012343302,0.0034278014,0.008869145,548749.06,119984.89,0.01427716,0.014340167,7007.9844,7086.71,5694.367,5796.8545,0.31032658,0.0,0.0,0.0
130.39949,130.39949,1.599,0.0,0.0,304.58032,10968.0,100.0,0.0,-0.023282727,0.0,8.0,1.0,0.0,4000000.0,110.0,1.0,0.0,0.0,10.0,0.0,0.0,323.49515,-42.18548,217.40149,0.020613737,0.31898066,-0.11690471,310.26196,310.23776,304.42908,304.43936,318.0,317.0,348.0,341.0,89.0,89.0,89.0,89.0,0.0,0.0,0.0,0.0,0.04668395,0.047117762,0.051653184,0.05184684,0.0,0.0,0.0,0.0,768.5869,733.356,1064.9844,1164.6954,0.0,0.0,0.0,2.0,1.0,-1.2871709,0.025074948,6.5636635E-4,89.0,89.0,89.0,89.0,22.047926,22.047926,24.919281,24.919281,0.01872048,0.018620444,-4.809578E-4,-4.7934992E-4,1134.2535,0.0,0.0,0.0,0.0,0.0,0.0,0.0,0.0,0.0,0.0,0.0,0.0,0.0,-81.23711,-0.0602671,23.635653,0.0011599943,0.0017943141,0.010279305,549110.44,119984.89,0.014145561,0.014724277,6968.5796,7043.754,5661.3154,5752.882,0.31050873,0.0,0.0,0.0
134.63364,134.63364,1.649,0.0,0.0,305.13974,10979.0,100.0,0.0,0.001851749,0.0,8.0,1.0,0.0,4000000.0,110.0,1.0,0.0,0.0,10.0,0.0,0.0,319.42938,-42.1885,218.58467,0.0146052465,0.3164414,0.14871092,310.56024,310.53488,304.9868,304.99106,317.0,316.0,347.0,340.0,89.0,89.0,89.0,89.0,0.0,0.0,0.0,0.0,0.048396733,0.048834927,0.05239304,0.052537967,0.0,0.0,0.0,0.0,2321.009,2419.138,182.06839,309.7817,0.0,0.0,0.0,2.0,1.0,-1.2871249,0.025275419,2.0551682E-4,89.0,89.0,89.0,89.0,22.047926,22.047926,24.919281,24.919281,0.017841073,0.017749608,-4.8335185E-4,-4.7910615E-4,1135.7773,0.0,0.0,0.0,0.0,0.0,0.0,0.0,0.0,0.0,0.0,0.0,0.0,0.0,-81.38392,-0.039863344,23.68733,-0.010621672,-2.3045269E-4,-0.02338637,549297.25,119984.9,0.012904155,0.0127960965,7558.261,7639.585,6278.758,6347.9775,0.3089676,0.0,0.0,0.0
138.87515,138.87515,1.699,0.0,0.0,305.684,10996.0,100.0,0.0,-0.009414676,0.0,8.0,1.0,0.0,4000000.0,110.0,1.0,0.0,0.0,10.0,0.0,0.0,315.35638,-42.18826,219.77025,0.0068476424,0.30208987,0.13563316,311.0628,311.0287,305.5398,305.53265,315.0,314.0,346.0,339.0,89.0,89.0,89.0,89.0,0.0,0.0,0.0,0.0,0.049039077,0.049151357,0.05243262,0.05245607,0.0,0.0,0.0,0.0,-1124.7574,-594.3372,-280.85406,-162.13953,0.0,0.0,0.0,2.0,1.0,-1.2871808,0.025318598,-6.3574314E-4,89.0,89.0,89.0,89.0,22.047926,22.047926,24.919281,24.919281,0.017594408,0.01751342,-4.7668017E-4,-4.773981E-4,1138.1732,0.0,0.0,0.0,0.0,0.0,0.0,0.0,0.0,0.0,0.0,0.0,0.0,0.0,-81.528404,0.039989337,23.7319,-0.006076829,-0.0014585576,-0.004625472,549604.94,119984.9,0.013699393,0.012575288,7630.7026,7707.005,6043.4175,6049.5137,0.3093567,0.0,0.0,0.0
143.12402,143.12402,1.749,0.0,0.0,306.20688,11020.0,100.0,0.0,-0.039476946,0.0,8.0,1.0,0.0,4000000.0,110.0,1.0,0.0,0.0,10.0,0.0,0.0,311.27628,-42.185104,220.95798,0.0058145374,0.29309332,0.041139934,311.73013,311.69827,306.05923,306.06165,314.0,313.0,344.0,338.0,89.0,89.0,89.0,89.0,0.0,0.0,0.0,0.0,0.048344336,0.048485816,0.052311435,0.052385043,0.0,0.0,0.0,0.0,-31.556168,-99.69766,-71.69543,-104.55249,0.0,0.0,0.0,2.0,1.0,-1.2872039,0.0255683,-7.4517727E-4,89.0,89.0,89.0,89.0,22.047926,22.047926,24.919281,24.919281,0.018047674,0.017941065,-4.701128E-4,-4.7305826E-4,1140.8108,0.0,0.0,0.0,0.0,0.0,0.0,0.0,0.0,0.0,0.0,0.0,0.0,0.0,-81.6672,0.077202685,23.774687,-0.0054483186,3.0230853E-4,-0.0042390795,549678.9,119984.89,0.014894859,0.0146307545,7307.7324,7387.3687,5996.954,6033.165,0.31091785,0.0,0.0,0.0
147.38011,147.38011,1.783,0.0,0.0,306.7363,11039.0,100.0,0.0,-1.00056845E-4,0.0,8.0,1.0,0.0,4000000.0,110.0,1.0,0.0,0.0,10.0,0.0,0.0,307.18927,-42.18282,222.14786,3.6154687E-4,0.30347878,0.040968124,312.25043,312.2318,306.58527,306.58682,313.0,312.0,343.0,336.0,89.0,89.0,89.0,89.0,0.0,0.0,0.0,0.0,0.04801106,0.048213724,0.052312225,0.052348815,27.507393,27.31472,16.280336,13.367458,1796.6506,1724.6735,434.77258,452.20697,0.0,0.0,0.0,2.0,1.0,-1.2871863,0.025550326,-0.0011012554,89.0,89.0,89.0,89.0,22.047926,22.047926,24.919281,24.919281,0.018063512,0.018011572,-4.789858E-4,-4.7642854E-4,1142.8191,0.0,0.0,0.0,0.0,0.0,0.0,0.0,0.0,0.0,0.0,0.0,0.0,0.0,-81.80783,0.042923614,23.817804,-0.00834462,-5.2409805E-4,-0.021139082,549698.75,119984.89,0.012975504,0.013413928,7327.986,7368.4746,6184.8022,6195.251,0.3094082,0.0,0.0,0.0
151.6437,151.6437,1.849,0.0,0.0,307.2713,11046.0,100.0,0.0,-0.04117882,0.0,8.0,1.0,0.0,4000000.0,110.0,1.0,0.0,0.0,10.0,0.0,0.0,303.09506,-42.177906,223.33981,0.006020196,0.2978657,0.35467246,312.46442,312.43295,307.1188,307.1234,311.0,310.0,342.0,335.0,89.0,89.0,89.0,89.0,0.0,0.0,0.0,0.0,0.05013527,0.05030638,0.052957643,0.05293679,0.0,0.0,0.0,0.0,-4426.824,-3969.709,-737.51355,-794.5105,0.0,0.0,0.0,2.0,1.0,-1.2872092,0.02578123,-0.0024797916,89.0,89.0,89.0,89.0,22.047926,22.047926,24.919281,24.919281,0.016946917,0.01684254,-4.7844305E-4,-4.8028713E-4,1143.5607,0.0,0.0,0.0,0.0,0.0,0.0,0.0,0.0,0.0,0.0,0.0,0.0,0.0,-81.95067,0.17281419,23.85827,-0.014070079,2.6866412E-4,-0.016799416,549706.9,119984.9,0.011423753,0.010424547,8085.3916,8188.088,6510.6226,6495.0967,0.30744934,0.0,0.0,0.0
155.9144,155.9144,1.899,0.0,0.0,307.77322,11070.0,100.0,0.0,-0.039305944,0.0,8.0,1.0,0.0,4000000.0,110.0,1.0,0.0,0.0,10.0,0.0,0.0,298.99405,-42.1663,224.53375,0.0066234916,0.28088906,0.14130233,313.15598,313.1118,307.62344,307.6298,310.0,309.0,341.0,334.0,89.0,89.0,89.0,89.0,0.0,0.0,0.0,0.0,0.049051173,0.049211595,0.0528399,0.05276205,0.0,0.0,0.0,0.0,-502.53857,-139.55531,275.7981,48.547966,0.0,0.0,0.0,2.0,1.0,-1.2871708,0.026145063,-0.0029053688,89.0,89.0,89.0,89.0,22.047926,22.047926,24.919281,24.919281,0.017471857,0.017331064,-4.693465E-4,-4.691552E-4,1146.0988,0.0,0.0,0.0,0.0,0.0,0.0,0.0,0.0,0.0,0.0,0.0,0.0,0.0,-82.08422,0.27140868,23.897398,-0.013711715,8.033174E-4,-0.0030193194,549732.5,119984.89,0.011748969,0.011924098,7626.927,7743.95,6340.297,6284.26,0.30843163,0.0,0.0,0.0
160.19206,160.19206,1.949,0.0,0.0,308.27676,11090.0,100.0,0.0,-0.061123714,0.0,8.0,1.0,0.0,4000000.0,110.0,1.0,0.0,0.0,10.0,0.0,0.0,294.88635,-42.152138,225.72972,0.01112856,0.2888034,0.046301976,313.7173,313.66876,308.12228,308.133,308.0,307.0,339.0,333.0,89.0,89.0,89.0,89.0,0.0,0.0,0.0,0.0,0.048671737,0.04882034,0.052594505,0.0525169,0.0,0.0,0.0,0.0,1038.6853,1519.2163,291.07327,395.58554,0.0,0.0,0.0,2.0,1.0,-1.2871253,0.026852597,-0.0036262274,89.0,89.0,89.0,89.0,22.047926,22.047926,24.919281,24.919281,0.017702524,0.017534615,-4.719343E-4,-4.7366135E-4,1148.2133,0.0,0.0,0.0,0.0,0.0,0.0,0.0,0.0,0.0,0.0,0.0,0.0,0.0,-82.2174,0.29234776,23.94007,-0.02558254,0.0013629681,-0.011254355,549753.5,119984.91,0.011794178,0.011804454,7486.177,7612.289,6164.1245,6127.128,0.30827236,0.0,0.0,0.0
164.47679,164.47679,1.983,0.0,0.0,308.78616,11102.0,100.0,0.0,-0.035458732,0.0,8.0,1.0,0.0,4000000.0,110.0,1.0,0.0,0.0,10.0,0.0,0.0,290.7719,-42.136234,226.92784,0.0080342665,0.28688934,0.28600484,314.04578,314.01074,308.63324,308.64124,307.0,306.0,338.0,331.0,89.0,89.0,89.0,89.0,0.0,0.0,0.0,0.0,0.04977608,0.049869433,0.05285902,0.052887447,52.516754,36.928204,23.908316,19.309444,2365.802,1721.1868,1690.4755,1084.5109,0.0,0.0,0.0,2.0,1.0,-1.2870771,0.027350076,-0.0044180155,89.0,89.0,89.0,89.0,22.047926,22.047926,24.919281,24.919281,0.017077673,0.01695365,-4.7247525E-4,-4.714044E-4,1149.4824,0.0,0.0,0.0,0.0,0.0,0.0,0.0,0.0,0.0,0.0,0.0,0.0,0.0,-82.35241,0.3639628,23.981575,-0.008368393,6.6206296E-4,-0.017963547,549766.3,119984.9,0.011833459,0.01072212,7985.585,8109.1694,6651.226,6639.6104,0.30765247,0.0,0.0,0.0
168.7684,168.7684,2.049,0.0,0.0,309.26688,11125.0,100.0,0.0,-0.031782456,0.0,8.0,1.0,0.0,4000000.0,110.0,1.0,0.0,0.0,10.0,0.0,0.0,286.6509,-42.11545,228.12799,0.009231798,0.265967,0.06858654,314.6908,314.67007,309.11716,309.1292,306.0,305.0,337.0,330.0,89.0,89.0,89.0,89.0,0.0,0.0,0.0,0.0,0.048828635,0.048987914,0.05245635,0.05255385,0.0,0.0,0.0,0.0,-79.25937,-600.13086,79.66163,131.66962,0.0,0.0,0.0,2.0,1.0,-1.2870003,0.027689964,-0.004741311,89.0,89.0,89.0,89.0,22.047926,22.047926,24.919281,24.919281,0.017526785,0.017429164,-4.6143073E-4,-4.6100782E-4,1151.9149,0.0,0.0,0.0,0.0,0.0,0.0,0.0,0.0,0.0,0.0,0.0,0.0,0.0,-82.47936,0.44095796,24.021921,-0.0034331977,0.00203511,0.0044549177,549790.7,119984.91,0.015086005,0.013825014,7529.5327,7610.159,5990.6123,6049.441,0.31098366,0.0,0.0,0.0
173.06653,173.06653,2.099,0.0,0.0,309.73218,11146.0,100.0,0.0,-0.035294402,0.0,8.0,1.0,0.0,4000000.0,110.0,1.0,0.0,0.0,10.0,0.0,0.0,282.52368,-42.09354,229.33014,0.010153301,0.26500183,-0.012077159,315.29694,315.26898,309.5831,309.5906,304.0,303.0,336.0,329.0,89.0,89.0,89.0,89.0,0.0,0.0,0.0,0.0,0.04807628,0.0482064,0.05223279,0.052365787,0.0,0.0,0.0,0.0,1014.73334,1128.7003,442.93994,453.3335,0.0,0.0,0.0,2.0,1.0,-1.2869403,0.027767053,-0.0049045086,89.0,89.0,89.0,89.0,22.047926,22.047926,24.919281,24.919281,0.018025536,0.017918194,-4.601085E-4,-4.608639E-4,1154.1367,0.0,0.0,0.0,0.0,0.0,0.0,0.0,0.0,0.0,0.0,0.0,0.0,0.0,-82.60222,0.4344496,24.062454,-0.0039842,8.384432E-4,-0.01228107,549813.3,119984.91,0.017192097,0.016882846,7227.9155,7307.502,5972.7607,6033.1953,0.31378078,0.0,0.0,0.0
177.37122,177.37122,2.149,0.0,0.0,310.21765,11157.0,100.0,0.0,0.0022323648,0.0,8.0,1.0,0.0,4000000.0,110.0,1.0,0.0,0.0,10.0,0.0,0.0,278.39026,-42.074566,230.53441,0.0056028813,0.28406194,0.10453003,315.6029,315.58948,310.06415,310.06714,303.0,302.0,334.0,328.0,89.0,89.0,89.0,89.0,0.0,0.0,0.0,0.0,0.048237737,0.048343435,0.052429307,0.052520942,0.0,0.0,0.0,0.0,4467.7812,4524.658,955.53687,926.13983,0.0,0.0,0.0,2.0,1.0,-1.2869184,0.02747265,-0.0057611465,89.0,89.0,89.0,89.0,22.047926,22.047926,24.919281,24.919281,0.01750874,0.017472051,-4.758653E-4,-4.7210808E-4,1155.301,0.0,0.0,0.0,0.0,0.0,0.0,0.0,0.0,0.0,0.0,0.0,0.0,0.0,-82.73053,0.378823,24.105097,-0.008088689,-8.020027E-4,-0.035764918,549825.3,119984.91,0.01290179,0.012987286,7633.033,7667.1143,6404.786,6434.855,0.30957222,0.0,0.0,0.0
181.68286,181.68286,2.199,0.0,0.0,310.70218,11155.0,100.0,0.0,-0.036759246,0.0,8.0,1.0,0.0,4000000.0,110.0,1.0,0.0,0.0,10.0,0.0,0.0,274.2503,-42.049038,231.74065,0.010545459,0.27304384,0.77863085,315.5244,315.50766,310.54648,310.5547,302.0,301.0,333.0,327.0,89.0,89.0,89.0,89.0,0.0,0.0,0.0,0.0,0.052385993,0.052536868,0.053797297,0.053911485,0.0,0.0,0.0,0.0,-9109.988,-9218.952,-3118.51,-3037.4268,0.0,0.0,0.0,2.0,1.0,-1.2869492,0.027619584,-0.008480668,89.0,89.0,89.0,89.0,22.047926,22.047926,24.919281,24.919281,0.01559059,0.015522321,-4.774533E-4,-4.783781E-4,1155.0887,0.0,0.0,0.0,0.0,0.0,0.0,0.0,0.0,0.0,0.0,0.0,0.0,0.0,-82.858734,0.6765613,24.139723,-0.012702005,4.7514503E-4,-0.028835414,549822.9,119984.914,0.011477994,0.007972188,9225.349,9300.456,6957.8193,7017.216,0.30645752,0.0,0.0,0.0
186.00084,186.00084,2.249,0.0,0.0,311.11942,11188.0,100.0,0.0,-0.08159277,0.0,8.0,1.0,0.0,4000000.0,110.0,1.0,0.0,0.0,10.0,0.0,0.0,270.10443,-42.009052,232.9484,0.011824783,0.23377201,0.12491166,316.46756,316.4371,310.97495,310.97824,300.0,299.0,332.0,325.0,89.0,89.0,89.0,89.0,0.0,0.0,0.0,0.0,0.04919251,0.049362157,0.053114276,0.053160775,0.0,0.0,0.0,0.0,692.2512,566.9384,-621.7091,-406.62274,0.0,0.0,0.0,2.0,1.0,-1.2869391,0.027806034,-0.008941054,89.0,89.0,89.0,89.0,22.047926,22.047926,24.919281,24.919281,0.017150475,0.017046662,-4.4574737E-4,-4.546882E-4,1158.579,0.0,0.0,0.0,0.0,0.0,0.0,0.0,0.0,0.0,0.0,0.0,0.0,0.0,-82.968864,0.8557651,24.170393,-0.0055313185,7.3158985E-4,-0.0028099422,549857.56,119984.9,0.01532079,0.014680651,7716.8896,7808.023,6251.3525,6277.9297,0.31132507,0.0,0.0,0.0
190.32455,190.32455,2.283,0.0,0.0,311.55167,11210.0,100.0,0.0,-0.030408613,0.0,8.0,1.0,0.0,4000000.0,110.0,1.0,0.0,0.0,10.0,0.0,0.0,265.9531,-41.966984,234.15796,0.010716759,0.2650923,-0.10164949,317.09628,317.07083,311.3922,311.40768,299.0,298.0,331.0,324.0,89.0,89.0,89.0,89.0,0.0,0.0,0.0,0.0,0.047329172,0.04771146,0.052451853,0.05254476,1.0500847,11.523439,-4.397034,-0.34064052,4752.887,5100.7827,1360.7113,1644.8108,0.0,0.0,0.0,2.0,1.0,-1.2868615,0.028238703,-0.010214567,89.0,89.0,89.0,89.0,22.047926,22.047926,24.919281,24.919281,0.018020902,0.017878968,-4.6666153E-4,-4.6414862E-4,1160.9072,0.0,0.0,0.0,0.0,0.0,0.0,0.0,0.0,0.0,0.0,0.0,0.0,0.0,-83.08244,0.8138082,24.211262,-0.02064697,0.0012047947,-0.04215482,549881.25,119984.9,0.014163317,0.0150972605,7231.8354,7341.7705,6064.351,6124.6523,0.3107643,0.0,0.0,0.0
194.65466,194.65466,2.349,0.0,0.0,312.0213,11204.0,100.0,0.0,-0.15030679,0.0,8.0,1.0,0.0,4000000.0,110.0,1.0,0.0,0.0,10.0,0.0,0.0,261.79572,-41.922886,235.36963,0.032814402,0.26618,0.6764036,316.9248,316.9125,311.84967,311.88144,298.0,297.0,329.0,323.0,89.0,89.0,89.0,89.0,0.0,0.0,0.0,0.0,0.052233364,0.052498724,0.05368738,0.05372068,0.0,0.0,0.0,0.0,-951.0177,1169.0675,296.00864,461.3935,0.0,0.0,0.0,2.0,1.0,-1.2867576,0.028597763,-0.0131706,89.0,89.0,89.0,89.0,22.047926,22.047926,24.919281,24.919281,0.015888238,0.01570668,-4.7046438E-4,-4.7691402E-4,1160.274,0.0,0.0,0.0,0.0,0.0,0.0,0.0,0.0,0.0,0.0,0.0,0.0,0.0,-83.20398,1.0030427,24.253418,-0.029407917,0.0041648536,-0.051676143,549875.6,119984.91,0.009759199,0.007427176,8998.744,9196.731,7272.8213,7292.1655,0.30497074,0.0,0.0,0.0
198.99083,198.99083,2.399,0.0,0.0,312.4415,11229.0,100.0,0.0,-0.059937757,0.0,8.0,1.0,0.0,4000000.0,110.0,1.0,0.0,0.0,10.0,0.0,0.0,257.6326,-41.864483,236.5833,0.029795013,0.22496608,0.29809442,317.64355,317.6053,312.2834,312.315,297.0,296.0,328.0,322.0,89.0,89.0,89.0,89.0,0.0,0.0,0.0,0.0,0.050086074,0.05040676,0.05348099,0.053573158,0.0,0.0,0.0,0.0,-1712.0674,-1226.7351,-788.2877,-678.572,0.0,0.0,0.0,2.0,1.0,-1.2864727,0.02910584,-0.013860822,89.0,89.0,89.0,89.0,22.047926,22.047926,24.919281,24.919281,0.016602745,0.016401362,-4.520364E-4,-4.4780204E-4,1162.9185,0.0,0.0,0.0,0.0,0.0,0.0,0.0,0.0,0.0,0.0,0.0,0.0,0.0,-83.3108,1.2664359,24.291765,-0.0070964526,0.0051968424,0.00408687,549901.9,119984.9,0.011493032,0.0108329905,8098.503,8301.417,6611.6797,6658.76,0.30738735,0.0,0.0,0.0
203.33261,203.33261,2.449,0.0,0.0,312.84702,11256.0,100.0,0.0,-0.0911167,0.0,8.0,1.0,0.0,4000000.0,110.0,1.0,0.0,0.0,10.0,0.0,0.0,253.46431,-41.800377,237.79921,0.040632144,0.23173621,-0.051029857,318.41104,318.35385,312.6827,312.72134,295.0,294.0,327.0,321.0,89.0,89.0,89.0,89.0,0.0,0.0,0.0,0.0,0.04810702,0.048446544,0.05275939,0.052897662,0.0,0.0,0.0,0.0,605.20026,1058.051,-57.46633,81.177,0.0,0.0,0.0,2.0,1.0,-1.2861784,0.029594611,-0.014239907,89.0,89.0,89.0,89.0,22.047926,22.047926,24.919281,24.919281,0.017847447,0.017563896,-4.4925243E-4,-4.4693283E-4,1165.7745,0.0,0.0,0.0,0.0,0.0,0.0,0.0,0.0,0.0,0.0,0.0,0.0,0.0,-83.413246,1.2795551,24.342173,-0.01645198,0.005735583,-0.019586924,549930.1,119984.91,0.013310001,0.0147553235,7200.367,7406.472,6179.796,6251.257,0.31019592,0.0,0.0,0.0
207.68018,207.68018,2.499,0.0,0.0,313.28522,11263.0,100.0,0.0,-0.094307445,0.0,8.0,1.0,0.0,4000000.0,110.0,1.0,0.0,0.0,10.0,0.0,0.0,249.29073,-41.73711,239.01772,0.042127993,0.25193015,0.13459848,318.60297,318.55856,313.12128,313.14838,294.0,293.0,326.0,319.0,89.0,89.0,89.0,89.0,0.0,0.0,0.0,0.0,0.049422625,0.049645998,0.052773736,0.05287106,0.0,0.0,0.0,0.0,122.134315,404.00754,312.62482,348.84805,0.0,0.0,0.0,2.0,1.0,-1.2859652,0.029709945,-0.015847564,89.0,89.0,89.0,89.0,22.047926,22.047926,24.919281,24.919281,0.017109238,0.0169043,-4.6151847E-4,-4.6248556E-4,1166.5159,0.0,0.0,0.0,0.0,0.0,0.0,0.0,0.0,0.0,0.0,0.0,0.0,0.0,-83.524605,1.2828348,24.39496,-0.01616775,0.0034030946,-0.03455495,549937.8,119984.91,0.010996395,0.010787554,7755.7734,7930.9814,6439.426,6474.904,0.30732536,0.0,0.0,0.0
212.03374,212.03374,2.549,0.0,0.0,313.7144,11267.0,100.0,0.0,-0.054832634,0.0,8.0,1.0,0.0,4000000.0,110.0,1.0,0.0,0.0,10.0,0.0,0.0,245.1116,-41.667667,240.23871,0.038975783,0.2353957,0.5986923,318.7105,318.66147,313.55667,313.57773,293.0,292.0,325.0,318.0,89.0,89.0,89.0,89.0,0.0,0.0,0.0,0.0,0.05146669,0.05172153,0.05372388,0.053763136,0.0,0.0,0.0,0.0,-7372.976,-6374.6846,-2911.3364,-2811.1829,0.0,0.0,0.0,2.0,1.0,-1.2857991,0.030226955,-0.01748979,89.0,89.0,89.0,89.0,22.047926,22.047926,24.919281,24.919281,0.015970357,0.015760392,-4.6224793E-4,-4.583509E-4,1166.9393,0.0,0.0,0.0,0.0,0.0,0.0,0.0,0.0,0.0,0.0,0.0,0.0,0.0,-83.63177,1.5209937,24.439648,-0.020726662,0.002865846,-0.015602473,549942.1,119984.9,0.011781421,0.008846991,8699.699,8926.229,6935.409,6949.9956,0.30696774,0.0,0.0,0.0
216.3927,216.3927,2.583,0.0,0.0,314.08597,11297.0,100.0,0.0,-0.15863417,0.0,8.0,1.0,0.0,4000000.0,110.0,1.0,0.0,0.0,10.0,0.0,0.0,240.92752,-41.58814,241.46191,0.04888251,0.20387146,0.021551179,319.6005,319.51617,313.9296,313.9668,291.0,290.0,323.0,317.0,89.0,89.0,89.0,89.0,0.0,0.0,0.0,0.0,0.048550855,0.048943438,0.052772738,0.0527293,-62.573025,-56.46072,-14.422461,-21.301432,-363.50623,372.8002,350.8597,124.26681,0.0,0.0,0.0,2.0,1.0,-1.2855754,0.030932274,-0.017464876,89.0,89.0,89.0,89.0,22.047926,22.047926,24.919281,24.919281,0.01752138,0.017177396,-4.313586E-4,-4.354723E-4,1170.1152,0.0,0.0,0.0,0.0,0.0,0.0,0.0,0.0,0.0,0.0,0.0,0.0,0.0,-83.7239,1.6145194,24.486418,-0.020133074,0.006831497,0.011116704,549974.44,119984.9,0.018140197,0.016890014,7335.866,7598.499,6099.882,6052.455,0.31417274,0.0,0.0,0.0
220.75667,220.75667,2.649,0.0,0.0,314.46823,11322.0,100.0,0.0,-0.41264376,0.0,8.0,1.0,0.0,4000000.0,110.0,1.0,0.0,0.0,10.0,0.0,0.0,236.73903,-41.51126,242.6879,0.0891176,0.24524495,-0.28371704,320.29062,320.21725,314.27493,314.37036,290.0,289.0,322.0,316.0,89.0,89.0,89.0,89.0,0.0,0.0,0.0,0.0,0.04495845,0.045837235,0.05179769,0.05178151,0.0,0.0,0.0,0.0,5456.8594,6522.8364,4953.248,5188.652,0.0,0.0,0.0,2.0,1.0,-1.2850231,0.032383993,-0.017473936,89.0,89.0,89.0,89.0,22.047926,22.047926,24.919281,24.919281,0.018846756,0.018361533,-4.4003912E-4,-4.66381E-4,1172.7603,0.0,0.0,0.0,0.0,0.0,0.0,0.0,0.0,0.0,0.0,0.0,0.0,0.0,-83.8173,1.4524904,24.555511,-0.04936342,0.017449688,-0.0025409032,550000.5,119984.91,0.016854957,0.018896272,6661.924,6970.6357,5891.0957,5884.366,0.3149147,0.0,0.0,0.0
225.12674,225.12674,2.699,0.0,0.0,314.88315,11304.0,100.0,0.0,-0.53006953,0.0,8.0,1.0,0.0,4000000.0,110.0,1.0,0.0,0.0,10.0,0.0,0.0,232.54568,-41.435844,243.91798,0.15122649,0.23490301,0.84294105,319.784,319.69342,314.62894,314.81122,289.0,288.0,321.0,315.0,89.0,89.0,89.0,89.0,0.0,0.0,0.0,0.0,0.05378796,0.05403209,0.05445319,0.05453733,0.0,0.0,0.0,0.0,9108.432,978.8049,3386.4895,443.38232,0.0,0.0,0.0,2.0,1.0,-1.2838639,0.0341353,-0.021122932,89.0,89.0,89.0,89.0,22.047926,22.047926,24.919281,24.919281,0.015909916,0.015180916,-4.620831E-4,-4.679332E-4,1170.8562,0.0,0.0,0.0,0.0,0.0,0.0,0.0,0.0,0.0,0.0,0.0,0.0,0.0,-83.90806,1.6472656,24.643347,-0.033154216,0.0269886,-0.106324926,549981.94,119984.914,0.0091330735,0.0073375874,9030.304,9681.449,7992.2646,8049.091,0.30646706,0.0,0.0,0.0
229.50417,229.50417,2.749,0.0,0.0,315.25537,11318.0,100.0,0.0,-0.6994401,0.0,8.0,1.0,0.0,4000000.0,110.0,1.0,0.0,0.0,10.0,0.0,0.0,228.34837,-41.34034,245.1529,0.23043261,0.19227141,0.7323311,320.10638,320.12415,314.98444,315.2328,288.0,287.0,320.0,314.0,89.0,89.0,89.0,89.0,0.0,0.0,0.0,0.0,0.051736053,0.052621435,0.054295707,0.054730937,0.0,0.0,0.0,0.0,-399.46127,-1940.1355,729.8022,-145.67075,0.0,0.0,0.0,2.0,1.0,-1.2821003,0.035959512,-0.023575306,89.0,89.0,89.0,89.0,22.047926,22.047926,24.919281,24.919281,0.015612867,0.015015658,-4.4137856E-4,-4.5909142E-4,1172.3364,0.0,0.0,0.0,0.0,0.0,0.0,0.0,0.0,0.0,0.0,0.0,0.0,0.0,-83.97357,2.1012683,24.752625,-0.04830658,0.043220147,0.002564297,549996.06,119984.91,0.009638454,0.0076560727,9021.964,9597.762,7274.6943,7466.424,0.30671215,0.0,0.0,0.0
233.88596,233.88596,2.799,0.0,0.0,315.59076,11347.0,100.0,0.0,-0.6479628,0.0,8.0,1.0,0.0,4000000.0,110.0,1.0,0.0,0.0,10.0,0.0,0.0,224.14838,-41.231354,246.39415,0.27604106,0.19526798,0.05099971,321.0127,320.9262,315.32062,315.5722,286.0,285.0,319.0,312.0,89.0,89.0,89.0,89.0,0.0,0.0,0.0,0.0,0.04853325,0.049765427,0.053038884,0.053528525,0.0,0.0,0.0,0.0,2474.3374,1330.0939,634.8789,-71.44065,0.0,0.0,0.0,2.0,1.0,-1.2800022,0.0379072,-0.024403691,89.0,89.0,89.0,89.0,22.047926,22.047926,24.919281,24.919281,0.01747964,0.016551804,-4.3269902E-4,-4.3564657E-4,1175.408,0.0,0.0,0.0,0.0,0.0,0.0,0.0,0.0,0.0,0.0,0.0,0.0,0.0,-84.02551,2.2095406,24.89629,-0.044639185,0.042558786,-0.0054247025,550027.75,119984.9,0.014260623,0.014246347,7360.8843,8130.7617,6241.2812,6415.816,0.3104763,0.0,0.0,0.0
238.27263,238.27263,2.849,0.0,0.0,315.96072,11360.0,100.0,0.0,-0.5693248,0.0,8.0,1.0,0.0,4000000.0,110.0,1.0,0.0,0.0,10.0,0.0,0.0,219.94562,-41.122963,247.64342,0.3028899,0.22079152,0.059113458,321.3912,321.29333,315.69217,315.9254,285.0,284.0,317.0,311.0,89.0,89.0,89.0,89.0,0.0,0.0,0.0,0.0,0.04754258,0.04977665,0.052584294,0.053135354,0.0,0.0,0.0,0.0,3745.034,3062.8948,972.24695,1033.1868,0.0,0.0,0.0,2.0,1.0,-1.2780302,0.04022844,-0.025781393,89.0,89.0,89.0,89.0,22.047926,22.047926,24.919281,24.919281,0.017631214,0.016707804,-4.5072305E-4,-4.4718472E-4,1176.7848,0.0,0.0,0.0,0.0,0.0,0.0,0.0,0.0,0.0,0.0,0.0,0.0,0.0,-84.08341,2.1656919,25.066154,-0.070953146,0.038466785,-0.02626944,550041.8,119984.91,0.012137277,0.012568362,7333.76,8103.8936,6401.371,6643.308,0.3081398,0.0,0.0,0.0
242.66441,242.66441,2.899,0.0,0.0,316.3373,11355.0,100.0,0.0,-0.7772751,0.0,8.0,1.0,0.0,4000000.0,110.0,1.0,0.0,0.0,10.0,0.0,0.0,215.74004,-41.008606,248.90134,0.3447126,0.21201423,0.7663233,321.2288,321.1431,316.0599,316.31003,284.0,283.0,316.0,310.0,89.0,89.0,89.0,89.0,0.0,0.0,0.0,0.0,0.05184093,0.05336498,0.053850427,0.05439397,0.0,0.0,0.0,0.0,-10081.081,-12133.212,-1830.2991,-4740.495,0.0,0.0,0.0,2.0,1.0,-1.2761501,0.04248144,-0.028387666,89.0,89.0,89.0,89.0,22.047926,22.047926,24.919281,24.919281,0.015864316,0.014910266,-4.5261733E-4,-4.606779E-4,1176.2554,0.0,0.0,0.0,0.0,0.0,0.0,0.0,0.0,0.0,0.0,0.0,0.0,0.0,-84.132645,2.451382,25.240545,-0.04184202,0.041548766,-0.02088783,550036.5,119984.9,0.011248052,0.008463976,8710.267,9800.041,7129.478,7247.0073,0.30708408,0.0,0.0,0.0
247.06042,247.06042,2.949,0.0,0.0,316.64832,11382.0,100.0,0.0,-0.8836218,0.0,8.0,1.0,0.0,4000000.0,110.0,1.0,0.0,0.0,10.0,0.0,0.0,211.53264,-40.880226,250.1682,0.37223226,0.17654794,0.14422384,322.01242,321.91806,316.35367,316.6507,282.0,282.0,315.0,309.0,89.0,89.0,89.0,89.0,0.0,0.0,0.0,0.0,0.048606593,0.05045146,0.053121794,0.053920075,0.0,0.0,0.0,0.0,2848.868,-140.21231,-585.25793,410.44498,0.0,0.0,0.0,2.0,1.0,-1.273884,0.04570203,-0.029177189,89.0,89.0,89.0,89.0,22.047926,22.047926,24.919281,24.919281,0.017307198,0.016202547,-4.1721258E-4,-4.438405E-4,1178.8915,0.0,0.0,0.0,0.0,0.0,0.0,0.0,0.0,0.0,0.0,0.0,0.0,0.0,-84.16117,2.6266193,25.428019,-0.061049793,0.05166325,-4.2336434E-4,549961.44,119984.9,0.013626613,0.014315228,7451.134,8429.7295,6367.0874,6826.033,0.3112812,0.0,0.0,0.0
251.46059,251.46059,2.999,0.0,0.0,316.98145,11393.0,100.0,0.0,-0.9888927,0.0,8.0,1.0,0.0,4000000.0,110.0,1.0,0.0,0.0,10.0,0.0,0.0,207.32387,-40.74784,251.44522,0.42676124,0.20853463,0.076848015,322.27853,322.25018,316.64453,317.0027,281.0,280.0,314.0,308.0,89.0,89.0,89.0,89.0,0.0,0.0,0.0,0.0,0.04820659,0.050360467,0.05242748,0.053976025,0.0,0.0,0.0,0.0,5406.944,6406.134,-332.33908,1744.9243,0.0,0.0,0.0,2.0,1.0,-1.2711663,0.048864927,-0.03162849,89.0,89.0,89.0,89.0,22.047926,22.047926,24.919281,24.919281,0.017398337,0.01625338,-4.3059394E-4,-4.6043514E-4,1179.5791,0.0,0.0,0.0,0.0,0.0,0.0,0.0,0.0,0.0,0.0,0.0,0.0,0.0,-84.19055,2.6639984,25.646204,-0.06750105,0.05987808,-0.04912849,549750.94,119984.91,0.011484213,0.0116294725,7513.3623,8514.051,6113.7373,6952.3765,0.30867958,0.0,0.0,0.0
255.8654,255.8654,3.049,0.0,0.0,317.3402,11390.0,100.0,0.0,-0.9399562,0.0,8.0,1.0,0.0,4000000.0,110.0,1.0,0.0,0.0,10.0,0.0,0.0,203.11356,-40.608868,252.73355,0.46996415,0.19963993,0.77574325,322.12402,322.17526,317.00058,317.36487,280.0,279.0,313.0,307.0,89.0,89.0,89.0,89.0,0.0,0.0,0.0,0.0,0.051998015,0.05324582,0.053269044,0.055118438,0.0,0.0,0.0,0.0,1107.7788,2040.0613,1484.7634,669.0904,0.0,0.0,0.0,2.0,1.0,-1.2681991,0.04896646,-0.03446114,89.0,89.0,89.0,89.0,22.047926,22.047926,24.919281,24.919281,0.015608617,0.014785162,-4.4345428E-4,-4.6170835E-4,1179.4202,0.0,0.0,0.0,0.0,0.0,0.0,0.0,0.0,0.0,0.0,0.0,0.0,0.0,-84.2161,2.9330957,25.874264,5.322108E-4,0.05948784,-0.042062394,549821.6,119984.914,0.008350182,0.0056112856,9082.358,9992.733,7166.04,8010.789,0.30399704,0.0,0.0,0.0
260.2741,260.2741,3.099,0.0,0.0,317.6436,11415.0,100.0,0.0,-0.7486209,0.0,8.0,1.0,0.0,4000000.0,110.0,1.0,0.0,0.0,10.0,0.0,0.0,198.90254,-40.454533,254.03345,0.47290054,0.16701601,0.15280163,322.89163,322.89075,317.3283,317.6711,279.0,278.0,312.0,306.0,89.0,89.0,89.0,89.0,0.0,0.0,0.0,0.0,0.04941645,0.05049095,0.052429922,0.054537732,0.0,0.0,0.0,0.0,-605.7634,76.08077,-450.9464,-799.9822,0.0,0.0,0.0,2.0,1.0,-1.2652059,0.048150606,-0.034949422,89.0,89.0,89.0,89.0,22.047926,22.047926,24.919281,24.919281,0.016903657,0.016019762,-4.2685398E-4,-4.2125303E-4,1180.9166,0.0,0.0,0.0,0.0,0.0,0.0,0.0,0.0,0.0,0.0,0.0,0.0,0.0,-84.22303,3.1601434,26.111128,0.018024331,0.05665831,3.51605E-4,549313.56,119984.9,0.013223583,0.011725242,7679.898,8515.166,5958.616,6903.795,0.30932522,0.0,0.0,0.0
264.68805,264.68805,3.149,0.0,0.0,317.9378,11437.0,100.0,0.0,-0.736957,0.0,8.0,1.0,0.0,4000000.0,110.0,1.0,0.0,0.0,10.0,0.0,0.0,194.69121,-40.29684,255.34557,0.47477528,0.17584229,-0.12903824,323.53058,323.4689,317.63528,317.9474,278.0,277.0,310.0,304.0,89.0,89.0,89.0,89.0,0.0,0.0,0.0,0.0,0.047417875,0.048649624,0.051605508,0.053707235,0.0,0.0,0.0,0.0,1506.9855,1899.9291,196.72661,146.58273,0.0,0.0,0.0,2.0,1.0,-1.2625074,0.0470447,-0.035321712,89.0,89.0,89.0,89.0,22.047926,22.047926,24.919281,24.919281,0.018084047,0.017076025,-4.2022383E-4,-4.240553E-4,1182.2864,0.0,0.0,0.0,0.0,0.0,0.0,0.0,0.0,0.0,0.0,0.0,0.0,0.0,-84.23176,3.135103,26.361109,0.010985894,0.050584078,-0.024793167,548892.9,119984.89,0.016717436,0.016878331,6917.132,7681.953,5593.1963,6537.3354,0.31348896,0.0,0.0,0.0
269.107,269.107,3.183,0.0,0.0,318.2669,11440.0,100.0,0.0,-0.7646226,0.0,8.0,1.0,0.0,4000000.0,110.0,1.0,0.0,0.0,10.0,0.0,0.0,190.47916,-40.14277,256.67026,0.47518212,0.19622326,0.09018991,323.58444,323.57364,317.9649,318.25745,276.0,275.0,309.0,303.0,89.0,89.0,89.0,89.0,0.0,0.0,0.0,0.0,0.04797035,0.049983796,0.051700134,0.054034553,81.946175,86.260956,22.244675,28.947515,4442.703,2827.799,539.3787,581.476,0.0,0.0,0.0,2.0,1.0,-1.2600528,0.04637909,-0.03674984,89.0,89.0,89.0,89.0,22.047926,22.047926,24.919281,24.919281,0.01728443,0.016488638,-4.3445185E-4,-4.502114E-4,1182.4672,0.0,0.0,0.0,0.0,0.0,0.0,0.0,0.0,0.0,0.0,0.0,0.0,0.0,-84.25058,3.0843725,26.612179,-0.0026162723,0.046540987,-0.05283573,548832.8,119984.9,0.011997224,0.011884794,7528.1426,8196.877,6117.32,7195.0215,0.30867958,0.0,0.0,0.0
273.53006,273.53006,3.249,0.0,0.0,318.59256,11429.0,100.0,0.0,-0.5368975,0.0,8.0,1.0,0.0,4000000.0,110.0,1.0,0.0,0.0,10.0,0.0,0.0,186.26627,-39.979984,258.00687,0.4357021,0.17799652,1.0096049,323.25162,323.2845,318.31796,318.55936,275.0,274.0,308.0,302.0,89.0,89.0,89.0,89.0,0.0,0.0,0.0,0.0,0.053138003,0.053878274,0.05400819,0.05558694,0.0,0.0,0.0,0.0,-13467.128,-10900.992,-6279.1445,-4010.9077,0.0,0.0,0.0,2.0,1.0,-1.2579212,0.04463076,-0.039868116,89.0,89.0,89.0,89.0,22.047926,22.047926,24.919281,24.919281,0.014993858,0.014493503,-4.5246733E-4,-4.4448784E-4,1181.7693,0.0,0.0,0.0,0.0,0.0,0.0,0.0,0.0,0.0,0.0,0.0,0.0,0.0,-84.26044,3.4783134,26.832153,0.0017599547,0.03709972,-0.045001592,549036.8,119984.9,0.011043385,0.00686391,9500.354,10171.951,7230.831,8001.67,0.306221,0.0,0.0,0.0
277.95605,277.95605,3.299,0.0,0.0,318.8357,11461.0,100.0,0.0,-0.3158159,0.0,8.0,1.0,0.0,4000000.0,110.0,1.0,0.0,0.0,10.0,0.0,0.0,182.05328,-39.798626,259.35352,0.35964763,0.13196002,0.12720637,324.22128,324.1439,318.6118,318.7834,274.0,273.0,307.0,301.0,89.0,89.0,89.0,89.0,0.0,0.0,0.0,0.0,0.048991248,0.049866255,0.052704595,0.054484513,0.0,0.0,0.0,0.0,-43.076473,-361.64243,-212.92715,-637.93646,0.0,0.0,0.0,2.0,1.0,-1.256276,0.043804124,-0.040507555,89.0,89.0,89.0,89.0,22.047926,22.047926,24.919281,24.919281,0.017013311,0.016381623,-4.1532126E-4,-3.9932E-4,1183.7324,0.0,0.0,0.0,0.0,0.0,0.0,0.0,0.0,0.0,0.0,0.0,0.0,0.0,-84.26087,3.6954906,27.023907,0.019985164,0.0258034,-0.019440018,548413.4,119984.91,0.01820353,0.017327873,7495.9883,8131.4136,6091.873,6885.168,0.31491947,0.0,0.0,0.0
282.3852,282.3852,3.349,0.0,0.0,319.10403,11484.0,100.0,0.0,0.23118803,0.0,8.0,1.0,0.0,4000000.0,110.0,1.0,0.0,0.0,10.0,0.0,0.0,177.83955,-39.616924,260.70886,0.21027733,0.18407054,-0.29912496,324.8688,324.83075,318.95767,318.96384,273.0,272.0,306.0,300.0,89.0,89.0,89.0,89.0,0.0,0.0,0.0,0.0,0.045430996,0.046073366,0.05149032,0.052852053,0.0,0.0,0.0,0.0,8045.071,6960.05,5973.695,4098.844,0.0,0.0,0.0,2.0,1.0,-1.2557081,0.04130314,-0.04146242,89.0,89.0,89.0,89.0,22.047926,22.047926,24.919281,24.919281,0.018236237,0.018185832,-4.5089034E-4,-4.0615318E-4,1185.11,0.0,0.0,0.0,0.0,0.0,0.0,0.0,0.0,0.0,0.0,0.0,0.0,0.0,-84.29693,3.5522518,27.174646,0.043737084,-0.0058987997,-0.055805936,547951.94,119984.9,0.016981082,0.019140497,6850.66,7013.086,5766.9546,6298.2188,0.31494904,0.0,0.0,0.0
286.8186,286.8186,3.399,0.0,0.0,319.43292,11457.0,100.0,0.0,0.7275635,0.0,8.0,1.0,0.0,4000000.0,110.0,1.0,0.0,0.0,10.0,0.0,0.0,173.6231,-39.43531,262.06998,0.05068235,0.19856255,1.050972,324.0669,324.02777,319.3564,319.19403,272.0,271.0,305.0,299.0,89.0,89.0,89.0,89.0,0.0,0.0,0.0,0.0,0.05571271,0.054987974,0.053383783,0.05615679,0.0,0.0,0.0,0.0,452.0059,-783.03125,-6669.325,4720.928,0.0,0.0,0.0,2.0,1.0,-1.2566901,0.03844707,-0.045482516,89.0,89.0,89.0,89.0,22.047926,22.047926,24.919281,24.919281,0.014384545,0.0147655085,-4.8532974E-4,-4.3247073E-4,1183.4863,0.0,0.0,0.0,0.0,0.0,0.0,0.0,0.0,0.0,0.0,0.0,0.0,0.0,-84.359375,3.8118536,27.243748,0.06780221,-0.03811921,-0.09693134,548490.8,119984.9,0.0072613237,0.005915592,10390.16,10105.821,7193.134,8589.223,0.30454922,0.0,0.0,0.0
291.2551,291.2551,3.433,0.0,0.0,319.67902,11474.0,100.0,0.0,0.9354489,0.0,8.0,1.0,0.0,4000000.0,110.0,1.0,0.0,0.0,10.0,0.0,0.0,169.40347,-39.22956,263.43124,-0.14647536,0.12233481,0.7364514,324.53918,324.571,319.6969,319.37192,270.0,269.0,304.0,298.0,89.0,89.0,89.0,89.0,0.0,0.0,0.0,0.0,0.052970793,0.051117968,0.055316422,0.055882078,-86.057556,-90.109924,-7.1125474,-9.568333,-3141.7114,-230.75041,-4397.2666,-146.95818,0.0,0.0,0.0,2.0,1.0,-1.2590201,0.035612624,-0.046325088,89.0,89.0,89.0,89.0,22.047926,22.047926,24.919281,24.919281,0.014638026,0.015671587,-4.4284214E-4,-4.230088E-4,1184.4926,0.0,0.0,0.0,0.0,0.0,0.0,0.0,0.0,0.0,0.0,0.0,0.0,0.0,-84.4217,4.3215737,27.197287,0.0032737097,-0.05809678,-0.02314388,548143.8,119984.914,0.0055936645,0.009584904,9719.266,8734.592,7907.8066,8181.9326,0.3066311,0.0,0.0,0.0
295.69437,295.69437,3.499,0.0,0.0,319.93204,11493.0,100.0,0.0,1.1474708,0.0,8.0,1.0,0.0,4000000.0,110.0,1.0,0.0,0.0,10.0,0.0,0.0,165.17984,-39.010723,264.78857,-0.3389935,0.1579512,0.23977764,325.21405,324.96622,320.00928,319.54538,269.0,268.0,303.0,297.0,89.0,89.0,89.0,89.0,0.0,0.0,0.0,0.0,0.05105214,0.049638864,0.05545849,0.05309071,0.0,0.0,0.0,0.0,1183.1089,1747.3383,65.72753,1546.0789,0.0,0.0,0.0,2.0,1.0,-1.2626904,0.03425175,-0.04977286,89.0,89.0,89.0,89.0,22.047926,22.047926,24.919281,24.919281,0.01581794,0.016520659,-4.6263196E-4,-4.011988E-4,1185.6567,0.0,0.0,0.0,0.0,0.0,0.0,0.0,0.0,0.0,0.0,0.0,0.0,0.0,-84.52574,4.4267106,27.086578,-0.06257353,-0.08339272,-0.07441105,547775.44,119984.9,0.0071944017,0.00963409,8525.489,8064.8296,7721.291,6455.65,0.30966187,0.0,0.0,0.0
300.1385,300.1385,3.549,0.0,0.0,320.21985,11493.0,100.0,0.0,1.0180188,0.0,8.0,1.0,0.0,4000000.0,110.0,1.0,0.0,0.0,10.0,0.0,0.0,160.95001,-38.784687,266.13797,-0.48603362,0.16478266,0.54294217,325.13425,325.02493,320.31738,319.82373,268.0,267.0,301.0,296.0,89.0,89.0,89.0,89.0,0.0,0.0,0.0,0.0,0.052303124,0.051673733,0.054391216,0.0534043,0.0,0.0,0.0,0.0,1087.4344,-3037.3867,-2324.7104,4.117183,0.0,0.0,0.0,2.0,1.0,-1.2669901,0.037635203,-0.05287683,89.0,89.0,89.0,89.0,22.047926,22.047926,24.919281,24.919281,0.014860497,0.01571858,-4.1706595E-4,-4.44563E-4,1185.6565,0.0,0.0,0.0,0.0,0.0,0.0,0.0,0.0,0.0,0.0,0.0,0.0,0.0,-84.660416,4.6325097,26.893286,-0.037643608,-0.079394035,-0.015458658,547775.4,119984.89,0.008903825,0.0049486584,9767.576,8799.982,6988.831,6940.667,0.3082266,0.0,0.0,0.0
304.58893,304.58893,3.599,0.0,0.0,320.483,11511.0,100.0,0.0,0.71448183,0.0,8.0,1.0,0.0,4000000.0,110.0,1.0,0.0,0.0,10.0,0.0,0.0,156.71333,-38.547737,267.47653,-0.5425047,0.1534754,0.3330274,325.53696,325.63815,320.52756,320.14203,267.0,266.0,300.0,294.0,89.0,89.0,89.0,89.0,0.0,0.0,0.0,0.0,0.05202,0.049552426,0.054710206,0.052967332,0.0,0.0,0.0,0.0,-3449.548,-2175.8481,6213.7656,-644.3202,0.0,0.0,0.0,2.0,1.0,-1.2707393,0.037143763,-0.05313611,89.0,89.0,89.0,89.0,22.047926,22.047926,24.919281,24.919281,0.0152405165,0.016555998,-4.410782E-4,-4.4031694E-4,1186.7576,0.0,0.0,0.0,0.0,0.0,0.0,0.0,0.0,0.0,0.0,0.0,0.0,0.0,-84.80068,4.8179708,26.659628,-4.6169397E-4,-0.065335445,0.016481426,547426.7,119984.9,0.006582624,0.006662769,9054.768,7826.919,7858.372,6338.464,0.31062412,0.0,0.0,0.0
