LapDistance [m],TotalDistance [m],LapTime [s],Sector1Time [s],Sector2Time [s],Speed [km/h],EngineRevs [rpm],ThrottlePercentage [%],BrakePercentage [%],Steer [%],Clutch [%],Gear [int],DRS [0/1],CanUseDRS [0/1],KERSLevel [J],EngineTemperature [C],RacePosition [int],Sector [int],InPits [int],FuelRemaining [kg],CurrentFlag [int],CurrentLapInvalid [int],X [m],Y [m],Z [m],GForceLatitudinal [G],GForceLongitudinal [G],GForceVertical [G],WheelSpeedRearLeft [km/h],WheelSpeedRearRight [km/h],WheelSpeedFrontLeft [km/h],WheelSpeedFrontRight [km/h],BrakeTemperatureRearLeft [C],BrakeTemperatureRearRight [C],BrakeTemperatureFrontLeft [C],BrakeTemperatureFrontRight [C],TyreTemperatureRearLeft [C],TyreTemperatureRearRight [C],TyreTemperatureFrontLeft [C],TyreTemperatureFrontRight [C],TyreWearRearLeft [%],TyreWearRearRight [%],TyreWearFrontLeft [%],TyreWearFrontRight [%],SuspensionPositionRearLeft [m],SuspensionPositionRearRight [m],SuspensionPositionFrontLeft [m],SuspensionPositionFrontRight [m],SuspensionVelocityRearLeft [m/s],SuspensionVelocityRearRight [m/s],SuspensionVelocityFrontLeft [m/s],SuspensionVelocityFrontRight [m/s],SuspensionAccelerationRearLeft [m/s^2],SuspensionAccelerationRearRight [m/s^2],SuspensionAccelerationFrontLeft [m/s^2],SuspensionAccelerationFrontRight [m/s^2],MGUKHarvested [J],MGUHHarvested [J],ERSSpent [J],ERSMode [int],FuelMixMode [int],Yaw [rad],Roll [rad],Pitch [rad],TyreCarcassTemperatureRearLeft [C],TyreCarcassTemperatureRearRight [C],TyreCarcassTemperatureFrontLeft [C],TyreCarcassTemperatureFrontRight [C],TyrePressureRearLeft [PSI],TyrePressureRearRight [PSI],TyrePressureFrontLeft [PSI],TyrePressureFrontRight [PSI],WheelSlipRearLeft [%],WheelSlipRearRight [%],WheelSlipFrontLeft [%],WheelSlipFrontRight [%],Torque [Nm],Handbrake [%],RearLeftInside [C],RearLeftMiddle [C],RearLeftOutside [C],RearRightInside [C],RearRightMiddle [C],RearRightOutside [C],FrontLeftInside [C],FrontLeftMiddle [C],FrontLeftOutside [C],FrontRightInside [C],FrontRightMiddle [C],FrontRightOutside [C],WoldSpeedX [km/h],WoldSpeedY [km/h],WoldSpeedZ [km/h],LocalAngularVelocityX [rad/s],LocalAngularVelocityY [rad/s],LocalAngularVelocityZ [rad/s],IcePower [W],MgukPower [W],FrontRideHeight [m],RearRideHeight [m],LoadRearLeft [N],LoadRearRight [N],LoadFrontLeft [N],LoadFrontRight [N],Extra1 [m],Extra2 [],Extra3 [],Extra4 []
3.0610914,3.0610914,0.033,0.0,0.0,283.183,11410.0,100.0,0.0,-0.0016200443,0.0,7.0,1.0,0.0,4000000.0,110.0,1.0,0.0,0.0,10.0,0.0,1.0,445.49734,-42.189564,180.89656,0.03792119,0.4442414,0.17983966,288.7169,288.69644,283.03165,283.03186,418.0,416.0,454.0,443.0,89.0,89.0,89.0,89.0,0.0,0.0,0.0,0.0,0.048695955,0.04872313,0.052162018,0.05247751,-40.45486,-41.52417,-3.3780186,-4.766956,-770.5582,-768.721,7.215142,57.063988,0.0,0.0,0.0,2.0,1.0,-1.2901121,0.02556036,0.0038077831,89.0,89.0,89.0,89.0,22.047926,22.047926,24.919281,24.919281,0.019463602,0.019410396,-5.271169E-4,-5.249115E-4,1180.6088,0.0,0.0,0.0,0.0,0.0,0.0,0.0,0.0,0.0,0.0,0.0,0.0,0.0,-75.59902,-0.2671293,21.735207,0.0059362147,-3.793163E-4,-0.00757535,549411.0,119984.9,0.014821069,0.014540848,7324.0386,7367.162,5787.3916,5927.572,0.30734634,0.0,0.0,0.0
6.9997754,6.9997754,0.083,0.0,0.0,283.9737,11449.0,100.0,0.0,-0.048955582,0.0,7.0,1.0,0.0,4000000.0,110.0,1.0,0.0,0.0,10.0,0.0,1.0,441.71194,-42.202415,181.9853,0.027029678,0.44871348,-0.029913742,289.70206,289.69733,283.81555,283.8208,416.0,414.0,452.0,441.0,89.0,89.0,89.0,89.0,0.0,0.0,0.0,0.0,0.047524326,0.047560014,0.051790707,0.052141473,-22.476686,-22.72345,-6.2365828,-5.2005796,-799.3384,-792.2574,68.16833,46.040092,0.0,0.0,0.0,2.0,1.0,-1.2901236,0.025120394,0.0030943155,89.0,89.0,89.0,89.0,22.047926,22.047926,24.919281,24.919281,0.020248866,0.020215388,-5.291912E-4,-5.336244E-4,1182.9768,0.0,0.0,0.0,0.0,0.0,0.0,0.0,0.0,0.0,0.0,0.0,0.0,0.0,-75.806046,-0.25724164,21.810123,0.0045425342,3.9264016E-4,-0.025131512,548637.75,119984.914,0.014819209,0.0154622095,6828.074,6852.782,5513.247,5678.2256,0.30818176,0.0,0.0,0.0
10.949568,10.949568,0.133,0.0,0.0,284.78598,11468.0,100.0,0.0,-0.119386524,0.0,7.0,1.0,0.0,4000000.0,110.0,1.0,0.0,0.0,10.0,0.0,1.0,437.91602,-42.214207,183.07773,0.029610246,0.4601338,0.2746015,290.15097,290.1533,284.62015,284.6387,414.0,412.0,450.0,440.0,89.0,89.0,89.0,89.0,0.0,0.0,0.0,0.0,0.049473796,0.049481742,0.052184485,0.052476317,75.32246,77.78786,16.524195,14.8947525,2284.2893,2541.339,781.76996,725.98,0.0,0.0,0.0,2.0,1.0,-1.2900718,0.024551393,0.0015788078,89.0,89.0,89.0,89.0,22.047926,22.047926,24.919281,24.919281,0.018934608,0.018878985,-5.28893E-4,-5.380039E-4,1184.1658,0.0,0.0,0.0,0.0,0.0,0.0,0.0,0.0,0.0,0.0,0.0,0.0,0.0,-76.02007,-0.19041717,21.882961,5.901782E-4,0.0026526914,-0.032051936,548279.25,119984.91,0.012967445,0.011996865,7707.6226,7733.9077,6034.0225,6158.49,0.30539513,0.0,0.0,0.0
13.589037,13.589037,0.183,0.0,0.0,285.3135,11488.0,100.0,0.0,-0.0891559,0.0,7.0,1.0,0.0,4000000.0,110.0,1.0,0.0,0.0,10.0,0.0,1.0,435.37946,-42.2187,183.80801,0.028597176,0.44164324,0.25057846,290.67126,290.65955,285.14737,285.17383,413.0,411.0,449.0,439.0,89.0,89.0,89.0,89.0,0.0,0.0,0.0,0.0,0.04928781,0.04944537,0.052286807,0.05250727,0.0,0.0,0.0,0.0,-1645.1729,-2207.538,-434.79944,-558.181,0.0,0.0,0.0,2.0,1.0,-1.289948,0.024167398,9.914637E-4,89.0,89.0,89.0,89.0,22.047926,22.047926,24.919281,24.919281,0.018822646,0.018705076,-5.2741816E-4,-5.290322E-4,1185.3635,0.0,0.0,0.0,0.0,0.0,0.0,0.0,0.0,0.0,0.0,0.0,0.0,0.0,-76.15907,-0.09581763,21.930437,0.010328766,0.004257229,-0.011301466,547878.4,119984.9,0.0130098,0.011863537,7649.002,7731.933,5888.4824,5975.088,0.3046999,0.0,0.0,0.0
18.881968,18.881968,0.233,0.0,0.0,286.3305,11539.0,100.0,0.0,-0.07684461,0.0,7.0,1.0,0.0,4000000.0,110.0,1.0,0.0,0.0,10.0,0.0,1.0,430.29315,-42.22257,185.27332,0.031000897,0.432759,-0.011695045,291.95602,291.94907,286.16528,286.1909,410.0,409.0,447.0,437.0,89.0,89.0,89.0,89.0,0.0,0.0,0.0,0.0,0.047924962,0.0480185,0.05191186,0.05222165,-13.7051935,-9.75117,-7.493868,-6.297156,738.4925,645.6746,-72.23187,-156.3996,0.0,0.0,0.0,2.0,1.0,-1.2896738,0.023816178,7.202625E-4,89.0,89.0,89.0,89.0,22.047926,22.047926,24.919281,24.919281,0.019725295,0.019623205,-5.2308553E-4,-5.249591E-4,1188.4501,0.0,0.0,0.0,0.0,0.0,0.0,0.0,0.0,0.0,0.0,0.0,0.0,0.0,-76.425766,-0.047594663,22.025349,0.0038323088,0.004122113,-0.00890333,546877.1,119984.91,0.013889952,0.014094559,7060.349,7118.2207,5587.246,5730.945,0.30623913,0.0,0.0,0.0
22.864305,22.864305,0.283,0.0,0.0,287.0975,11567.0,100.0,0.0,-0.040327378,0.0,7.0,1.0,0.0,4000000.0,110.0,1.0,0.0,0.0,10.0,0.0,1.0,426.46646,-42.224945,186.37651,0.02767817,0.43390387,0.023837619,292.66373,292.6547,286.93457,286.95367,409.0,407.0,446.0,435.0,89.0,89.0,89.0,89.0,0.0,0.0,0.0,0.0,0.04819633,0.04826664,0.05190254,0.0521543,13.32186,10.507553,0.39495525,-0.46156344,367.6369,173.68643,-6.4372993,9.106097,0.0,0.0,0.0,2.0,1.0,-1.2894996,0.023500029,1.5127659E-4,89.0,89.0,89.0,89.0,22.047926,22.047926,24.919281,24.919281,0.019482227,0.01940056,-5.2591116E-4,-5.236427E-4,1190.1298,0.0,0.0,0.0,0.0,0.0,0.0,0.0,0.0,0.0,0.0,0.0,0.0,0.0,-76.62662,-0.043359533,22.097778,0.0027532643,0.0027475888,-0.0134434635,546324.4,119984.9,0.013426551,0.013225901,7174.5195,7223.6406,5660.158,5772.418,0.30544376,0.0,0.0,0.0
25.525139,25.525139,0.333,0.0,0.0,287.60654,11585.0,100.0,0.0,-0.057690155,0.0,7.0,1.0,0.0,4000000.0,110.0,1.0,0.0,0.0,10.0,0.0,1.0,423.90976,-42.226055,187.11398,0.028956115,0.4305783,0.056879304,293.11658,293.10922,287.44516,287.4636,407.0,406.0,445.0,434.0,89.0,89.0,89.0,89.0,0.0,0.0,0.0,0.0,0.048479646,0.048518293,0.051944084,0.052190296,0.0,0.0,0.0,0.0,-920.23895,-712.34094,-53.456417,-52.66517,0.0,0.0,0.0,2.0,1.0,-1.2894049,0.02333149,-1.02996826E-4,89.0,89.0,89.0,89.0,22.047926,22.047926,24.919281,24.919281,0.019229272,0.019153487,-5.2381365E-4,-5.246781E-4,1191.2072,0.0,0.0,0.0,0.0,0.0,0.0,0.0,0.0,0.0,0.0,0.0,0.0,0.0,-76.75994,-0.024601333,22.145775,0.0027653927,0.0029678682,-0.004611999,545969.4,119984.9,0.01257952,0.012323543,7278.613,7325.2383,5688.773,5800.257,0.30498028,0.0,0.0,0.0
30.860739,30.860739,0.383,0.0,0.0,288.60754,11623.0,100.0,0.0,-0.08363827,0.0,7.0,1.0,0.0,4000000.0,110.0,1.0,0.0,0.0,10.0,0.0,1.0,418.78317,-42.226376,188.59364,0.030784532,0.42271107,0.040324148,294.10522,294.09213,288.4455,288.4672,405.0,403.0,442.0,432.0,89.0,89.0,89.0,89.0,0.0,0.0,0.0,0.0,0.048461407,0.04854715,0.052035347,0.05226616,-1.7905979,-0.969395,-1.8431245,-1.6924738,-351.9594,-290.81848,-161.79082,-61.033653,0.0,0.0,0.0,2.0,1.0,-1.2891957,0.023045395,-3.0243397E-4,89.0,89.0,89.0,89.0,22.047926,22.047926,24.919281,24.919281,0.019108016,0.01900151,-5.189028E-4,-5.226009E-4,1193.4291,0.0,0.0,0.0,0.0,0.0,0.0,0.0,0.0,0.0,0.0,0.0,0.0,0.0,-77.02208,0.010711484,22.240255,0.0037957204,0.0037343183,4.708604E-5,545199.44,119984.9,0.011710853,0.011426441,7295.205,7359.945,5722.1187,5829.304,0.30362606,0.0,0.0,0.0
34.874413,34.874413,0.433,0.0,0.0,289.34595,11653.0,100.0,0.0,-0.056597456,0.0,7.0,1.0,0.0,4000000.0,110.0,1.0,0.0,0.0,10.0,0.0,1.0,414.92697,-42.225704,189.70752,0.028765589,0.41768497,0.032201488,294.86136,294.85345,289.1849,289.20782,403.0,402.0,441.0,430.0,89.0,89.0,89.0,89.0,0.0,0.0,0.0,0.0,0.04836805,0.04845473,0.051981624,0.05225628,7.707327,9.084194,2.71216,4.2204556,936.41266,1088.1451,371.20425,425.2105,0.0,0.0,0.0,2.0,1.0,-1.2889981,0.02282112,-6.341934E-5,89.0,89.0,89.0,89.0,22.047926,22.047926,24.919281,24.919281,0.01911248,0.019015227,-5.164597E-4,-5.158237E-4,1195.21,0.0,0.0,0.0,0.0,0.0,0.0,0.0,0.0,0.0,0.0,0.0,0.0,0.0,-77.215195,0.016553061,22.310822,0.0076563135,0.0038883726,0.003768053,544607.3,119984.9,0.012337852,0.012004475,7284.837,7348.59,5762.3076,5893.804,0.3039322,0.0,0.0,0.0
37.55215,37.55215,0.483,0.0,0.0,288.927,11374.0,100.0,0.0,-0.0656077,0.0,7.0,1.0,0.0,4000000.0,110.0,1.0,0.0,0.0,10.0,0.0,1.0,412.35443,-42.22503,190.45103,0.030547403,-0.55258787,-0.0026631893,288.8933,288.90283,288.92072,288.9435,402.0,401.0,440.0,429.0,89.0,89.0,89.0,89.0,0.0,0.0,0.0,0.0,0.046694387,0.04678071,0.052104816,0.052359056,0.0,0.0,0.0,0.0,-2214.8203,-2071.1882,669.97546,675.98364,0.0,0.0,0.0,2.0,1.0,-1.2888429,0.022620661,0.0010222197,89.0,89.0,89.0,89.0,22.047926,22.047926,24.919281,24.919281,-6.2504856E-5,-1.0375271E-4,-3.580642E-6,-5.976692E-6,1178.2662,0.0,0.0,0.0,0.0,0.0,0.0,0.0,0.0,0.0,0.0,0.0,0.0,0.0,-77.100624,0.021071736,22.288094,0.019150982,0.005089604,0.047787726,550056.4,0.0,0.01254226,0.014497876,6964.271,7012.5327,5902.431,6017.306,0.30546665,0.0,0.0,0.0
42.894623,42.894623,0.533,0.0,0.0,288.63177,10793.0,100.0,0.0,-0.06959621,0.0,8.0,1.0,0.0,4000000.0,110.0,1.0,0.0,0.0,10.0,0.0,1.0,407.22208,-42.225513,191.93538,0.029173136,0.42747486,-0.15692116,295.02744,295.01462,288.45438,288.47366,400.0,398.0,438.0,427.0,89.0,89.0,89.0,89.0,0.0,0.0,0.0,0.0,0.04356642,0.043749128,0.052219372,0.05243163,13.0663805,14.268681,-12.137218,-12.623145,2651.5913,2628.8862,-722.8418,-710.03424,0.0,0.0,0.0,2.0,1.0,-1.2885935,0.022392107,0.0023305416,89.0,89.0,89.0,89.0,22.047926,22.047926,24.919281,24.919281,0.022142965,0.022050643,-5.472228E-4,-5.502223E-4,1109.9667,0.0,0.0,0.0,0.0,0.0,0.0,0.0,0.0,0.0,0.0,0.0,0.0,0.0,-77.01628,-0.046299346,22.28453,-0.0064647673,0.002628268,-0.027087424,546065.56,119984.9,0.013896082,0.0182781,6623.734,6677.0967,5721.7554,5816.452,0.3077402,0.0,0.0,0.0
46.909756,46.909756,0.583,0.0,0.0,289.522,10462.0,100.0,0.0,-0.067604505,0.0,8.0,1.0,0.0,4000000.0,110.0,1.0,0.0,0.0,10.0,0.0,1.0,403.3651,-42.229816,193.05182,0.02994585,0.50407463,-0.083836436,295.6876,295.67432,289.34335,289.36667,398.0,396.0,436.0,426.0,89.0,89.0,89.0,89.0,0.0,0.0,0.0,0.0,0.04628605,0.046545457,0.05161641,0.051865134,60.27594,60.78131,-3.7904081,-2.8241425,102.11173,6.236114,580.2556,591.427,0.0,0.0,0.0,2.0,1.0,-1.2884398,0.022343958,0.0010223389,89.0,89.0,89.0,89.0,22.047926,22.047926,24.919281,24.919281,0.02140399,0.021292083,-5.661644E-4,-5.661108E-4,1062.1376,0.0,0.0,0.0,0.0,0.0,0.0,0.0,0.0,0.0,0.0,0.0,0.0,0.0,-77.249275,-0.11125354,22.368736,-0.0028477889,0.0034856338,-0.015623551,539067.4,119984.9,0.014440025,0.014903779,7066.996,7123.896,5426.417,5543.4023,0.3065939,0.0,0.0,0.0
49.593113,49.593113,0.633,0.0,0.0,290.06284,10394.0,100.0,0.0,-0.095341474,0.0,8.0,1.0,0.0,4000000.0,110.0,1.0,0.0,0.0,10.0,0.0,1.0,400.78754,-42.233913,193.79843,0.034334496,0.42323533,-0.01653251,295.51923,295.5112,289.89993,289.92722,397.0,395.0,435.0,425.0,89.0,89.0,89.0,89.0,0.0,0.0,0.0,0.0,0.04771185,0.04795962,0.051660288,0.051930517,0.0,0.0,0.0,0.0,-554.93567,-492.30603,559.93787,632.9074,0.0,0.0,0.0,2.0,1.0,-1.2883025,0.022299519,8.724928E-4,89.0,89.0,89.0,89.0,22.047926,22.047926,24.919281,24.919281,0.018988993,0.018879073,-5.142407E-4,-5.178024E-4,1048.64,0.0,0.0,0.0,0.0,0.0,0.0,0.0,0.0,0.0,0.0,0.0,0.0,0.0,-77.390434,-0.1269074,22.421299,0.0020724547,0.0047181766,0.002071146,535698.9,119984.91,0.013576163,0.013054572,7196.793,7257.9883,5572.394,5700.0576,0.3051777,0.0,0.0,0.0
53.626717,53.626717,0.683,0.0,0.0,290.76123,10414.0,100.0,0.0,-0.055699755,0.0,8.0,1.0,0.0,4000000.0,110.0,1.0,0.0,0.0,10.0,0.0,1.0,396.91318,-42.239494,194.9213,0.030497625,0.39326224,0.13934624,296.0921,296.08408,290.60223,290.62363,395.0,394.0,433.0,423.0,89.0,89.0,89.0,89.0,0.0,0.0,0.0,0.0,0.048887994,0.048888024,0.05223852,0.05244926,0.0,0.0,0.0,0.0,293.64816,594.3774,216.70903,21.859987,0.0,0.0,0.0,2.0,1.0,-1.2880952,0.022035109,9.496212E-4,89.0,89.0,89.0,89.0,22.047926,22.047926,24.919281,24.919281,0.01839871,0.018310556,-5.0686806E-4,-5.049461E-4,1052.6152,0.0,0.0,0.0,0.0,0.0,0.0,0.0,0.0,0.0,0.0,0.0,0.0,0.0,-77.572845,-0.087094486,22.489002,0.0037503438,0.0034119603,-0.0036764685,536696.9,119984.9,0.0128436005,0.012181431,7488.099,7549.689,6025.5615,6108.55,0.30447197,0.0,0.0,0.0
59.01957,59.01957,0.733,0.0,0.0,291.6582,10452.0,100.0,0.0,-0.040402416,0.0,8.0,1.0,0.0,4000000.0,110.0,1.0,0.0,0.0,10.0,0.0,1.0,391.73352,-42.243958,196.42369,0.029038914,0.37811303,-0.020736901,297.176,297.16074,291.4992,291.52063,393.0,391.0,431.0,421.0,89.0,89.0,89.0,89.0,0.0,0.0,0.0,0.0,0.048010398,0.048094325,0.052156467,0.05238262,-12.5500555,-12.552961,1.3402103,-0.71212643,355.00366,367.82465,52.973618,-54.059917,0.0,0.0,0.0,2.0,1.0,-1.2878345,0.02182986,9.872913E-4,89.0,89.0,89.0,89.0,22.047926,22.047926,24.919281,24.919281,0.01897254,0.018867886,-5.010557E-4,-4.9831165E-4,1060.1354,0.0,0.0,0.0,0.0,0.0,0.0,0.0,0.0,0.0,0.0,0.0,0.0,0.0,-77.80647,-0.06529077,22.57804,0.0012598834,0.003231892,-0.008831846,538566.0,119984.9,0.013764085,0.014339919,7096.9316,7162.8975,5828.461,5924.544,0.30628777,0.0,0.0,0.0
63.075146,63.075146,0.783,0.0,0.0,292.33563,10472.0,100.0,0.0,-0.08218686,0.0,8.0,1.0,0.0,4000000.0,110.0,1.0,0.0,0.0,10.0,0.0,1.0,387.83856,-42.247326,197.55437,0.033050038,0.38426808,0.027098082,297.7593,297.7387,292.17358,292.19504,391.0,390.0,430.0,419.0,89.0,89.0,89.0,89.0,0.0,0.0,0.0,0.0,0.04842896,0.04856644,0.052212838,0.052388936,5.077198,6.238371,1.5833973,1.426488,-858.1727,-762.83356,-37.47045,14.711916,0.0,0.0,0.0,2.0,1.0,-1.2876828,0.021732954,2.5081635E-4,89.0,89.0,89.0,89.0,22.047926,22.047926,24.919281,24.919281,0.018668436,0.018535346,-5.047955E-4,-5.077424E-4,1064.1593,0.0,0.0,0.0,0.0,0.0,0.0,0.0,0.0,0.0,0.0,0.0,0.0,0.0,-77.982834,-0.06289618,22.645512,-0.004420473,0.0032641476,-0.016493056,539577.75,119984.91,0.012755853,0.012762916,7266.638,7356.9287,5863.3887,5943.767,0.3052597,0.0,0.0,0.0
65.784096,65.784096,0.833,0.0,0.0,292.789,10484.0,100.0,0.0,-0.066568375,0.0,8.0,1.0,0.0,4000000.0,110.0,1.0,0.0,0.0,10.0,0.0,1.0,385.237,-42.24894,198.31004,0.030586205,0.38569477,0.12017616,298.0917,298.06918,292.6274,292.648,390.0,388.0,429.0,418.0,89.0,89.0,89.0,89.0,0.0,0.0,0.0,0.0,0.049051873,0.04920656,0.052380983,0.052517824,0.0,0.0,0.0,0.0,373.76572,356.02292,-25.588272,-74.35083,0.0,0.0,0.0,2.0,1.0,-1.2875785,0.02174365,-3.119707E-4,89.0,89.0,89.0,89.0,22.047926,22.047926,24.919281,24.919281,0.018204462,0.018074652,-5.073837E-4,-5.072193E-4,1066.5232,0.0,0.0,0.0,0.0,0.0,0.0,0.0,0.0,0.0,0.0,0.0,0.0,0.0,-78.10118,-0.031604804,22.689606,-0.00537704,0.0030375666,-0.0134484805,540157.4,119984.9,0.011896638,0.011123985,7581.117,7678.587,6004.2812,6060.896,0.30379677,0.0,0.0,0.0
69.855385,69.855385,0.883,0.0,0.0,293.45752,10508.0,100.0,0.0,-0.091540076,0.0,8.0,1.0,0.0,4000000.0,110.0,1.0,0.0,0.0,10.0,0.0,1.0,381.3273,-42.248554,199.4463,0.034104384,0.3747384,0.10088484,298.78198,298.75897,293.29507,293.32297,388.0,387.0,427.0,417.0,89.0,89.0,89.0,89.0,0.0,0.0,0.0,0.0,0.04897723,0.049153186,0.052443534,0.05259843,0.0,0.0,0.0,0.0,-482.56958,-539.71405,-77.22079,-157.49928,0.0,0.0,0.0,2.0,1.0,-1.2873774,0.021869857,-5.98073E-4,89.0,89.0,89.0,89.0,22.047926,22.047926,24.919281,24.919281,0.018193074,0.018038906,-5.0155603E-4,-5.029715E-4,1070.8108,0.0,0.0,0.0,0.0,0.0,0.0,0.0,0.0,0.0,0.0,0.0,0.0,0.0,-78.27522,0.035819218,22.756174,-0.0023191436,0.0046892837,0.00174141,541090.25,119984.89,0.011480037,0.0108387815,7548.698,7659.212,5985.4097,6052.823,0.30329132,0.0,0.0,0.0
75.29798,75.29798,0.933,0.0,0.0,294.3319,10544.0,100.0,0.0,-0.061800376,0.0,8.0,1.0,0.0,4000000.0,110.0,1.0,0.0,0.0,10.0,0.0,1.0,376.10104,-42.24554,200.96645,0.03175404,0.3711947,-0.043971762,299.81033,299.7786,294.17242,294.19516,386.0,385.0,425.0,415.0,89.0,89.0,89.0,89.0,0.0,0.0,0.0,0.0,0.04826094,0.04844085,0.052231625,0.052362345,-6.4469123,-5.589723,-4.0286775,-4.517287,293.97006,438.72888,-37.966644,-38.905445,0.0,0.0,0.0,2.0,1.0,-1.2871039,0.022026923,-4.4894218E-4,89.0,89.0,89.0,89.0,22.047926,22.047926,24.919281,24.919281,0.018673887,0.018504933,-4.9989176E-4,-4.9887673E-4,1075.7234,0.0,0.0,0.0,0.0,0.0,0.0,0.0,0.0,0.0,0.0,0.0,0.0,0.0,-78.50261,0.039443497,22.844042,-0.0029542844,0.0037292216,0.002348078,541716.7,119984.89,0.01226358,0.012155767,7227.3823,7343.3975,5811.185,5868.797,0.3041296,0.0,0.0,0.0
79.39053,79.39053,0.983,0.0,0.0,294.98526,10567.0,100.0,0.0,-0.054604903,0.0,8.0,1.0,0.0,4000000.0,110.0,1.0,0.0,0.0,10.0,0.0,1.0,372.17142,-42.24413,202.1104,0.029125445,0.36855435,-0.042475898,300.4692,300.4366,294.82816,294.8467,384.0,383.0,423.0,413.0,89.0,89.0,89.0,89.0,0.0,0.0,0.0,0.0,0.04827308,0.04843989,0.05216422,0.05229771,-0.01966953,-1.1591612,0.635907,-0.1155585,-67.202736,-85.03942,135.31743,72.245285,0.0,0.0,0.0,2.0,1.0,-1.2869333,0.022151591,-3.1733513E-4,89.0,89.0,89.0,89.0,22.047926,22.047926,24.919281,24.919281,0.018651318,0.018494522,-4.989698E-4,-4.98033E-4,1078.8739,0.0,0.0,0.0,0.0,0.0,0.0,0.0,0.0,0.0,0.0,0.0,0.0,0.0,-78.6726,0.01852202,22.909458,-0.0013914276,0.0030482817,0.0036121458,542120.7,119984.9,0.012516447,0.012386869,7226.66,7334.8203,5821.41,5878.3184,0.30440807,0.0,0.0,0.0
82.123924,82.123924,1.033,0.0,0.0,295.4177,10581.0,100.0,0.0,-0.065521404,0.0,8.0,1.0,0.0,4000000.0,110.0,1.0,0.0,0.0,10.0,0.0,1.0,369.54694,-42.243675,202.87482,0.029206641,0.36709985,0.010394152,300.8549,300.8251,295.25986,295.27884,383.0,382.0,422.0,412.0,89.0,89.0,89.0,89.0,0.0,0.0,0.0,0.0,0.04850361,0.048682217,0.052270364,0.052407432,0.0,0.0,0.0,0.0,788.7705,742.8779,344.46265,343.60434,0.0,0.0,0.0,2.0,1.0,-1.286829,0.022239015,-2.655983E-4,89.0,89.0,89.0,89.0,22.047926,22.047926,24.919281,24.919281,0.018475255,0.018323822,-4.974393E-4,-4.9852044E-4,1080.7777,0.0,0.0,0.0,0.0,0.0,0.0,0.0,0.0,0.0,0.0,0.0,0.0,0.0,-78.78518,0.013544235,22.952473,-0.0027417345,0.0031214938,-2.7300464E-4,542358.75,119984.9,0.012623271,0.012327221,7346.7344,7452.2305,5961.4414,6022.675,0.30438614,0.0,0.0,0.0
87.602615,87.602615,1.083,0.0,0.0,296.2665,10611.0,100.0,0.0,-0.06619504,0.0,8.0,1.0,0.0,4000000.0,110.0,1.0,0.0,0.0,10.0,0.0,1.0,364.28687,-42.24256,204.4079,0.027827382,0.3575886,0.002306147,301.70343,301.67706,296.1079,296.12772,381.0,379.0,420.0,410.0,89.0,89.0,89.0,89.0,0.0,0.0,0.0,0.0,0.048485175,0.048652556,0.052375544,0.052511495,-0.5489587,-0.97408885,2.0255146,1.6902386,127.06963,71.92342,-38.020317,-56.05816,0.0,0.0,0.0,2.0,1.0,-1.2866174,0.022389306,-3.5345554E-4,89.0,89.0,89.0,89.0,22.047926,22.047926,24.919281,24.919281,0.0184198,0.018277511,-4.948131E-4,-4.9553806E-4,1084.8845,0.0,0.0,0.0,0.0,0.0,0.0,0.0,0.0,0.0,0.0,0.0,0.0,0.0,-79.0064,0.018179517,23.03608,-0.003526839,0.0031383592,-0.004763449,542880.44,119984.89,0.012586708,0.012639451,7338.591,7439.0874,5975.7905,6035.7905,0.3046093,0.0,0.0,0.0
91.72185,91.72185,1.133,0.0,0.0,296.89752,10631.0,100.0,0.0,-0.078628674,0.0,8.0,1.0,0.0,4000000.0,110.0,1.0,0.0,0.0,10.0,0.0,1.0,360.3322,-42.241344,205.56137,0.030307412,0.35605088,0.03597188,302.27982,302.25244,296.73566,296.75974,379.0,378.0,419.0,409.0,89.0,89.0,89.0,89.0,0.0,0.0,0.0,0.0,0.04872981,0.04894397,0.052482024,0.0526293,-0.7054209,0.39070842,0.73045486,2.242103,-550.77814,-564.26965,-191.10736,-121.93321,0.0,0.0,0.0,2.0,1.0,-1.2864407,0.022539377,-7.520914E-4,89.0,89.0,89.0,89.0,22.047926,22.047926,24.919281,24.919281,0.018220486,0.018055184,-4.9586885E-4,-4.967034E-4,1087.6382,0.0,0.0,0.0,0.0,0.0,0.0,0.0,0.0,0.0,0.0,0.0,0.0,0.0,-79.17063,0.032789398,23.099016,-0.0044854498,0.003771174,-0.009068987,543234.5,119984.89,0.011781659,0.011668664,7439.033,7561.882,6035.437,6107.2705,0.30374813,0.0,0.0,0.0
95.84985,95.84985,1.183,0.0,0.0,297.5248,10651.0,100.0,0.0,-0.092688754,0.0,8.0,1.0,0.0,4000000.0,110.0,1.0,0.0,0.0,10.0,0.0,1.0,356.36935,-42.238873,206.71797,0.03271398,0.35362884,0.089989945,302.83887,302.811,297.36346,297.38797,378.0,376.0,417.0,407.0,89.0,89.0,89.0,89.0,0.0,0.0,0.0,0.0,0.04911209,0.049316186,0.052594777,0.05269851,2.13705,4.025325,2.1766124,1.8518417,-541.21606,-435.4566,-34.882133,20.357965,0.0,0.0,0.0,2.0,1.0,-1.2862508,0.02268288,-0.0011537075,89.0,89.0,89.0,89.0,22.047926,22.047926,24.919281,24.919281,0.017930713,0.017772086,-4.9402413E-4,-4.966529E-4,1090.3738,0.0,0.0,0.0,0.0,0.0,0.0,0.0,0.0,0.0,0.0,0.0,0.0,0.0,-79.33385,0.06855114,23.161625,-0.006059493,0.004030964,-0.0030616487,543578.2,119984.89,0.011223264,0.0105953915,7623.88,7745.025,6115.5073,6161.709,0.30293274,0.0,0.0,0.0
98.60666,98.60666,1.233,0.0,0.0,297.93616,10667.0,100.0,0.0,-0.09061413,0.0,8.0,1.0,0.0,4000000.0,110.0,1.0,0.0,0.0,10.0,0.0,1.0,353.72296,-42.236248,207.49078,0.033747353,0.348683,0.03945345,303.2883,303.25748,297.77515,297.80154,377.0,375.0,416.0,406.0,89.0,89.0,89.0,89.0,0.0,0.0,0.0,0.0,0.04892636,0.04914202,0.052532904,0.052652847,0.0,0.0,0.0,0.0,-102.86269,-63.192837,-40.997562,14.64486,0.0,0.0,0.0,2.0,1.0,-1.2861098,0.022866188,-0.001168251,89.0,89.0,89.0,89.0,22.047926,22.047926,24.919281,24.919281,0.01801836,0.017842207,-4.9237465E-4,-4.9423554E-4,1092.5629,0.0,0.0,0.0,0.0,0.0,0.0,0.0,0.0,0.0,0.0,0.0,0.0,0.0,-79.440605,0.085564986,23.203627,-0.00469499,0.0044764145,0.0039823423,543852.5,119984.9,0.011280104,0.010801,7543.339,7675.502,6029.9546,6088.6562,0.30300903,0.0,0.0,0.0
102.74889,102.74889,1.283,0.0,0.0,298.54718,10690.0,100.0,0.0,-0.07337506,0.0,8.0,1.0,0.0,4000000.0,110.0,1.0,0.0,0.0,10.0,0.0,1.0,349.7468,-42.231853,208.65263,0.033417165,0.34580073,-0.022377858,303.96622,303.9291,298.38583,298.41202,375.0,373.0,415.0,405.0,89.0,89.0,89.0,89.0,0.0,0.0,0.0,0.0,0.048591588,0.048834078,0.05249931,0.052595686,0.0,0.0,0.0,0.0,155.78265,250.5719,-29.262897,-78.77646,0.0,0.0,0.0,2.0,1.0,-1.2858897,0.02312117,-0.0010888577,89.0,89.0,89.0,89.0,22.047926,22.047926,24.919281,24.919281,0.01822456,0.018028064,-4.9281033E-4,-4.9142324E-4,1095.7506,0.0,0.0,0.0,0.0,0.0,0.0,0.0,0.0,0.0,0.0,0.0,0.0,0.0,-79.59889,0.08517187,23.267075,-0.005492579,0.0042374604,0.0013256654,544265.75,119984.89,0.01131451,0.011275098,7392.1655,7538.0547,6015.265,6052.283,0.30328178,0.0,0.0,0.0
108.2851,108.2851,1.333,0.0,0.0,299.3575,10718.0,100.0,0.0,-0.075384185,0.0,8.0,1.0,0.0,4000000.0,110.0,1.0,0.0,0.0,10.0,0.0,1.0,344.43292,-42.22633,210.2067,0.032564074,0.34167722,-0.0105639845,304.75238,304.71317,299.19888,299.2202,373.0,371.0,413.0,403.0,89.0,89.0,89.0,89.0,0.0,0.0,0.0,0.0,0.048756223,0.048985887,0.05249618,0.05257808,-1.9908694,-2.5328991,-1.9510834,-2.4890897,-228.93993,-152.10805,-125.3262,-160.11444,0.0,0.0,0.0,2.0,1.0,-1.285635,0.02352243,-0.0011212826,89.0,89.0,89.0,89.0,22.047926,22.047926,24.919281,24.919281,0.018081827,0.01789633,-4.9079757E-4,-4.911762E-4,1099.5935,0.0,0.0,0.0,0.0,0.0,0.0,0.0,0.0,0.0,0.0,0.0,0.0,0.0,-79.80886,0.08275514,23.351025,-0.005949147,0.0035271992,0.0034144563,544747.75,119984.9,0.011523516,0.011169374,7463.8545,7604.799,6002.3555,6035.919,0.3031988,0.0,0.0,0.0
111.05879,111.05879,1.383,0.0,0.0,299.75635,10734.0,100.0,0.0,-0.06033474,0.0,8.0,1.0,0.0,4000000.0,110.0,1.0,0.0,0.0,10.0,0.0,1.0,341.77075,-42.223785,210.98581,0.030759044,0.33753067,-0.08545244,305.21817,305.17285,299.59888,299.61945,372.0,370.0,412.0,402.0,89.0,89.0,89.0,89.0,0.0,0.0,0.0,0.0,0.04846918,0.048742738,0.05237008,0.052464537,0.0,0.0,0.0,0.0,-682.3941,-645.39307,-294.42606,-210.91548,0.0,0.0,0.0,2.0,1.0,-1.2855146,0.023749944,-9.646416E-4,89.0,89.0,89.0,89.0,22.047926,22.047926,24.919281,24.919281,0.018275566,0.018068098,-4.901029E-4,-4.8895046E-4,1101.8073,0.0,0.0,0.0,0.0,0.0,0.0,0.0,0.0,0.0,0.0,0.0,0.0,0.0,-79.91216,0.06579132,23.392527,-0.0033554893,0.0034787958,0.008623742,545030.8,119984.9,0.011357959,0.011253337,7296.1426,7451.5127,5867.133,5914.5938,0.30334568,0.0,0.0,0.0
115.22627,115.22627,1.433,0.0,0.0,300.358,10753.0,100.0,0.0,-0.07477073,0.0,8.0,1.0,0.0,4000000.0,110.0,1.0,0.0,0.0,10.0,0.0,1.0,337.77106,-42.22126,212.15709,0.03122513,0.3416066,-0.016118355,305.7555,305.7142,300.19757,300.22003,370.0,369.0,410.0,400.0,89.0,89.0,89.0,89.0,0.0,0.0,0.0,0.0,0.04875324,0.049015813,0.052565187,0.052624937,0.0,0.0,0.0,0.0,279.39224,378.2451,-3.7550924,73.94849,0.0,0.0,0.0,2.0,1.0,-1.2853312,0.024081418,-8.5914135E-4,89.0,89.0,89.0,89.0,22.047926,22.047926,24.919281,24.919281,0.018062925,0.017865326,-4.9177255E-4,-4.917657E-4,1104.4297,0.0,0.0,0.0,0.0,0.0,0.0,0.0,0.0,0.0,0.0,0.0,0.0,0.0,-80.06801,0.043380447,23.455082,-0.008457836,0.0036045164,-6.294234E-4,545362.7,119984.9,0.010215988,0.010247062,7459.292,7610.894,6123.8164,6150.711,0.30226994,0.0,0.0,0.0
120.795906,120.795906,1.483,0.0,0.0,301.15445,10778.0,100.0,0.0,-0.09051836,0.0,8.0,1.0,0.0,4000000.0,110.0,1.0,0.0,0.0,10.0,0.0,1.0,332.42596,-42.218067,213.72359,0.03197638,0.33445585,0.075761355,306.47104,306.43723,300.9963,301.01932,368.0,366.0,408.0,398.0,89.0,89.0,89.0,89.0,0.0,0.0,0.0,0.0,0.04925709,0.049466506,0.052692097,0.052779082,11.135637,9.393095,8.118376,8.157715,579.2766,527.7782,587.65857,549.35657,0.0,0.0,0.0,2.0,1.0,-1.2850888,0.024568886,-6.9630146E-4,89.0,89.0,89.0,89.0,22.047926,22.047926,24.919281,24.919281,0.01768207,0.017511945,-4.8544217E-4,-4.8838364E-4,1107.8948,0.0,0.0,0.0,0.0,0.0,0.0,0.0,0.0,0.0,0.0,0.0,0.0,0.0,-80.27473,0.060055014,23.536318,-0.0053200778,0.0040857466,0.010088357,545804.8,119984.9,0.010110053,0.009590983,7719.1714,7851.8066,6258.394,6295.718,0.3018551,0.0,0.0,0.0
124.98266,124.98266,1.533,0.0,0.0,301.73016,10805.0,100.0,0.0,-0.07356832,0.0,8.0,1.0,0.0,4000000.0,110.0,1.0,0.0,0.0,10.0,0.0,1.0,328.40826,-42.21559,214.902,0.030876152,0.32460517,-0.12882845,307.22723,307.1917,301.5731,301.59802,366.0,365.0,407.0,397.0,89.0,89.0,89.0,89.0,0.0,0.0,0.0,0.0,0.048386224,0.048608113,0.052332673,0.05248207,-16.265808,-17.35188,-6.262287,-6.001219,216.95044,121.03465,206.18138,137.57051,0.0,0.0,0.0,2.0,1.0,-1.2848638,0.024852721,7.867813E-6,89.0,89.0,89.0,89.0,22.047926,22.047926,24.919281,24.919281,0.018245583,0.018061988,-4.8246747E-4,-4.828014E-4,1111.6084,0.0,0.0,0.0,0.0,0.0,0.0,0.0,0.0,0.0,0.0,0.0,0.0,0.0,-80.4236,0.025504641,23.597033,0.0020492757,0.0045648967,0.018405871,546265.9,119984.9,0.011807167,0.011694066,7277.753,7407.745,5851.8647,5919.4214,0.30377007,0.0,0.0,0.0
129.1774,129.1774,1.583,0.0,0.0,302.30258,10824.0,100.0,0.0,-0.05663151,0.0,8.0,1.0,0.0,4000000.0,110.0,1.0,0.0,0.0,10.0,0.0,1.0,324.38315,-42.215588,216.08347,0.03128764,0.3249609,-0.09407038,307.77216,307.74423,302.14166,302.16788,365.0,363.0,405.0,395.0,89.0,89.0,89.0,89.0,0.0,0.0,0.0,0.0,0.048469424,0.048653714,0.052377373,0.052533686,11.596977,10.492578,-1.8656998,-2.009198,578.3647,558.7309,4.4658775,-27.264652,0.0,0.0,0.0,2.0,1.0,-1.2846352,0.024995018,1.9741058E-4,89.0,89.0,89.0,89.0,22.047926,22.047926,24.919281,24.919281,0.018190706,0.018027537,-4.856953E-4,-4.8322525E-4,1114.2506,0.0,0.0,0.0,0.0,0.0,0.0,0.0,0.0,0.0,0.0,0.0,0.0,0.0,-80.57122,-0.0227134,23.658659,-0.0026555383,0.0041672913,-6.030063E-4,546603.1,119984.9,0.013058406,0.012564058,7329.7646,7447.984,5932.2207,6001.9155,0.30493832,0.0,0.0,0.0
131.97824,131.97824,1.633,0.0,0.0,302.68195,10836.0,100.0,0.0,-0.07360747,0.0,8.0,1.0,0.0,4000000.0,110.0,1.0,0.0,0.0,10.0,0.0,1.0,321.69568,-42.216652,216.87282,0.03354585,0.3213579,-0.022847971,308.0958,308.0677,302.5218,302.54602,364.0,362.0,404.0,394.0,89.0,89.0,89.0,89.0,0.0,0.0,0.0,0.0,0.048746265,0.04894049,0.052483942,0.052645225,0.0,0.0,0.0,0.0,-14.376639,-76.21496,227.51836,273.33047,0.0,0.0,0.0,2.0,1.0,-1.2845029,0.02508039,1.2719631E-4,89.0,89.0,89.0,89.0,22.047926,22.047926,24.919281,24.919281,0.017980654,0.017823773,-4.832696E-4,-4.8349952E-4,1115.8926,0.0,0.0,0.0,0.0,0.0,0.0,0.0,0.0,0.0,0.0,0.0,0.0,0.0,-80.66914,-0.036167055,23.69919,-0.003591323,0.0038502554,-0.0037033788,546802.4,119984.89,0.013040057,0.012548347,7457.099,7574.372,6083.2847,6157.636,0.30508137,0.0,0.0,0.0
136.18597,136.18597,1.683,0.0,0.0,303.24487,10854.0,100.0,0.0,-0.08784028,0.0,8.0,1.0,0.0,4000000.0,110.0,1.0,0.0,0.0,10.0,0.0,1.0,317.65845,-42.21885,218.05939,0.035971135,0.32111186,-0.021383861,308.6255,308.59625,303.08316,303.10953,362.0,360.0,403.0,393.0,89.0,89.0,89.0,89.0,0.0,0.0,0.0,0.0,0.04880732,0.049036995,0.0525562,0.05270607,0.0,0.0,0.0,0.0,1702.5588,1818.7386,1162.4827,1277.2544,0.0,0.0,0.0,2.0,1.0,-1.2843004,0.025282336,-5.4001808E-5,89.0,89.0,89.0,89.0,22.047926,22.047926,24.919281,24.919281,0.0178446,0.017676273,-4.8327367E-4,-4.8492162E-4,1118.4108,0.0,0.0,0.0,0.0,0.0,0.0,0.0,0.0,0.0,0.0,0.0,0.0,0.0,-80.81416,-0.05364617,23.760262,-0.006376056,0.004277918,-0.0032536215,547127.5,119984.9,0.011717973,0.011387234,7541.9546,7670.931,6165.724,6237.2456,0.30405807,0.0,0.0,0.0
141.80827,141.80827,1.733,0.0,0.0,303.99133,10872.0,100.0,0.0,-0.048291758,0.0,8.0,1.0,0.0,4000000.0,110.0,1.0,0.0,0.0,10.0,0.0,1.0,312.26407,-42.21896,219.64613,0.032131582,0.3105093,0.29787314,309.1041,309.08542,303.83084,303.85318,360.0,358.0,401.0,391.0,89.0,89.0,89.0,89.0,0.0,0.0,0.0,0.0,0.05049071,0.05065381,0.05328312,0.053443827,-1.6593932,-1.9280611,1.1417269,1.8467008,-3378.2017,-3237.788,-1030.0352,-914.1503,0.0,0.0,0.0,2.0,1.0,-1.2840384,0.025534527,-0.0011360645,89.0,89.0,89.0,89.0,22.047926,22.047926,24.919281,24.919281,0.016874816,0.016756468,-4.8463352E-4,-4.8218435E-4,1120.8816,0.0,0.0,0.0,0.0,0.0,0.0,0.0,0.0,0.0,0.0,0.0,0.0,0.0,-81.0076,0.07922349,23.837372,-0.007009604,0.003232415,-0.010830878,547428.4,119984.89,0.010878973,0.009335645,8240.752,8359.725,6559.664,6636.5713,0.30269527,0.0,0.0,0.0
146.03374,146.03374,1.783,0.0,0.0,304.5172,10898.0,100.0,0.0,-0.09085766,0.0,8.0,1.0,0.0,4000000.0,110.0,1.0,0.0,0.0,10.0,0.0,1.0,308.2101,-42.213196,220.83946,0.03511265,0.2951377,0.03548153,309.86365,309.838,304.3596,304.38336,358.0,357.0,399.0,390.0,89.0,89.0,89.0,89.0,0.0,0.0,0.0,0.0,0.049170755,0.049349044,0.052907325,0.053099245,-24.896486,-25.213211,-3.827065,-3.9931383,182.80597,114.731476,404.78555,326.3041,0.0,0.0,0.0,2.0,1.0,-1.2838638,0.02566291,-0.0012397766,89.0,89.0,89.0,89.0,22.047926,22.047926,24.919281,24.919281,0.017579904,0.017433956,-4.714634E-4,-4.7473315E-4,1124.5065,0.0,0.0,0.0,0.0,0.0,0.0,0.0,0.0,0.0,0.0,0.0,0.0,0.0,-81.14331,0.1305836,23.893402,-0.0018617746,0.003998752,-8.060195E-5,547888.5,119984.89,0.01280796,0.012417798,7653.0957,7766.4043,6253.332,6337.628,0.30539894,0.0,0.0,0.0
150.26654,150.26654,1.833,0.0,0.0,305.0416,10920.0,100.0,0.0,-0.09727147,0.0,8.0,1.0,0.0,4000000.0,110.0,1.0,0.0,0.0,10.0,0.0,1.0,304.14938,-42.20704,222.03568,0.03736619,0.29789427,-0.13091701,310.50845,310.4726,304.8777,304.90686,357.0,355.0,398.0,388.0,89.0,89.0,89.0,89.0,0.0,0.0,0.0,0.0,0.04845555,0.0487198,0.052617308,0.0527838,-21.734385,-18.147602,-11.881067,-11.331662,-1154.0201,-1034.9303,-536.2271,-430.30676,0.0,0.0,0.0,2.0,1.0,-1.2836516,0.025786148,-0.0017365217,89.0,89.0,89.0,89.0,22.047926,22.047926,24.919281,24.919281,0.018045237,0.01784324,-4.7688896E-4,-4.7884975E-4,1127.5812,0.0,0.0,0.0,0.0,0.0,0.0,0.0,0.0,0.0,0.0,0.0,0.0,0.0,-81.27786,0.10448902,23.952251,-0.005254806,0.0045202556,-0.01203246,548279.75,119984.89,0.012687506,0.01277965,7281.456,7433.3975,5945.1147,6024.7607,0.30566406,0.0,0.0,0.0
153.0925,153.0925,1.883,0.0,0.0,305.40396,10926.0,100.0,0.0,-0.14581887,0.0,8.0,1.0,0.0,4000000.0,110.0,1.0,0.0,0.0,10.0,0.0,1.0,301.43842,-42.203503,222.83484,0.04713524,0.3096521,0.10744039,310.65875,310.61902,305.23178,305.27045,356.0,354.0,397.0,387.0,89.0,89.0,89.0,89.0,0.0,0.0,0.0,0.0,0.049547885,0.04996177,0.053023078,0.053101633,0.0,0.0,0.0,0.0,1015.14886,1690.328,158.894,186.65489,0.0,0.0,0.0,2.0,1.0,-1.2834786,0.025913028,-0.0025256872,89.0,89.0,89.0,89.0,22.047926,22.047926,24.919281,24.919281,0.017385345,0.017135438,-4.8094458E-4,-4.8555658E-4,1128.3947,0.0,0.0,0.0,0.0,0.0,0.0,0.0,0.0,0.0,0.0,0.0,0.0,0.0,-81.37036,0.11968206,23.99441,-0.013756689,0.0058309385,-0.027650453,548374.0,119984.89,0.010773022,0.010119383,7826.3613,8050.6045,6507.958,6535.1963,0.30303383,0.0,0.0,0.0
157.33769,157.33769,1.933,0.0,0.0,305.9376,10938.0,100.0,0.0,-0.10365087,0.0,8.0,1.0,0.0,4000000.0,110.0,1.0,0.0,0.0,10.0,0.0,1.0,297.3662,-42.193398,224.0361,0.04454425,0.29407996,0.369803,310.99603,310.96918,305.7714,305.80392,354.0,353.0,395.0,386.0,89.0,89.0,89.0,89.0,0.0,0.0,0.0,0.0,0.05081822,0.051075112,0.053679783,0.053691573,0.0,0.0,0.0,0.0,-3458.6677,-3249.2275,-1049.8568,-1028.1173,0.0,0.0,0.0,2.0,1.0,-1.2832171,0.026264492,-0.0037699938,89.0,89.0,89.0,89.0,22.047926,22.047926,24.919281,24.919281,0.016593069,0.016422931,-4.7890536E-4,-4.798977E-4,1130.0743,0.0,0.0,0.0,0.0,0.0,0.0,0.0,0.0,0.0,0.0,0.0,0.0,0.0,-81.50747,0.2885611,24.05207,-0.015987009,0.005009803,-0.011904303,548587.75,119984.89,0.009400261,0.008111675,8428.695,8609.936,6825.7144,6830.616,0.30129814,0.0,0.0,0.0
163.00899,163.00899,1.983,0.0,0.0,306.60834,10972.0,100.0,0.0,-0.09534886,0.0,8.0,1.0,0.0,4000000.0,110.0,1.0,0.0,0.0,10.0,0.0,1.0,291.92645,-42.170113,225.6424,0.047689356,0.28382528,-0.01950397,311.96634,311.9225,306.44272,306.4816,352.0,351.0,393.0,384.0,89.0,89.0,89.0,89.0,0.0,0.0,0.0,0.0,0.049058985,0.04941134,0.052997503,0.053143367,-21.178944,-23.034586,-11.046677,-10.773986,667.38715,484.76895,39.079796,-82.491356,0.0,0.0,0.0,2.0,1.0,-1.2827898,0.027084595,-0.0040533543,89.0,89.0,89.0,89.0,22.047926,22.047926,24.919281,24.919281,0.01754025,0.01729377,-4.7154736E-4,-4.6894362E-4,1134.7966,0.0,0.0,0.0,0.0,0.0,0.0,0.0,0.0,0.0,0.0,0.0,0.0,0.0,-81.67722,0.3660463,24.13407,-0.008147773,0.006270714,-1.10333785E-4,549173.06,119984.9,0.0121303275,0.011661691,7621.84,7826.677,6223.9297,6288.14,0.30423546,0.0,0.0,0.0
167.27065,167.27065,2.033,0.0,0.0,307.11923,10991.0,100.0,0.0,-0.13212593,0.0,8.0,1.0,0.0,4000000.0,110.0,1.0,0.0,0.0,10.0,0.0,1.0,287.8392,-42.15356,226.85085,0.054492414,0.2936067,-0.039936893,312.50287,312.46176,306.94864,306.99152,350.0,349.0,392.0,382.0,89.0,89.0,89.0,89.0,0.0,0.0,0.0,0.0,0.048912495,0.049259156,0.0527421,0.052979466,22.995693,25.343744,4.3771415,8.401349,1421.3291,1419.5455,411.37036,420.42282,0.0,0.0,0.0,2.0,1.0,-1.2824637,0.027647397,-0.004293561,89.0,89.0,89.0,89.0,22.047926,22.047926,24.919281,24.919281,0.01767664,0.017422728,-4.7385105E-4,-4.7654295E-4,1137.4448,0.0,0.0,0.0,0.0,0.0,0.0,0.0,0.0,0.0,0.0,0.0,0.0,0.0,-81.80575,0.31404114,24.200628,-0.012362468,0.0068709883,-0.010763437,549503.06,119984.89,0.011451104,0.011213499,7557.2305,7750.46,6264.952,6381.1836,0.3035698,0.0,0.0,0.0
170.11569,170.11569,2.083,0.0,0.0,307.464,10993.0,100.0,0.0,-0.092562854,0.0,8.0,1.0,0.0,4000000.0,110.0,1.0,0.0,0.0,10.0,0.0,1.0,285.11078,-42.142235,227.65828,0.050411686,0.290742,0.3912846,312.54407,312.52618,307.29285,307.3308,349.0,348.0,391.0,382.0,89.0,89.0,89.0,89.0,0.0,0.0,0.0,0.0,0.050924625,0.05112556,0.05358288,0.0538357,0.0,0.0,0.0,0.0,3228.8293,2875.5825,1919.7506,1580.0085,0.0,0.0,0.0,2.0,1.0,-1.282261,0.027719913,-0.005069375,89.0,89.0,89.0,89.0,22.047926,22.047926,24.919281,24.919281,0.016644947,0.016483625,-4.7542097E-4,-4.7528776E-4,1137.7285,0.0,0.0,0.0,0.0,0.0,0.0,0.0,0.0,0.0,0.0,0.0,0.0,0.0,-81.89314,0.38877812,24.241709,-0.009438559,0.0052587464,-0.03477912,549540.1,119984.89,0.010694784,0.009386604,8484.459,8646.045,7150.062,7256.6523,0.30249023,0.0,0.0,0.0
174.389,174.389,2.133,0.0,0.0,307.9446,11013.0,100.0,0.0,-0.14617291,0.0,8.0,1.0,0.0,4000000.0,110.0,1.0,0.0,0.0,10.0,0.0,1.0,281.01288,-42.118423,228.87193,0.0585631,0.26259705,0.19144331,313.13742,313.1227,307.7774,307.82202,348.0,346.0,389.0,380.0,89.0,89.0,89.0,89.0,0.0,0.0,0.0,0.0,0.050094157,0.050309416,0.053285107,0.05359701,0.0,0.0,0.0,0.0,-838.1903,-889.313,163.29288,167.81238,0.0,0.0,0.0,2.0,1.0,-1.2819494,0.027798953,-0.005910158,89.0,89.0,89.0,89.0,22.047926,22.047926,24.919281,24.919281,0.016891776,0.016723633,-4.6008342E-4,-4.6570748E-4,1140.0719,0.0,0.0,0.0,0.0,0.0,0.0,0.0,0.0,0.0,0.0,0.0,0.0,0.0,-82.01375,0.5314884,24.301905,-0.0029123495,0.0074656657,-0.004989364,549672.0,119984.89,0.013622066,0.012131363,8090.4805,8232.397,6475.039,6622.0605,0.30578518,0.0,0.0,0.0
180.09674,180.09674,2.183,0.0,0.0,308.55383,11049.0,100.0,0.0,-0.13592699,0.0,8.0,1.0,0.0,4000000.0,110.0,1.0,0.0,0.0,10.0,0.0,1.0,275.53998,-42.082047,230.49483,0.05663275,0.25349754,-0.31057736,314.16592,314.12827,308.38828,308.42447,346.0,344.0,387.0,378.0,89.0,89.0,89.0,89.0,0.0,0.0,0.0,0.0,0.047966067,0.048204187,0.052481383,0.052761115,-77.72326,-73.45989,-37.67475,-36.524754,-4755.69,-4417.732,-2625.1177,-2394.609,0.0,0.0,0.0,2.0,1.0,-1.2815629,0.027708251,-0.006914377,89.0,89.0,89.0,89.0,22.047926,22.047926,24.919281,24.919281,0.018302375,0.018083459,-4.5535434E-4,-4.622329E-4,1143.8773,0.0,0.0,0.0,0.0,0.0,0.0,0.0,0.0,0.0,0.0,0.0,0.0,0.0,-82.1661,0.5152732,24.383759,-0.0047853496,0.005705421,-0.018317483,549709.8,119984.89,0.014831987,0.015041488,6894.754,7050.452,5552.585,5688.15,0.30729866,0.0,0.0,0.0
184.38559,184.38559,2.233,0.0,0.0,309.05515,11046.0,100.0,0.0,-0.03301638,0.0,8.0,1.0,0.0,4000000.0,110.0,1.0,0.0,0.0,10.0,0.0,1.0,271.42838,-42.055725,231.71579,0.05026265,0.2855889,0.4471497,314.06265,314.04205,308.87677,308.91638,344.0,343.0,386.0,377.0,89.0,89.0,89.0,89.0,0.0,0.0,0.0,0.0,0.05134762,0.05159687,0.05377185,0.053973064,72.74866,73.60451,32.888798,31.322386,-1324.7025,-1141.5614,-238.5958,-193.10553,0.0,0.0,0.0,2.0,1.0,-1.2812645,0.027796835,-0.009002566,89.0,89.0,89.0,89.0,22.047926,22.047926,24.919281,24.919281,0.016405826,0.016238483,-4.8881775E-4,-4.7807622E-4,1143.5607,0.0,0.0,0.0,0.0,0.0,0.0,0.0,0.0,0.0,0.0,0.0,0.0,0.0,-82.29172,0.6008061,24.447958,-0.020540483,0.0044240947,-0.057511322,549706.9,119984.91,0.008917016,0.0074898526,8561.185,8736.694,7226.8213,7313.9863,0.3009529,0.0,0.0,0.0
187.24858,187.24858,2.283,0.0,0.0,309.3712,11048.0,100.0,0.0,-0.034028433,0.0,8.0,1.0,0.0,4000000.0,110.0,1.0,0.0,0.0,10.0,0.0,1.0,268.68387,-42.030754,232.53133,0.04682854,0.26567715,0.8648812,314.10007,314.07422,309.20914,309.23077,343.0,342.0,385.0,376.0,89.0,89.0,89.0,89.0,0.0,0.0,0.0,0.0,0.053091697,0.053297035,0.05460146,0.05476222,0.0,0.0,0.0,0.0,-8653.69,-8605.854,-1869.1373,-1867.0721,0.0,0.0,0.0,2.0,1.0,-1.2811577,0.027916823,-0.010534883,89.0,89.0,89.0,89.0,22.047926,22.047926,24.919281,24.919281,0.015312442,0.015186296,-4.8303994E-4,-4.76946E-4,1143.771,0.0,0.0,0.0,0.0,0.0,0.0,0.0,0.0,0.0,0.0,0.0,0.0,0.0,-82.37125,0.8762591,24.480223,-0.010633977,0.0026493543,-0.019248432,549708.44,119984.89,0.008641017,0.0057887957,9549.689,9714.908,7488.732,7557.152,0.30100727,0.0,0.0,0.0
191.54793,191.54793,2.333,0.0,0.0,309.79123,11079.0,100.0,0.0,-0.052227523,0.0,8.0,1.0,0.0,4000000.0,110.0,1.0,0.0,0.0,10.0,0.0,1.0,264.56256,-41.981297,233.75658,0.039076794,0.24028234,0.104739696,315.01898,314.97925,309.63763,309.6551,342.0,340.0,384.0,375.0,89.0,89.0,89.0,89.0,0.0,0.0,0.0,0.0,0.04985493,0.050115075,0.053774662,0.05392994,0.0,0.0,0.0,0.0,2078.1216,1998.6078,36.93397,-37.819057,0.0,0.0,0.0,2.0,1.0,-1.281024,0.028226383,-0.011158466,89.0,89.0,89.0,89.0,22.047926,22.047926,24.919281,24.919281,0.016859105,0.016696658,-4.5657688E-4,-4.553409E-4,1147.0504,0.0,0.0,0.0,0.0,0.0,0.0,0.0,0.0,0.0,0.0,0.0,0.0,0.0,-82.476524,1.0359529,24.529366,-0.0090618525,0.002398896,-0.010657038,549742.06,119984.9,0.0122405905,0.012169488,8037.3193,8197.246,6582.0605,6646.968,0.3052826,0.0,0.0,0.0
197.28967,197.28967,2.383,0.0,0.0,310.38974,11099.0,100.0,0.0,-0.20218715,0.0,8.0,1.0,0.0,4000000.0,110.0,1.0,0.0,0.0,10.0,0.0,1.0,259.0591,-41.913254,235.39468,0.06264041,0.2681367,0.15435593,315.5602,315.539,310.2031,310.26868,340.0,338.0,382.0,373.0,89.0,89.0,89.0,89.0,0.0,0.0,0.0,0.0,0.050153233,0.05054058,0.05331028,0.05354913,68.783905,69.74235,14.792381,17.248615,1897.3273,1643.4564,1181.5665,1163.1263,0.0,0.0,0.0,2.0,1.0,-1.2805893,0.028896907,-0.013368607,89.0,89.0,89.0,89.0,22.047926,22.047926,24.919281,24.919281,0.016882226,0.016623257,-4.6749486E-4,-4.740928E-4,1149.1646,0.0,0.0,0.0,0.0,0.0,0.0,0.0,0.0,0.0,0.0,0.0,0.0,0.0,-82.62519,1.0268853,24.613066,-0.021995138,0.010011012,-0.043199323,549762.8,119984.91,0.010042448,0.0094478605,8077.9688,8299.706,6738.494,6851.3896,0.30286407,0.0,0.0,0.0
201.60345,201.60345,2.433,0.0,0.0,310.84814,11105.0,100.0,0.0,-0.11594591,0.0,8.0,1.0,0.0,4000000.0,110.0,1.0,0.0,0.0,10.0,0.0,1.0,254.9248,-41.856182,236.6269,0.06608644,0.25079253,0.60115325,315.72787,315.70566,310.67172,310.72705,338.0,337.0,380.0,371.0,89.0,89.0,89.0,89.0,0.0,0.0,0.0,0.0,0.051993605,0.052282207,0.054186076,0.0543522,-11.095851,-9.370073,11.089146,11.219233,-5169.1255,-4771.4346,-894.14105,-614.3465,0.0,0.0,0.0,2.0,1.0,-1.280122,0.029274758,-0.015098214,89.0,89.0,89.0,89.0,22.047926,22.047926,24.919281,24.919281,0.015766539,0.015551326,-4.7293722E-4,-4.6900715E-4,1149.7994,0.0,0.0,0.0,0.0,0.0,0.0,0.0,0.0,0.0,0.0,0.0,0.0,0.0,-82.737175,1.27323,24.671703,-0.014514133,0.00876554,-0.010206389,549769.4,119984.91,0.008310669,0.0063359365,9023.204,9244.195,7249.498,7328.7695,0.30072403,0.0,0.0,0.0
205.92303,205.92303,2.483,0.0,0.0,311.26334,11131.0,100.0,0.0,-0.10611853,0.0,8.0,1.0,0.0,4000000.0,110.0,1.0,0.0,0.0,10.0,0.0,1.0,250.7853,-41.78853,237.86205,0.0648894,0.23577148,0.08904993,316.488,316.44696,311.09738,311.14023,337.0,335.0,379.0,370.0,89.0,89.0,89.0,89.0,0.0,0.0,0.0,0.0,0.049831636,0.05018126,0.05361786,0.0538422,-31.052155,-31.378937,-12.488141,-12.753009,1069.3297,990.00336,288.6996,182.45726,0.0,0.0,0.0,2.0,1.0,-1.2797391,0.029737348,-0.015514016,89.0,89.0,89.0,89.0,22.047926,22.047926,24.919281,24.919281,0.016823541,0.016586157,-4.555262E-4,-4.5389382E-4,1152.5497,0.0,0.0,0.0,0.0,0.0,0.0,0.0,0.0,0.0,0.0,0.0,0.0,0.0,-82.83773,1.3885411,24.731892,-0.009595124,0.0068054814,-0.0061767343,549797.1,119984.91,0.010892037,0.010582085,8006.046,8228.743,6609.1523,6707.131,0.3037777,0.0,0.0,0.0
210.2483,210.2483,2.533,0.0,0.0,311.68564,11151.0,100.0,0.0,-0.25782096,0.0,8.0,1.0,0.0,4000000.0,110.0,1.0,0.0,0.0,10.0,0.0,1.0,246.6408,-41.719284,239.10045,0.08399828,0.24224217,-0.14893915,317.0698,317.0168,311.50723,311.57047,335.0,334.0,377.0,369.0,89.0,89.0,89.0,89.0,0.0,0.0,0.0,0.0,0.048835617,0.04933485,0.052899137,0.053220067,-22.7686,-15.209465,-21.523384,-15.859455,-637.22577,-267.16138,-639.1703,-326.398,0.0,0.0,0.0,2.0,1.0,-1.2793282,0.030125892,-0.016302347,89.0,89.0,89.0,89.0,22.047926,22.047926,24.919281,24.919281,0.01744933,0.017081799,-4.50686E-4,-4.6418866E-4,1154.6655,0.0,0.0,0.0,0.0,0.0,0.0,0.0,0.0,0.0,0.0,0.0,0.0,0.0,-82.93948,1.3650603,24.802448,-0.007083008,0.010694555,-0.012992608,549818.56,119984.9,0.011688771,0.011395104,7471.5566,7768.265,6045.607,6217.1147,0.30396366,0.0,0.0,0.0
213.13518,213.13518,2.583,0.0,0.0,311.98065,11156.0,100.0,0.0,-0.3927648,0.0,8.0,1.0,0.0,4000000.0,110.0,1.0,0.0,0.0,10.0,0.0,1.0,243.8749,-41.67383,239.92818,0.10908122,0.25142807,0.07998799,317.18613,317.16504,311.78015,311.88263,334.0,333.0,376.0,368.0,89.0,89.0,89.0,89.0,0.0,0.0,0.0,0.0,0.04983669,0.05028275,0.053188726,0.053404152,0.0,0.0,0.0,0.0,662.3713,871.5837,364.32437,449.98074,0.0,0.0,0.0,2.0,1.0,-1.278857,0.030342432,-0.01692903,89.0,89.0,89.0,89.0,22.047926,22.047926,24.919281,24.919281,0.016933762,0.016563313,-4.5249064E-4,-4.733802E-4,1155.1941,0.0,0.0,0.0,0.0,0.0,0.0,0.0,0.0,0.0,0.0,0.0,0.0,0.0,-83.00838,1.3740696,24.857605,-0.018753111,0.017606577,-0.01786642,549823.7,119984.91,0.010164418,0.009324226,7955.88,8251.8545,6604.6113,6694.9014,0.30208683,0.0,0.0,0.0
217.47041,217.47041,2.633,0.0,0.0,312.4032,11161.0,100.0,0.0,-0.6394725,0.0,8.0,1.0,0.0,4000000.0,110.0,1.0,0.0,0.0,10.0,0.0,1.0,239.72205,-41.599796,241.17361,0.18348968,0.23088317,0.5783,317.31143,317.3094,312.15637,312.3531,333.0,331.0,375.0,366.0,89.0,89.0,89.0,89.0,0.0,0.0,0.0,0.0,0.05168092,0.05264389,0.054162472,0.054643698,0.0,0.0,0.0,0.0,-9351.038,-8421.371,-4072.0354,-3791.7043,0.0,0.0,0.0,2.0,1.0,-1.2775553,0.03175372,-0.018330812,89.0,89.0,89.0,89.0,22.047926,22.047926,24.919281,24.919281,0.016016182,0.015445135,-4.4563552E-4,-4.7376263E-4,1155.7231,0.0,0.0,0.0,0.0,0.0,0.0,0.0,0.0,0.0,0.0,0.0,0.0,0.0,-83.09655,1.6135879,24.957884,-0.03500058,0.034127187,-0.012954026,549829.06,119984.9,0.011695558,0.009040497,8773.344,9303.834,7067.131,7311.7305,0.3031578,0.0,0.0,0.0
223.2587,223.2587,2.683,0.0,0.0,312.89023,11193.0,100.0,0.0,-0.73826134,0.0,8.0,1.0,0.0,4000000.0,110.0,1.0,0.0,0.0,10.0,0.0,1.0,234.17924,-41.487545,242.84344,0.27227765,0.21140894,0.013342719,318.24185,318.2251,312.6055,312.8771,331.0,329.0,373.0,364.0,89.0,89.0,89.0,89.0,0.0,0.0,0.0,0.0,0.04865588,0.049761012,0.05322641,0.053893715,-11.682584,-7.036104,-8.602737,-0.031292435,2710.2244,2560.852,254.90373,551.12683,0.0,0.0,0.0,2.0,1.0,-1.2748752,0.033589657,-0.019451857,89.0,89.0,89.0,89.0,22.047926,22.047926,24.919281,24.919281,0.017572293,0.016740082,-4.3454472E-4,-4.5281654E-4,1159.1088,0.0,0.0,0.0,0.0,0.0,0.0,0.0,0.0,0.0,0.0,0.0,0.0,0.0,-83.18087,1.7053491,25.140987,-0.04262773,0.0457583,-0.029249009,549863.25,119984.91,0.015650185,0.016232966,7461.9453,8127.773,6478.9863,6807.09,0.31005096,0.0,0.0,0.0
226.15709,226.15709,2.733,0.0,0.0,313.15347,11201.0,100.0,0.0,-0.6724427,0.0,8.0,1.0,0.0,4000000.0,110.0,1.0,0.0,0.0,10.0,0.0,1.0,231.4058,-41.43198,243.68355,0.30451477,0.23756461,-0.026012877,318.4648,318.4441,312.8564,313.1376,330.0,328.0,372.0,364.0,89.0,89.0,89.0,89.0,0.0,0.0,0.0,0.0,0.0484562,0.049950164,0.052896265,0.053720042,0.0,0.0,0.0,0.0,6698.642,6890.7417,3244.386,2560.7046,0.0,0.0,0.0,2.0,1.0,-1.2733445,0.034436673,-0.021025062,89.0,89.0,89.0,89.0,22.047926,22.047926,24.919281,24.919281,0.017549636,0.016673822,-4.5529328E-4,-4.5808766E-4,1159.9547,0.0,0.0,0.0,0.0,0.0,0.0,0.0,0.0,0.0,0.0,0.0,0.0,0.0,-83.22311,1.6592685,25.256947,-0.043413803,0.04576854,-0.053111188,549871.56,119984.9,0.011953156,0.012375412,7538.7334,8274.338,6534.2803,6893.5596,0.30661488,0.0,0.0,0.0
230.51042,230.51042,2.783,0.0,0.0,313.56918,11191.0,100.0,0.0,-0.8094972,0.0,8.0,1.0,0.0,4000000.0,110.0,1.0,0.0,0.0,10.0,0.0,1.0,227.24295,-41.342392,244.95103,0.3613831,0.22715145,1.152912,318.1338,318.157,313.2751,313.53738,328.0,327.0,371.0,362.0,89.0,89.0,89.0,89.0,0.0,0.0,0.0,0.0,0.054144904,0.055260893,0.055211157,0.055834904,0.0,0.0,0.0,0.0,-249.21751,2298.6528,1410.721,2339.7842,0.0,0.0,0.0,2.0,1.0,-1.2712493,0.03585593,-0.024659872,89.0,89.0,89.0,89.0,22.047926,22.047926,24.919281,24.919281,0.014961442,0.014312253,-4.5804476E-4,-4.8131627E-4,1158.8965,0.0,0.0,0.0,0.0,0.0,0.0,0.0,0.0,0.0,0.0,0.0,0.0,0.0,-83.282364,2.0056407,25.43383,-0.07550752,0.043738138,-0.04734232,549860.8,119984.91,0.0056127585,0.0027520806,10000.585,10824.471,8414.746,8687.713,0.29835606,0.0,0.0,0.0
236.32195,236.32195,2.833,0.0,0.0,314.02002,11230.0,100.0,0.0,-0.94548213,0.0,8.0,1.0,0.0,4000000.0,110.0,1.0,0.0,0.0,10.0,0.0,1.0,221.68935,-41.190628,246.65562,0.41446865,0.18322016,0.040555082,319.33554,319.2418,313.706,314.04556,326.0,325.0,369.0,360.0,89.0,89.0,89.0,89.0,0.0,0.0,0.0,0.0,0.04903895,0.050939143,0.053507395,0.05448808,-93.13992,-72.967255,-40.911285,-41.056793,-149.989,238.11308,-453.26657,-317.49295,0.0,0.0,0.0,2.0,1.0,-1.2677939,0.03864859,-0.025941372,89.0,89.0,89.0,89.0,22.047926,22.047926,24.919281,24.919281,0.017330684,0.016084224,-4.1865773E-4,-4.3806323E-4,1163.024,0.0,0.0,0.0,0.0,0.0,0.0,0.0,0.0,0.0,0.0,0.0,0.0,0.0,-83.320786,2.3813052,25.703363,-0.035868783,0.05857203,0.009015979,549902.8,119984.9,0.014651674,0.013265774,7494.4644,8630.209,6274.5166,6707.0957,0.30661392,0.0,0.0,0.0
240.68558,240.68558,2.883,0.0,0.0,314.346,11263.0,100.0,0.0,-1.1042056,0.0,8.0,1.0,0.0,4000000.0,110.0,1.0,0.0,0.0,10.0,0.0,1.0,217.52277,-41.07375,247.94724,0.4662593,0.18512897,-0.6562945,320.35507,320.13168,313.9962,314.40112,325.0,324.0,368.0,359.0,89.0,89.0,89.0,89.0,0.0,0.0,0.0,0.0,0.045594588,0.047819406,0.05195417,0.052415386,-121.95959,-102.1432,-50.681454,-70.72024,-5151.825,-4481.3535,-2282.9753,-3024.968,0.0,0.0,0.0,2.0,1.0,-1.2645864,0.04175406,-0.026457429,89.0,89.0,89.0,89.0,22.047926,22.047926,24.919281,24.919281,0.01976061,0.017982705,-4.1391005E-4,-4.3260504E-4,1166.5166,0.0,0.0,0.0,0.0,0.0,0.0,0.0,0.0,0.0,0.0,0.0,0.0,0.0,-83.34218,2.2426856,25.952713,-0.101055235,0.071193,0.022070581,549938.1,119984.92,0.017710885,0.018275432,5797.3857,6952.8945,4987.846,5127.171,0.3105831,0.0,0.0,0.0
245.05417,245.05417,2.933,0.0,0.0,314.7356,11248.0,100.0,0.0,-1.2004981,0.0,8.0,1.0,0.0,4000000.0,110.0,1.0,0.0,0.0,10.0,0.0,1.0,213.35492,-40.962677,249.25224,0.5711424,0.22117563,0.40070635,319.9046,319.66522,314.34048,314.78812,323.0,322.0,366.0,358.0,89.0,89.0,89.0,89.0,0.0,0.0,0.0,0.0,0.049440414,0.05343704,0.053136893,0.0553314,165.02513,127.42147,40.4942,49.80057,4897.23,-1547.4462,179.02403,-2236.4658,0.0,0.0,0.0,2.0,1.0,-1.261058,0.047044948,-0.02900672,89.0,89.0,89.0,89.0,22.047926,22.047926,24.919281,24.919281,0.017243562,0.0152693475,-4.5461656E-4,-4.660135E-4,1164.9283,0.0,0.0,0.0,0.0,0.0,0.0,0.0,0.0,0.0,0.0,0.0,0.0,0.0,-83.36616,2.2850883,26.234785,-0.07548033,0.072492756,-0.077125825,549921.75,119984.91,0.0089656655,0.008380991,7706.5527,9580.292,7183.6113,7955.04,0.30171776,0.0,0.0,0.0
249.42725,249.42725,2.983,0.0,0.0,315.0852,11249.0,100.0,0.0,-0.91171277,0.0,8.0,1.0,0.0,4000000.0,110.0,1.0,0.0,0.0,10.0,0.0,1.0,209.18637,-40.83471,250.571,0.5516319,0.17520967,0.8655618,319.7794,319.8239,314.73807,315.119,322.0,321.0,365.0,356.0,89.0,89.0,89.0,89.0,0.0,0.0,0.0,0.0,0.052618574,0.05386379,0.055272736,0.05585724,-105.73178,-40.98862,-6.2005963,3.2575426,-7641.13,1151.7808,-4726.494,754.8808,0.0,0.0,0.0,2.0,1.0,-1.2577718,0.047115453,-0.03185165,89.0,89.0,89.0,89.0,22.047926,22.047926,24.919281,24.919281,0.015303566,0.014480793,-4.5244652E-4,-4.50633E-4,1165.0338,0.0,0.0,0.0,0.0,0.0,0.0,0.0,0.0,0.0,0.0,0.0,0.0,0.0,-83.36938,2.791449,26.498058,-0.07912967,0.064849034,0.002632821,549922.7,119984.9,0.0065131453,0.00532831,9365.686,10383.678,7788.0327,8172.2363,0.2990017,0.0,0.0,0.0
252.34457,252.34457,3.033,0.0,0.0,315.2865,11268.0,100.0,0.0,-0.8274583,0.0,8.0,1.0,0.0,4000000.0,110.0,1.0,0.0,0.0,10.0,0.0,1.0,206.40749,-40.738766,251.45752,0.5445975,0.17484759,0.28020298,320.39612,320.3196,314.95575,315.31284,321.0,320.0,364.0,355.0,89.0,89.0,89.0,89.0,0.0,0.0,0.0,0.0,0.049990173,0.052020174,0.053815037,0.05580354,0.0,0.0,0.0,0.0,3226.0266,-647.64606,115.8982,-197.1021,0.0,0.0,0.0,2.0,1.0,-1.2557448,0.049122207,-0.032508373,89.0,89.0,89.0,89.0,22.047926,22.047926,24.919281,24.919281,0.016626965,0.015435874,-4.3450118E-4,-4.3991476E-4,1167.045,0.0,0.0,0.0,0.0,0.0,0.0,0.0,0.0,0.0,0.0,0.0,0.0,0.0,-83.365685,2.9307694,26.678755,-0.035834115,0.05973666,-0.010102411,549943.1,119984.9,0.008545457,0.009088409,8019.7705,9270.342,6719.3486,7742.7163,0.30245304,0.0,0.0,0.0
256.7238,256.7238,3.083,0.0,0.0,315.61636,11284.0,100.0,0.0,-0.51806074,0.0,8.0,1.0,0.0,4000000.0,110.0,1.0,0.0,0.0,10.0,0.0,1.0,202.23898,-40.591415,252.79831,0.46767047,0.2013244,0.0065292884,320.84988,320.79233,315.33316,315.59027,320.0,318.0,363.0,354.0,89.0,89.0,89.0,89.0,0.0,0.0,0.0,0.0,0.0494526,0.05059244,0.052776206,0.054841813,0.0,0.0,0.0,0.0,4392.546,3936.6775,1009.85156,204.22346,0.0,0.0,0.0,2.0,1.0,-1.2533113,0.048342597,-0.034428954,89.0,89.0,89.0,89.0,22.047926,22.047926,24.919281,24.919281,0.017012877,0.016161665,-4.5080503E-4,-4.3617524E-4,1168.7388,0.0,0.0,0.0,0.0,0.0,0.0,0.0,0.0,0.0,0.0,0.0,0.0,0.0,-83.37867,2.953076,26.935452,0.023477202,0.038214322,-0.05749049,549960.4,119984.9,0.0095668975,0.009514901,7760.218,8655.432,6260.168,7148.0957,0.30226994,0.0,0.0,0.0
261.10748,261.10748,3.133,0.0,0.0,315.9722,11286.0,100.0,0.0,-0.32055217,0.0,8.0,1.0,0.0,4000000.0,110.0,1.0,0.0,0.0,10.0,0.0,1.0,198.06934,-40.440815,254.15114,0.39954472,0.19847715,0.5693089,320.88312,320.83765,315.73697,315.9042,318.0,317.0,361.0,353.0,89.0,89.0,89.0,89.0,0.0,0.0,0.0,0.0,0.051805753,0.05269206,0.053587746,0.055271707,0.0,0.0,0.0,0.0,2301.201,3602.1257,2290.8074,2613.3564,0.0,0.0,0.0,2.0,1.0,-1.2516937,0.046958867,-0.036110997,89.0,89.0,89.0,89.0,22.047926,22.047926,24.919281,24.919281,0.015776224,0.0152367,-4.5638237E-4,-4.443581E-4,1168.9498,0.0,0.0,0.0,0.0,0.0,0.0,0.0,0.0,0.0,0.0,0.0,0.0,0.0,-83.405365,3.112541,27.155834,0.008965246,0.024789337,-0.033743896,549962.2,119984.91,0.008602846,0.0066195405,8942.174,9609.085,7281.0703,8102.2744,0.30076027,0.0,0.0,0.0
265.49716,265.49716,3.183,0.0,0.0,316.28595,11306.0,100.0,0.0,-0.24322194,0.0,8.0,1.0,0.0,4000000.0,110.0,1.0,0.0,0.0,10.0,0.0,1.0,193.89835,-40.279736,255.51361,0.3015658,0.17436999,0.12552743,321.47052,321.4007,316.0998,316.1896,317.0,316.0,360.0,352.0,89.0,89.0,89.0,89.0,0.0,0.0,0.0,0.0,0.05020331,0.050809033,0.05316647,0.05459332,0.0,0.0,0.0,0.0,-159.69862,878.9195,-76.764786,-169.43515,0.0,0.0,0.0,2.0,1.0,-1.2507553,0.045521483,-0.03678906,89.0,89.0,89.0,89.0,22.047926,22.047926,24.919281,24.919281,0.01646121,0.016049583,-4.3289116E-4,-4.3060404E-4,1171.0665,0.0,0.0,0.0,0.0,0.0,0.0,0.0,0.0,0.0,0.0,0.0,0.0,0.0,-83.434364,3.2740746,27.329027,0.024967462,0.013083465,-0.0110970205,549983.44,119984.91,0.013091742,0.011454674,8111.267,8633.891,6361.782,6973.2593,0.30555344,0.0,0.0,0.0
271.3566,271.3566,3.233,0.0,0.0,316.6943,11332.0,100.0,0.0,-0.035869375,0.0,8.0,1.0,0.0,4000000.0,110.0,1.0,0.0,0.0,10.0,0.0,1.0,188.33401,-40.061333,257.34177,0.16759226,0.17515227,-0.3248404,322.2274,322.1519,316.5488,316.55463,315.0,314.0,358.0,350.0,89.0,89.0,89.0,89.0,0.0,0.0,0.0,0.0,0.048400596,0.04875457,0.052391943,0.053450033,-64.79211,-64.56099,-33.7328,-34.157482,-4695.5415,-4583.4517,-1903.4965,-1490.6643,0.0,0.0,0.0,2.0,1.0,-1.2504014,0.043635458,-0.037935257,89.0,89.0,89.0,89.0,22.047926,22.047926,24.919281,24.919281,0.017567655,0.017346613,-4.3112607E-4,-4.2881654E-4,1173.8192,0.0,0.0,0.0,0.0,0.0,0.0,0.0,0.0,0.0,0.0,0.0,0.0,0.0,-83.499565,3.2353988,27.498875,0.02316376,-0.0018071494,-0.026599303,550011.4,119984.9,0.013995816,0.013926958,7093.3374,7355.1475,5598.8037,6075.7437,0.3076601,0.0,0.0,0.0
275.75647,275.75647,3.283,0.0,0.0,317.04834,11323.0,100.0,0.0,0.15554363,0.0,8.0,1.0,0.0,4000000.0,110.0,1.0,0.0,0.0,10.0,0.0,1.0,184.15712,-39.89868,258.71902,0.07478301,0.20762402,0.542629,321.94208,321.88455,316.91684,316.8685,314.0,312.0,357.0,348.0,89.0,89.0,89.0,89.0,0.0,0.0,0.0,0.0,0.052425794,0.05239507,0.054004703,0.054705266,93.59501,87.36692,43.270733,37.845966,-880.40814,-949.3139,664.50366,812.3471,0.0,0.0,0.0,2.0,1.0,-1.2507089,0.042108834,-0.040151596,89.0,89.0,89.0,89.0,22.047926,22.047926,24.919281,24.919281,0.015519232,0.015513573,-4.700186E-4,-4.5726757E-4,1172.8663,0.0,0.0,0.0,0.0,0.0,0.0,0.0,0.0,0.0,0.0,0.0,0.0,0.0,-83.57424,3.340874,27.574104,0.0107220765,-0.012969514,-0.065630615,550001.7,119984.91,0.0073686424,0.0054613003,9060.54,9130.241,7516.3765,7820.611,0.3006754,0.0,0.0,0.0
280.16013,280.16013,3.333,0.0,0.0,317.3361,11329.0,100.0,0.0,0.2180078,0.0,8.0,1.0,0.0,4000000.0,110.0,1.0,0.0,0.0,10.0,0.0,1.0,179.9768,-39.71704,260.09818,4.940294E-4,0.14234515,0.72876024,322.1119,322.04724,317.23767,317.1537,312.0,311.0,356.0,347.0,89.0,89.0,89.0,89.0,0.0,0.0,0.0,0.0,0.053009618,0.052998323,0.05503398,0.05565338,-69.37153,-79.94077,-25.085806,-21.337643,-231.16606,-2610.151,-959.9759,-1149.8362,0.0,0.0,0.0,2.0,1.0,-1.2514179,0.041152153,-0.04240346,89.0,89.0,89.0,89.0,22.047926,22.047926,24.919281,24.919281,0.014809117,0.014866853,-4.3691837E-4,-4.306962E-4,1173.5013,0.0,0.0,0.0,0.0,0.0,0.0,0.0,0.0,0.0,0.0,0.0,0.0,0.0,-83.63327,3.8399312,27.585537,0.024681335,-0.016459867,-0.018492233,550008.0,119984.9,0.011778637,0.008608836,9739.356,9723.6875,7423.183,7715.6006,0.30478,0.0,0.0,0.0
284.5669,284.5669,3.383,0.0,0.0,317.57968,11361.0,100.0,0.0,0.5701409,0.0,8.0,1.0,0.0,4000000.0,110.0,1.0,0.0,0.0,10.0,0.0,1.0,175.79327,-39.523624,261.47717,-0.12711409,0.14261998,-0.1522772,322.83517,323.19678,317.52957,317.36526,311.0,310.0,354.0,346.0,89.0,89.0,89.0,89.0,0.0,0.0,0.0,0.0,0.050388165,0.047486573,0.05249118,0.05447724,5.31055,-97.33468,17.438381,-22.789835,4478.349,1520.0614,9675.732,-572.86615,0.0,0.0,0.0,2.0,1.0,-1.252518,0.036197614,-0.041920543,89.0,89.0,89.0,89.0,22.047926,22.047926,24.919281,24.919281,0.016295588,0.017872741,-4.203936E-4,-4.114509E-4,1176.8895,0.0,0.0,0.0,0.0,0.0,0.0,0.0,0.0,0.0,0.0,0.0,0.0,0.0,-83.71056,3.8404686,27.567308,0.13677761,-0.03333609,-0.027202003,550042.4,119984.9,0.014494444,0.018922014,8310.264,6972.0186,6265.8027,6899.9805,0.31172848,0.0,0.0,0.0
287.5069,287.5069,3.433,0.0,0.0,317.77124,11365.0,100.0,0.0,0.82885754,0.0,8.0,1.0,0.0,4000000.0,110.0,1.0,0.0,0.0,10.0,0.0,1.0,173.00171,-39.39761,262.39545,-0.18794279,0.18847398,-0.078014486,323.09073,323.15878,317.73465,317.49454,310.0,309.0,353.0,345.0,89.0,89.0,89.0,89.0,0.0,0.0,0.0,0.0,0.04980893,0.04581525,0.05436851,0.053732056,0.0,0.0,0.0,0.0,10606.781,11899.163,-4281.0464,6562.614,0.0,0.0,0.0,2.0,1.0,-1.2537869,0.035667438,-0.043320775,89.0,89.0,89.0,89.0,22.047926,22.047926,24.919281,24.919281,0.016604839,0.017714182,-4.6900552E-4,-4.2849843E-4,1177.313,0.0,0.0,0.0,0.0,0.0,0.0,0.0,0.0,0.0,0.0,0.0,0.0,0.0,-83.78192,3.7608016,27.531828,-0.07412201,-0.04433251,-0.07526262,550046.6,119984.9,0.008967954,0.014760062,8232.18,7365.2744,7370.0566,7242.9785,0.30679035,0.0,0.0,0.0
291.92065,291.92065,3.483,0.0,0.0,318.11386,11341.0,100.0,0.0,1.2203523,0.0,8.0,1.0,0.0,4000000.0,110.0,1.0,0.0,0.0,10.0,0.0,1.0,168.80937,-39.20188,263.7691,-0.34680042,0.20598486,1.6453001,322.50235,322.29352,318.15994,317.73416,308.0,307.0,352.0,344.0,89.0,89.0,89.0,89.0,0.0,0.0,0.0,0.0,0.055356417,0.055622146,0.05696525,0.05571969,0.0,0.0,0.0,0.0,-14616.481,-9016.446,-2229.5994,-480.8261,0.0,0.0,0.0,2.0,1.0,-1.2570593,0.03730528,-0.049330115,89.0,89.0,89.0,89.0,22.047926,22.047926,24.919281,24.919281,0.013323507,0.013910803,-5.0117355E-4,-4.5832962E-4,1174.7715,0.0,0.0,0.0,0.0,0.0,0.0,0.0,0.0,0.0,0.0,0.0,0.0,0.0,-83.904144,4.2033906,27.400585,-0.044939585,-0.07640024,-0.06492718,550020.75,119984.9,9.923644E-4,0.0,11678.242,11276.594,9048.445,8758.82,0.29740143,0.0,0.0,0.0
296.3374,296.3374,3.533,0.0,0.0,318.35217,11376.0,100.0,0.0,1.4675837,0.0,8.0,1.0,0.0,4000000.0,110.0,1.0,0.0,0.0,10.0,0.0,1.0,164.61118,-38.976994,265.1333,-0.54200363,0.12999895,0.25635114,323.49097,323.3644,318.49686,317.90488,307.0,306.0,351.0,342.0,89.0,89.0,89.0,89.0,0.0,0.0,0.0,0.0,0.051211234,0.05043915,0.05617432,0.05466727,0.0,0.0,0.0,0.0,-1065.0109,-1962.6661,-3486.5627,-1305.0419,0.0,0.0,0.0,2.0,1.0,-1.2616327,0.0377812,-0.04994762,89.0,89.0,89.0,89.0,22.047926,22.047926,24.919281,24.919281,0.015329651,0.016445221,-4.343671E-4,-4.181995E-4,1178.4773,0.0,0.0,0.0,0.0,0.0,0.0,0.0,0.0,0.0,0.0,0.0,0.0,0.0,-84.02584,4.627775,27.171898,0.018698301,-0.1034644,-0.016328108,550058.2,119984.91,0.0057752375,0.0072666532,8876.453,8211.002,7650.583,7090.3433,0.30522156,0.0,0.0,0.0
