LapDistance [m],TotalDistance [m],LapTime [s],Sector1Time [s],Sector2Time [s],Speed [km/h],EngineRevs [rpm],ThrottlePercentage [%],BrakePercentage [%],Steer [%],Clutch [%],Gear [int],DRS [0/1],CanUseDRS [0/1],KERSLevel [J],EngineTemperature [C],RacePosition [int],Sector [int],InPits [int],FuelRemaining [kg],CurrentFlag [int],CurrentLapInvalid [int],X [m],Y [m],Z [m],GForceLatitudinal [G],GForceLongitudinal [G],GForceVertical [G],WheelSpeedRearLeft [km/h],WheelSpeedRearRight [km/h],WheelSpeedFrontLeft [km/h],WheelSpeedFrontRight [km/h],BrakeTemperatureRearLeft [C],BrakeTemperatureRearRight [C],BrakeTemperatureFrontLeft [C],BrakeTemperatureFrontRight [C],TyreTemperatureRearLeft [C],TyreTemperatureRearRight [C],TyreTemperatureFrontLeft [C],TyreTemperatureFrontRight [C],TyreWearRearLeft [%],TyreWearRearRight [%],TyreWearFrontLeft [%],TyreWearFrontRight [%],SuspensionPositionRearLeft [m],SuspensionPositionRearRight [m],SuspensionPositionFrontLeft [m],SuspensionPositionFrontRight [m],SuspensionVelocityRearLeft [m/s],SuspensionVelocityRearRight [m/s],SuspensionVelocityFrontLeft [m/s],SuspensionVelocityFrontRight [m/s],SuspensionAccelerationRearLeft [m/s^2],SuspensionAccelerationRearRight [m/s^2],SuspensionAccelerationFrontLeft [m/s^2],SuspensionAccelerationFrontRight [m/s^2],MGUKHarvested [J],MGUHHarvested [J],ERSSpent [J],ERSMode [int],FuelMixMode [int],Yaw [rad],Roll [rad],Pitch [rad],TyreCarcassTemperatureRearLeft [C],TyreCarcassTemperatureRearRight [C],TyreCarcassTemperatureFrontLeft [C],TyreCarcassTemperatureFrontRight [C],TyrePressureRearLeft [PSI],TyrePressureRearRight [PSI],TyrePressureFrontLeft [PSI],TyrePressureFrontRight [PSI],WheelSlipRearLeft [%],WheelSlipRearRight [%],WheelSlipFrontLeft [%],WheelSlipFrontRight [%],Torque [Nm],Handbrake [%],RearLeftInside [C],RearLeftMiddle [C],RearLeftOutside [C],RearRightInside [C],RearRightMiddle [C],RearRightOutside [C],FrontLeftInside [C],FrontLeftMiddle [C],FrontLeftOutside [C],FrontRightInside [C],FrontRightMiddle [C],FrontRightOutside [C],WoldSpeedX [km/h],WoldSpeedY [km/h],WoldSpeedZ [km/h],LocalAngularVelocityX [rad/s],LocalAngularVelocityY [rad/s],LocalAngularVelocityZ [rad/s],IcePower [W],MgukPower [W],FrontRideHeight [m],RearRideHeight [m],LoadRearLeft [N],LoadRearRight [N],LoadFrontLeft [N],LoadFrontRight [N],Extra1 [m],Extra2 [],Extra3 [],Extra4 []
0.69921875,21636.24,0.016,0.0,0.0,290.59268,10401.0,100.0,0.0,0.0826744,0.0,8.0,1.0,0.0,4000000.0,110.0,1.0,0.0,0.0,10.0,0.0,0.0,-394.933,91.18307,136.63109,-0.029618075,0.32010233,0.046721414,295.73312,295.7373,290.46902,290.45288,457.0,456.0,524.0,520.0,97.0,97.0,97.0,97.0,0.0,0.0,0.0,0.0,0.04347087,0.043496724,0.05335046,0.053103555,0.0,0.0,0.0,0.0,-90.430695,-588.16815,-74.51176,-151.24976,0.0,0.0,0.0,2.0,1.0,3.0920756,-0.019879002,9.4532967E-4,97.0,97.0,97.0,97.0,21.302864,21.302864,24.666473,24.666473,0.017691161,0.017755741,-4.5155658E-4,-4.472621E-4,1050.0935,0.0,0.0,0.0,0.0,0.0,0.0,0.0,0.0,0.0,0.0,0.0,0.0,0.0,3.9607623,0.068837345,-80.622925,-8.458824E-4,-0.0028738878,-0.008275288,536080.4,119984.9,0.011086117,0.015537642,7693.6963,7650.406,6537.6406,6429.431,0.3051014,0.0,0.0,0.0
4.7441406,21640.285,0.066,0.0,0.0,291.15292,10423.0,100.0,0.0,0.055208158,0.0,8.0,1.0,0.0,4000000.0,110.0,1.0,0.0,0.0,10.0,0.0,0.0,-394.73444,91.18676,132.59587,-0.025951222,0.32212365,-0.001974424,296.36203,296.3447,291.03036,291.01077,455.0,454.0,522.0,518.0,97.0,97.0,97.0,97.0,0.0,0.0,0.0,0.0,0.04310225,0.043258667,0.053409968,0.052996155,0.0,0.0,0.0,0.0,-14.55099,69.33508,-69.1071,-23.013351,0.0,0.0,0.0,2.0,1.0,3.0919182,-0.019313546,9.646416E-4,97.0,97.0,97.0,97.0,21.302864,21.302864,24.666473,24.666473,0.017921641,0.017918149,-4.5031984E-4,-4.496754E-4,1054.4182,0.0,0.0,0.0,0.0,0.0,0.0,0.0,0.0,0.0,0.0,0.0,0.0,0.0,3.9812295,0.075269416,-80.777725,0.0018724629,-0.0032743772,-0.014624574,537151.94,119984.91,0.011199595,0.01606244,7552.1777,7575.6094,6555.4766,6356.6104,0.3052292,0.0,0.0,0.0
8.796875,21644.338,0.116,0.0,0.0,291.71066,10443.0,100.0,0.0,0.057001766,0.0,8.0,1.0,0.0,4000000.0,110.0,1.0,0.0,0.0,10.0,0.0,0.0,-394.53485,91.19038,128.5529,-0.025742661,0.3143298,-0.008305056,296.92383,296.9117,291.58743,291.57117,453.0,452.0,520.0,516.0,97.0,97.0,97.0,97.0,0.0,0.0,0.0,0.0,0.042943742,0.04306779,0.05332202,0.05299338,0.0,0.0,0.0,0.0,-1.1265277,0.12070655,237.97896,93.07263,0.0,0.0,0.0,2.0,1.0,3.0917706,-0.018576719,0.0010533333,97.0,97.0,97.0,97.0,21.302864,21.302864,24.666473,24.666473,0.017873188,0.01788887,-4.4817393E-4,-4.4648186E-4,1058.3674,0.0,0.0,0.0,0.0,0.0,0.0,0.0,0.0,0.0,0.0,0.0,0.0,0.0,4.0013556,0.0699497,-80.931854,-0.0020552566,-0.0028308022,-0.016445572,538131.25,119984.9,0.01134829,0.016268643,7567.336,7560.765,6532.148,6378.957,0.30548,0.0,0.0,0.0
12.857422,21648.398,0.166,0.0,0.0,292.263,10462.0,100.0,0.0,0.04517383,0.0,8.0,1.0,0.0,4000000.0,110.0,1.0,0.0,0.0,10.0,0.0,0.0,-394.3343,91.19364,124.50227,-0.023166232,0.31228346,-0.0047033457,297.474,297.46292,292.13715,292.12512,451.0,450.0,519.0,514.0,97.0,97.0,97.0,97.0,0.0,0.0,0.0,0.0,0.04285434,0.042968795,0.05336902,0.053043082,0.0,0.0,0.0,0.0,344.70404,164.51328,195.13068,53.33572,0.0,0.0,0.0,2.0,1.0,3.0916548,-0.017969621,0.001126051,97.0,97.0,97.0,97.0,21.302864,21.302864,24.666473,24.666473,0.017844379,0.017853968,-4.4780507E-4,-4.4591606E-4,1062.177,0.0,0.0,0.0,0.0,0.0,0.0,0.0,0.0,0.0,0.0,0.0,0.0,0.0,4.020371,0.062940344,-81.08453,8.54805E-4,-0.002071481,-0.013886994,539087.44,119984.9,0.011203836,0.016311647,7589.2285,7581.1084,6577.3887,6418.9697,0.30540943,0.0,0.0,0.0
16.925781,21652.467,0.216,0.0,0.0,292.81113,10481.0,100.0,0.0,0.04506911,0.0,8.0,1.0,0.0,4000000.0,110.0,1.0,0.0,0.0,10.0,0.0,0.0,-394.1328,91.19669,120.444046,-0.021756759,0.3096746,0.0052244305,298.01147,297.99402,292.68637,292.67145,449.0,448.0,517.0,512.0,97.0,97.0,97.0,97.0,0.0,0.0,0.0,0.0,0.043063924,0.043159604,0.053425625,0.053085603,0.0,0.0,0.0,0.0,158.67944,125.044586,119.80086,42.217964,0.0,0.0,0.0,2.0,1.0,3.0915413,-0.017362455,0.0010766983,97.0,97.0,97.0,97.0,21.302864,21.302864,24.666473,24.666473,0.01776872,0.017767249,-4.468094E-4,-4.4570805E-4,1065.9379,0.0,0.0,0.0,0.0,0.0,0.0,0.0,0.0,0.0,0.0,0.0,0.0,0.0,4.039062,0.060721427,-81.23605,0.0023716236,-0.002514556,-0.0152285565,540015.44,119984.9,0.011006485,0.015972687,7631.1787,7633.9824,6607.752,6445.495,0.30512238,0.0,0.0,0.0
21.001953,21656.543,0.266,0.0,0.0,293.3547,10500.0,100.0,0.0,0.05658483,0.0,8.0,1.0,0.0,4000000.0,110.0,1.0,0.0,0.0,10.0,0.0,0.0,-393.93036,91.199745,116.37827,-0.024616124,0.30677354,0.013003419,298.54886,298.52756,293.23294,293.212,447.0,446.0,515.0,510.0,97.0,97.0,97.0,97.0,0.0,0.0,0.0,0.0,0.043340433,0.04344414,0.053470857,0.053132378,0.0,0.0,0.0,0.0,7.8857226,-12.9684725,80.7613,5.806982,0.0,0.0,0.0,2.0,1.0,3.0913782,-0.016757876,0.0010071993,97.0,97.0,97.0,97.0,21.302864,21.302864,24.666473,24.666473,0.017703457,0.01770462,-4.462899E-4,-4.4514262E-4,1069.7091,0.0,0.0,0.0,0.0,0.0,0.0,0.0,0.0,0.0,0.0,0.0,0.0,0.0,4.0590262,0.063170545,-81.38624,0.00219812,-0.003528955,-0.014312383,540945.4,119984.9,0.010853537,0.015626557,7668.1875,7671.702,6634.355,6473.9253,0.30486012,0.0,0.0,0.0
25.085938,21660.627,0.316,0.0,0.0,293.89273,10520.0,100.0,0.0,-0.007672913,0.0,8.0,1.0,0.0,4000000.0,110.0,1.0,0.0,0.0,10.0,0.0,0.0,-393.7269,91.20284,112.30502,-0.015363625,0.3032713,-0.035980433,299.11493,299.09488,293.7645,293.75732,445.0,444.0,513.0,509.0,97.0,97.0,97.0,97.0,0.0,0.0,0.0,0.0,0.043292455,0.043479323,0.053369977,0.053118136,0.0,0.0,0.0,0.0,-617.75287,-342.50464,-313.8452,-87.493645,0.0,0.0,0.0,2.0,1.0,3.0912647,-0.016133344,0.0010060072,97.0,97.0,97.0,97.0,21.302864,21.302864,24.666473,24.666473,0.017796317,0.017743928,-4.4264685E-4,-4.477298E-4,1072.4357,0.0,0.0,0.0,0.0,0.0,0.0,0.0,0.0,0.0,0.0,0.0,0.0,0.0,4.076101,0.056907877,-81.53503,-0.0015222122,-9.78115E-4,-0.012023301,541293.1,119984.9,0.010673738,0.015434727,7577.435,7617.58,6505.588,6406.027,0.30468655,0.0,0.0,0.0
29.175781,21664.717,0.366,0.0,0.0,294.42953,10537.0,100.0,0.0,-0.090614006,0.0,8.0,1.0,0.0,4000000.0,110.0,1.0,0.0,0.0,10.0,0.0,0.0,-393.5228,91.20542,108.22436,0.0058697546,0.30267724,0.010577792,299.60703,299.6,294.28534,294.3087,443.0,442.0,511.0,507.0,97.0,97.0,97.0,97.0,0.0,0.0,0.0,0.0,0.04341657,0.04362937,0.05348032,0.053262483,0.0,0.0,0.0,0.0,84.22136,458.26877,-78.2266,136.52441,0.0,0.0,0.0,2.0,1.0,3.0913608,-0.01556137,0.0010516644,97.0,97.0,97.0,97.0,21.302864,21.302864,24.666473,24.666473,0.01766529,0.017566342,-4.4144198E-4,-4.4800196E-4,1074.7767,0.0,0.0,0.0,0.0,0.0,0.0,0.0,0.0,0.0,0.0,0.0,0.0,0.0,4.084482,0.05172188,-81.68391,0.0028808087,0.004318745,-0.01610417,541599.56,119984.9,0.009921969,0.014796026,7678.3145,7731.421,6672.156,6580.685,0.30396748,0.0,0.0,0.0
33.273438,21668.814,0.416,0.0,0.0,294.9613,10556.0,100.0,0.0,-0.21520771,0.0,8.0,1.0,0.0,4000000.0,110.0,1.0,0.0,0.0,10.0,0.0,0.0,-393.31863,91.208015,104.13628,0.04392656,0.29986784,-0.003731915,300.11893,300.1264,294.7977,294.86127,441.0,440.0,509.0,505.0,97.0,97.0,97.0,97.0,0.0,0.0,0.0,0.0,0.043693915,0.044087607,0.053317476,0.053367786,0.0,0.0,0.0,0.0,-306.2546,-91.59739,-45.04769,76.30884,0.0,0.0,0.0,2.0,1.0,3.0917618,-0.014851403,0.001024723,97.0,97.0,97.0,97.0,21.302864,21.302864,24.666473,24.666473,0.017622368,0.017437458,-4.382323E-4,-4.4973433E-4,1077.3483,0.0,0.0,0.0,0.0,0.0,0.0,0.0,0.0,0.0,0.0,0.0,0.0,0.0,4.0768256,0.05054846,-81.83219,-0.0027792696,0.01128095,-0.013128419,541918.2,119984.89,0.009941097,0.014195089,7693.6055,7788.2,6528.322,6571.1245,0.30357933,0.0,0.0,0.0
37.378906,21672.92,0.466,0.0,0.0,295.48325,10576.0,100.0,0.0,-0.24117187,0.0,8.0,1.0,0.0,4000000.0,110.0,1.0,0.0,0.0,10.0,0.0,0.0,-393.11536,91.2104,100.04079,0.07571719,0.2935132,-0.06729186,300.68863,300.71286,295.3093,295.39835,439.0,438.0,507.0,503.0,97.0,97.0,97.0,97.0,0.0,0.0,0.0,0.0,0.043594852,0.04400169,0.053019192,0.05336076,0.0,0.0,0.0,0.0,-472.95386,-446.89618,14.55099,4.854798,0.0,0.0,0.0,2.0,1.0,3.092445,-0.014390788,0.0014737844,97.0,97.0,97.0,97.0,21.302864,21.302864,24.666473,24.666473,0.017773246,0.017568957,-4.3784044E-4,-4.438035E-4,1080.0944,0.0,0.0,0.0,0.0,0.0,0.0,0.0,0.0,0.0,0.0,0.0,0.0,0.0,4.052553,0.036031347,-81.97857,-0.017056841,0.0151469065,-0.0031345445,542272.1,119984.91,0.011139191,0.015144589,7574.87,7673.2847,6306.9487,6484.572,0.3046875,0.0,0.0,0.0
41.492188,21677.033,0.516,0.0,0.0,295.9946,10595.0,100.0,0.0,-0.2292586,0.0,8.0,1.0,0.0,4000000.0,110.0,1.0,0.0,0.0,10.0,0.0,0.0,-392.9136,91.21137,95.93806,0.097767696,0.2884069,-0.045877274,301.231,301.25885,295.81702,295.90836,437.0,436.0,506.0,501.0,97.0,97.0,97.0,97.0,0.0,0.0,0.0,0.0,0.04295835,0.043274935,0.053179685,0.05357144,0.0,0.0,0.0,0.0,256.53986,344.65042,-405.75113,-277.08557,0.0,0.0,0.0,2.0,1.0,3.0932198,-0.014456628,0.001988411,97.0,97.0,97.0,97.0,21.302864,21.302864,24.666473,24.666473,0.017888052,0.017698713,-4.3835555E-4,-4.3991438E-4,1082.7006,0.0,0.0,0.0,0.0,0.0,0.0,0.0,0.0,0.0,0.0,0.0,0.0,0.0,4.0156507,0.007955589,-82.122604,0.001898573,0.015587289,0.001454964,542605.75,119984.89,0.011330778,0.016651345,7503.882,7594.5244,6525.738,6709.081,0.3057394,0.0,0.0,0.0
45.61133,21681.152,0.566,0.0,0.0,296.50247,10610.0,100.0,0.0,-0.16219236,0.0,8.0,1.0,0.0,4000000.0,110.0,1.0,0.0,0.0,10.0,0.0,0.0,-392.71396,91.21133,91.82814,0.101276405,0.28646243,-0.0062585887,301.6667,301.67728,296.33197,296.40793,435.0,434.0,504.0,499.0,97.0,97.0,97.0,97.0,0.0,0.0,0.0,0.0,0.043353762,0.04374147,0.05321483,0.05359788,0.0,0.0,0.0,0.0,248.02383,272.86105,81.337975,28.860565,0.0,0.0,0.0,2.0,1.0,3.093934,-0.014584808,0.0017043352,97.0,97.0,97.0,97.0,21.302864,21.302864,24.666473,24.666473,0.017582057,0.017391305,-4.4251417E-4,-4.366242E-4,1084.7589,0.0,0.0,0.0,0.0,0.0,0.0,0.0,0.0,0.0,0.0,0.0,0.0,0.0,3.972871,-0.0044465507,-82.26592,0.0058802087,0.0126865385,0.0029491957,542868.75,119984.9,0.011162213,0.015881874,7679.1406,7795.7515,6529.258,6698.9277,0.30521488,0.0,0.0,0.0
49.73828,21685.28,0.616,0.0,0.0,297.00534,10626.0,100.0,0.0,-0.14059502,0.0,8.0,1.0,0.0,4000000.0,110.0,1.0,0.0,0.0,10.0,0.0,0.0,-392.51645,91.21135,87.71109,0.0950318,0.28477845,0.04915317,302.1262,302.11963,296.84357,296.89914,433.0,433.0,502.0,498.0,97.0,97.0,97.0,97.0,0.0,0.0,0.0,0.0,0.044064604,0.04450478,0.053488117,0.053759884,0.0,0.0,0.0,0.0,301.53394,434.26303,-15.409268,38.395813,0.0,0.0,0.0,2.0,1.0,3.0944746,-0.014634354,0.0012323856,97.0,97.0,97.0,97.0,21.302864,21.302864,24.666473,24.666473,0.017381335,0.017199915,-4.419393E-4,-4.3893713E-4,1086.9498,0.0,0.0,0.0,0.0,0.0,0.0,0.0,0.0,0.0,0.0,0.0,0.0,0.0,3.9315982,0.0092773475,-82.40775,0.015014137,0.009436853,-0.001872643,543146.1,119984.9,0.009885959,0.014443447,7801.624,7927.3057,6737.978,6855.496,0.30390644,0.0,0.0,0.0
53.873047,21689.414,0.666,0.0,0.0,297.50693,10642.0,100.0,0.0,-0.14275634,0.0,8.0,1.0,0.0,4000000.0,110.0,1.0,0.0,0.0,10.0,0.0,0.0,-392.32092,91.21262,83.586975,0.086639486,0.28277957,0.033462327,302.5849,302.58652,297.34882,297.4008,432.0,431.0,500.0,496.0,97.0,97.0,97.0,97.0,0.0,0.0,0.0,0.0,0.045117732,0.04561986,0.053378753,0.05370041,0.0,0.0,0.0,0.0,-710.3159,-913.49316,-336.59036,-346.80957,0.0,0.0,0.0,2.0,1.0,3.0949347,-0.014467618,6.9642067E-4,97.0,97.0,97.0,97.0,21.302864,21.302864,24.666473,24.666473,0.017172925,0.017022429,-4.4000335E-4,-4.4023644E-4,1089.1564,0.0,0.0,0.0,0.0,0.0,0.0,0.0,0.0,0.0,0.0,0.0,0.0,0.0,3.8933372,0.036814846,-82.54904,-5.110966E-4,0.008753986,-0.0013560829,543430.5,119984.9,0.00958222,0.012742649,7918.5557,8023.2646,6530.515,6682.039,0.30302715,0.0,0.0,0.0
58.01367,21693.555,0.716,0.0,0.0,298.00195,10662.0,100.0,0.0,-0.18295896,0.0,8.0,1.0,0.0,4000000.0,110.0,1.0,0.0,0.0,10.0,0.0,0.0,-392.1272,91.21477,79.45584,0.08598396,0.27932015,0.011901895,303.14185,303.13824,297.84164,297.89816,430.0,429.0,498.0,494.0,97.0,97.0,97.0,97.0,0.0,0.0,0.0,0.0,0.044839993,0.04536189,0.0535199,0.053740166,0.0,0.0,0.0,0.0,-164.8083,-115.38866,-98.98689,-33.983585,0.0,0.0,0.0,2.0,1.0,3.0953805,-0.014342202,8.8477135E-4,97.0,97.0,97.0,97.0,21.302864,21.302864,24.666473,24.666473,0.017367627,0.017185101,-4.3596662E-4,-4.4051197E-4,1091.8848,0.0,0.0,0.0,0.0,0.0,0.0,0.0,0.0,0.0,0.0,0.0,0.0,0.0,3.857852,0.046308737,-82.68836,4.411044E-4,0.009723433,-0.0046733106,543769.9,119984.9,0.008730623,0.012933448,7772.6323,7895.993,6726.558,6821.5947,0.30252552,0.0,0.0,0.0
62.15625,21697.697,0.766,0.0,0.0,298.49713,10679.0,100.0,0.0,-0.24905975,0.0,8.0,1.0,0.0,4000000.0,110.0,1.0,0.0,0.0,10.0,0.0,0.0,-391.93533,91.217064,75.31773,0.09824496,0.27982286,-0.012271958,303.60696,303.62256,298.32498,298.40527,428.0,427.0,496.0,492.0,97.0,97.0,97.0,97.0,0.0,0.0,0.0,0.0,0.04473498,0.04527953,0.053390134,0.053739194,0.0,0.0,0.0,0.0,59.263397,-47.488503,60.215572,-55.54854,0.0,0.0,0.0,2.0,1.0,3.0959845,-0.014049148,8.727312E-4,97.0,97.0,97.0,97.0,21.302864,21.302864,24.666473,24.666473,0.017279837,0.01708163,-4.353224E-4,-4.429701E-4,1094.212,0.0,0.0,0.0,0.0,0.0,0.0,0.0,0.0,0.0,0.0,0.0,0.0,0.0,3.8177001,0.043425098,-82.82792,-0.0028240862,0.0138845,-0.0050081755,544061.4,119984.89,0.008288382,0.012228623,7830.083,7946.029,6600.9097,6763.6543,0.30207253,0.0,0.0,0.0
66.30469,21701.846,0.816,0.0,0.0,298.98163,10696.0,100.0,0.0,-0.23306239,0.0,8.0,1.0,0.0,4000000.0,110.0,1.0,0.0,0.0,10.0,0.0,0.0,-391.74567,91.220085,71.17269,0.10868417,0.27196404,-0.024836812,304.1098,304.121,298.80487,298.89612,426.0,425.0,495.0,490.0,97.0,97.0,97.0,97.0,0.0,0.0,0.0,0.0,0.045028225,0.045707714,0.053390708,0.05378858,0.0,0.0,0.0,0.0,-774.072,-1009.7979,-317.2248,-246.5084,0.0,0.0,0.0,2.0,1.0,3.0967405,-0.013675473,8.7833405E-4,97.0,97.0,97.0,97.0,21.302864,21.302864,24.666473,24.666473,0.017307438,0.017067151,-4.3472374E-4,-4.354843E-4,1096.572,0.0,0.0,0.0,0.0,0.0,0.0,0.0,0.0,0.0,0.0,0.0,0.0,0.0,3.7713783,0.061493266,-82.96475,-0.004912097,0.015396317,-0.0047038496,544368.25,119984.89,0.009163297,0.012719654,7784.324,7938.461,6533.672,6724.9375,0.30269432,0.0,0.0,0.0
70.458984,21706.0,0.866,0.0,0.0,299.46066,10716.0,100.0,0.0,-0.13420701,0.0,8.0,1.0,0.0,4000000.0,110.0,1.0,0.0,0.0,10.0,0.0,0.0,-391.55826,91.22194,67.02089,0.099148,0.27236995,-0.090201214,304.6688,304.67242,299.29932,299.36304,424.0,423.0,493.0,489.0,97.0,97.0,97.0,97.0,0.0,0.0,0.0,0.0,0.044086285,0.04465047,0.053161047,0.05354515,0.0,0.0,0.0,0.0,618.6916,537.4476,287.0902,234.1166,0.0,0.0,0.0,2.0,1.0,3.097379,-0.013664078,0.0015244484,97.0,97.0,97.0,97.0,21.302864,21.302864,24.666473,24.666473,0.017517576,0.01734559,-4.3796387E-4,-4.3167567E-4,1099.3081,0.0,0.0,0.0,0.0,0.0,0.0,0.0,0.0,0.0,0.0,0.0,0.0,0.0,3.728055,0.014552988,-83.09993,-0.014433769,0.010271464,8.6605793E-4,544708.0,119984.9,0.010327295,0.014042857,7634.394,7747.833,6481.3296,6651.0186,0.30395508,0.0,0.0,0.0
74.62109,21710.162,0.916,0.0,0.0,299.93225,10732.0,100.0,0.0,-0.08444855,0.0,8.0,1.0,0.0,4000000.0,110.0,1.0,0.0,0.0,10.0,0.0,0.0,-391.37283,91.2215,62.86238,0.08067929,0.26590982,-0.06426293,305.13974,305.13782,299.78476,299.82034,422.0,421.0,491.0,487.0,97.0,97.0,97.0,97.0,0.0,0.0,0.0,0.0,0.04367912,0.044048987,0.053245142,0.05359082,0.0,0.0,0.0,0.0,452.08624,401.76804,174.35696,118.80843,0.0,0.0,0.0,2.0,1.0,3.097758,-0.013838984,0.0021115541,97.0,97.0,97.0,97.0,21.302864,21.302864,24.666473,24.666473,0.017449943,0.017343856,-4.3369306E-4,-4.3056856E-4,1101.5303,0.0,0.0,0.0,0.0,0.0,0.0,0.0,0.0,0.0,0.0,0.0,0.0,0.0,3.6920004,-0.026699465,-83.232666,-0.008687666,0.0057081333,0.0044845087,544995.3,119984.9,0.011206936,0.015329212,7668.777,7740.993,6566.4526,6719.3467,0.30501366,0.0,0.0,0.0
78.791016,21714.332,0.966,0.0,0.0,300.39694,10748.0,100.0,0.0,0.059204876,0.0,8.0,1.0,0.0,4000000.0,110.0,1.0,0.0,0.0,10.0,0.0,0.0,-391.18893,91.218994,58.697327,0.043307476,0.26706293,-0.083115414,305.60303,305.59875,300.26373,300.26794,420.0,420.0,489.0,485.0,97.0,97.0,97.0,97.0,0.0,0.0,0.0,0.0,0.043430526,0.043650568,0.053324427,0.05353503,0.0,0.0,0.0,0.0,1147.811,863.0006,934.4413,777.7332,0.0,0.0,0.0,2.0,1.0,3.0979142,-0.01419991,0.0023282766,97.0,97.0,97.0,97.0,21.302864,21.302864,24.666473,24.666473,0.017408585,0.017390864,-4.4097492E-4,-4.270139E-4,1103.7467,0.0,0.0,0.0,0.0,0.0,0.0,0.0,0.0,0.0,0.0,0.0,0.0,0.0,3.669855,-0.073554136,-83.36282,-0.0015834415,7.191974E-5,0.010772453,545279.0,119984.91,0.010619651,0.015312259,7686.2305,7716.42,6627.7734,6711.093,0.3045597,0.0,0.0,0.0
82.96484,21718.506,1.016,0.0,0.0,300.8613,10759.0,100.0,0.0,0.18637376,0.0,8.0,1.0,0.0,4000000.0,110.0,1.0,0.0,0.0,10.0,0.0,0.0,-391.00546,91.21538,54.525753,-0.0037598023,0.26099432,0.098844044,305.9097,305.89536,300.7514,300.70755,419.0,418.0,487.0,483.0,97.0,97.0,97.0,97.0,0.0,0.0,0.0,0.0,0.04536855,0.045126073,0.053799424,0.053787824,0.0,0.0,0.0,0.0,1382.8798,1427.5652,-11.50669,17.260035,0.0,0.0,0.0,2.0,1.0,3.097704,-0.014686209,0.0020728111,97.0,97.0,97.0,97.0,21.302864,21.302864,24.666473,24.666473,0.01673077,0.016829595,-4.3987954E-4,-4.247781E-4,1105.2555,0.0,0.0,0.0,0.0,0.0,0.0,0.0,0.0,0.0,0.0,0.0,0.0,0.0,3.6687353,-0.057834245,-83.492,0.0054130927,-0.008019881,0.008449648,545466.1,119984.9,0.00998445,0.01368764,8201.482,8146.754,6944.664,6929.836,0.3035469,0.0,0.0,0.0
87.146484,21722.688,1.066,0.0,0.0,301.31064,10778.0,100.0,0.0,0.1533583,0.0,8.0,1.0,0.0,4000000.0,110.0,1.0,0.0,0.0,10.0,0.0,0.0,-390.8216,91.212975,50.347893,-0.036615215,0.25424546,0.011072682,306.44278,306.42822,301.21127,301.1468,417.0,416.0,486.0,481.0,97.0,97.0,97.0,97.0,0.0,0.0,0.0,0.0,0.045694847,0.04534197,0.053912867,0.053712703,0.0,0.0,0.0,0.0,-445.7563,-445.01868,433.91434,395.0357,0.0,0.0,0.0,2.0,1.0,3.097183,-0.015043214,0.0020264387,97.0,97.0,97.0,97.0,21.302864,21.302864,24.666473,24.666473,0.01697017,0.0171182,-4.3201912E-4,-4.3121455E-4,1107.8688,0.0,0.0,0.0,0.0,0.0,0.0,0.0,0.0,0.0,0.0,0.0,0.0,0.0,3.6873348,-0.04462254,-83.61613,0.0028154158,-0.010935556,0.005748197,545792.0,119984.89,0.008982921,0.01368586,7954.3706,7867.377,6956.7334,6852.327,0.3037939,0.0,0.0,0.0
91.333984,21726.875,1.116,0.0,0.0,301.76788,10789.0,100.0,0.0,-0.076334216,0.0,8.0,1.0,0.0,4000000.0,110.0,1.0,0.0,0.0,10.0,0.0,0.0,-390.63654,91.21142,46.16379,-0.02736871,0.26397255,0.09461452,306.75,306.74283,301.64282,301.61533,415.0,414.0,484.0,480.0,97.0,97.0,97.0,97.0,0.0,0.0,0.0,0.0,0.046307746,0.04606413,0.05434098,0.054003272,0.0,0.0,0.0,0.0,1699.769,1908.7,-391.20013,-201.32658,0.0,0.0,0.0,2.0,1.0,3.0967655,-0.01498146,7.857084E-4,97.0,97.0,97.0,97.0,21.302864,21.302864,24.666473,24.666473,0.0165699,0.016616125,-4.2817814E-4,-4.51255E-4,1109.3917,0.0,0.0,0.0,0.0,0.0,0.0,0.0,0.0,0.0,0.0,0.0,0.0,0.0,3.711069,-0.012359628,-83.742226,0.03757878,-0.0030829725,-0.007814997,545985.06,119984.91,0.005013007,0.0098668635,8301.8125,8250.173,7204.8257,7051.4326,0.30055904,0.0,0.0,0.0
95.52734,21731.068,1.166,0.0,0.0,302.22806,10800.0,100.0,0.0,-0.11549594,0.0,8.0,1.0,0.0,4000000.0,110.0,1.0,0.0,0.0,10.0,0.0,0.0,-390.45053,91.21583,41.97332,-0.010916454,0.2620545,0.2706251,307.04764,307.04825,302.08865,302.10254,413.0,412.0,482.0,478.0,97.0,97.0,97.0,97.0,0.0,0.0,0.0,0.0,0.048976745,0.049094733,0.054347202,0.05420367,0.0,0.0,0.0,0.0,-4875.692,-6076.611,-685.8809,-812.7092,0.0,0.0,0.0,2.0,1.0,3.096772,-0.0140924025,-0.0011110306,97.0,97.0,97.0,97.0,21.302864,21.302864,24.666473,24.666473,0.015968064,0.015912035,-4.3021984E-4,-4.472747E-4,1110.9037,0.0,0.0,0.0,0.0,0.0,0.0,0.0,0.0,0.0,0.0,0.0,0.0,0.0,3.7267058,0.16091007,-83.86933,-0.0024853437,0.0031365934,-0.014125619,546172.3,119984.9,0.005879732,0.006600643,8791.887,8802.248,6926.548,6882.6924,0.29864693,0.0,0.0,0.0
99.728516,21735.27,1.216,0.0,0.0,302.66425,10830.0,100.0,0.0,0.031848315,0.0,8.0,1.0,0.0,4000000.0,110.0,1.0,0.0,0.0,10.0,0.0,0.0,-390.2641,91.22354,37.77668,-0.0031175045,0.25455925,-0.21498558,307.91162,307.93976,302.52213,302.55182,411.0,411.0,480.0,476.0,97.0,97.0,97.0,97.0,0.0,0.0,0.0,0.0,0.04575554,0.045849156,0.053499304,0.0534179,0.0,0.0,0.0,0.0,1284.1877,1042.2795,-48.024956,-170.15927,0.0,0.0,0.0,2.0,1.0,3.097024,-0.013845754,2.257824E-4,97.0,97.0,97.0,97.0,21.302864,21.302864,24.666473,24.666473,0.017406717,0.01740222,-4.3513288E-4,-4.212799E-4,1115.0751,0.0,0.0,0.0,0.0,0.0,0.0,0.0,0.0,0.0,0.0,0.0,0.0,0.0,3.732801,0.115167715,-83.99042,-0.028551681,0.004168557,-0.001905795,546704.5,119984.9,0.0087868925,0.0111178635,7614.759,7609.599,6476.001,6436.7456,0.3009262,0.0,0.0,0.0
103.93359,21739.475,1.266,0.0,0.0,303.1063,10849.0,100.0,0.0,-0.021833587,0.0,8.0,1.0,0.0,4000000.0,110.0,1.0,0.0,0.0,10.0,0.0,0.0,-390.07733,91.22639,33.573883,0.014964988,0.24337919,-0.24528204,308.45865,308.46872,302.97348,302.98953,410.0,409.0,479.0,474.0,97.0,97.0,97.0,97.0,0.0,0.0,0.0,0.0,0.04380327,0.043783758,0.053099755,0.05316187,0.0,0.0,0.0,0.0,-690.9772,-383.51553,-323.7292,32.5486,0.0,0.0,0.0,2.0,1.0,3.0971234,-0.013758453,0.0020085573,97.0,97.0,97.0,97.0,21.302864,21.302864,24.666473,24.666473,0.01769884,0.01767137,-4.2216768E-4,-4.219019E-4,1117.7034,0.0,0.0,0.0,0.0,0.0,0.0,0.0,0.0,0.0,0.0,0.0,0.0,0.0,3.735807,0.0028883945,-84.11327,-0.03614777,0.0022782122,-0.001712691,547033.44,119984.9,0.0119165825,0.015268353,7398.023,7410.0347,6342.5034,6401.4116,0.30446815,0.0,0.0,0.0
108.146484,21743.688,1.316,0.0,0.0,303.53394,10867.0,100.0,0.0,0.036879156,0.0,8.0,1.0,0.0,4000000.0,110.0,1.0,0.0,0.0,10.0,0.0,0.0,-389.8903,91.222755,29.365095,-0.0033903383,0.24405323,-0.28440082,308.97736,308.99506,303.4181,303.39587,408.0,407.0,477.0,473.0,97.0,97.0,97.0,97.0,0.0,0.0,0.0,0.0,0.04200841,0.04177356,0.05305896,0.053128906,0.0,0.0,0.0,0.0,666.77026,512.47626,1665.5712,1350.0496,0.0,0.0,0.0,2.0,1.0,3.0970352,-0.014346764,0.0037409067,97.0,97.0,97.0,97.0,21.302864,21.302864,24.666473,24.666473,0.017983312,0.01810673,-4.2137245E-4,-4.2513883E-4,1120.2124,0.0,0.0,0.0,0.0,0.0,0.0,0.0,0.0,0.0,0.0,0.0,0.0,0.0,3.7455885,-0.14332114,-84.23162,-0.024482202,-0.0039006958,0.016313072,547353.25,119984.89,0.011978616,0.018104441,7251.2637,7170.2754,6515.8154,6534.0156,0.30648518,0.0,0.0,0.0
112.365234,21747.906,1.366,0.0,0.0,303.9651,10868.0,100.0,0.0,0.24001347,0.0,8.0,1.0,0.0,4000000.0,110.0,1.0,0.0,0.0,10.0,0.0,0.0,-389.70276,91.214386,25.150331,-0.035008136,0.23980586,0.11435232,308.99957,309.01025,303.84753,303.81165,406.0,405.0,475.0,471.0,97.0,97.0,97.0,97.0,0.0,0.0,0.0,0.0,0.04462247,0.04413417,0.054115105,0.05403679,0.0,0.0,0.0,0.0,4071.2441,4067.65,-27.760847,-4.7341914,0.0,0.0,0.0,2.0,1.0,3.0968478,-0.014923583,0.003247261,97.0,97.0,97.0,97.0,21.302864,21.302864,24.666473,24.666473,0.016564013,0.01671072,-4.371708E-4,-4.146049E-4,1120.3491,0.0,0.0,0.0,0.0,0.0,0.0,0.0,0.0,0.0,0.0,0.0,0.0,0.0,3.759171,-0.15861711,-84.350876,0.033264704,-0.0064297863,0.013284227,547369.7,119984.9,0.009998377,0.014859137,8290.329,8184.6396,7288.84,7248.16,0.30400372,0.0,0.0,0.0
116.58984,21752.13,1.416,0.0,0.0,304.3825,10882.0,100.0,0.0,0.120634414,0.0,8.0,1.0,0.0,4000000.0,110.0,1.0,0.0,0.0,10.0,0.0,0.0,-389.51407,91.20789,20.929747,-0.046443485,0.23413727,0.09341247,309.38934,309.38406,304.2812,304.21817,404.0,404.0,473.0,469.0,97.0,97.0,97.0,97.0,0.0,0.0,0.0,0.0,0.0474059,0.046778176,0.054144915,0.053918365,0.0,0.0,0.0,0.0,-1735.5768,-1437.0872,76.8721,177.18669,0.0,0.0,0.0,2.0,1.0,3.096325,-0.015454605,0.0020637512,97.0,97.0,97.0,97.0,21.302864,21.302864,24.666473,24.666473,0.01639662,0.016557906,-4.242867E-4,-4.2985988E-4,1122.2737,0.0,0.0,0.0,0.0,0.0,0.0,0.0,0.0,0.0,0.0,0.0,0.0,0.0,3.786837,-0.106603004,-84.46578,0.011998889,-0.010220232,0.00779799,547604.56,119984.91,0.009633726,0.01225548,8326.199,8206.273,7044.71,6938.23,0.30316925,0.0,0.0,0.0
120.82031,21756.361,1.466,0.0,0.0,304.7954,10895.0,100.0,0.0,-0.064339384,0.0,8.0,1.0,0.0,4000000.0,110.0,1.0,0.0,0.0,10.0,0.0,0.0,-389.32413,91.20402,16.703455,-0.028191257,0.23448876,0.14021406,309.7635,309.7752,304.6622,304.65576,403.0,402.0,472.0,467.0,97.0,97.0,97.0,97.0,0.0,0.0,0.0,0.0,0.04775779,0.047490478,0.05452061,0.054251242,0.0,0.0,0.0,0.0,330.75656,376.5419,-239.41396,-47.099586,0.0,0.0,0.0,2.0,1.0,3.0960617,-0.015402797,0.0011427402,97.0,97.0,97.0,97.0,21.302864,21.302864,24.666473,24.666473,0.01636613,0.016406136,-4.231748E-4,-4.3825508E-4,1124.0973,0.0,0.0,0.0,0.0,0.0,0.0,0.0,0.0,0.0,0.0,0.0,0.0,0.0,3.8086474,-0.046686016,-84.57967,0.029918633,1.0639633E-4,-0.0046418444,547839.94,119984.89,0.0069192974,0.010454166,8375.979,8320.742,7372.135,7255.827,0.3025236,0.0,0.0,0.0
125.05664,21760.598,1.516,0.0,0.0,305.21472,10905.0,100.0,0.0,-0.04349481,0.0,8.0,1.0,0.0,4000000.0,110.0,1.0,0.0,0.0,10.0,0.0,0.0,-389.1334,91.20491,12.47141,-0.007716581,0.23865679,0.26199225,310.0461,310.064,305.06625,305.09424,401.0,400.0,470.0,466.0,97.0,97.0,97.0,97.0,0.0,0.0,0.0,0.0,0.04885285,0.048949122,0.054520324,0.054423783,0.0,0.0,0.0,0.0,-2009.8057,-2618.1843,-209.29277,-95.99624,0.0,0.0,0.0,2.0,1.0,3.0962365,-0.014875102,-4.4727325E-4,97.0,97.0,97.0,97.0,21.302864,21.302864,24.666473,24.666473,0.01590421,0.01587168,-4.335747E-4,-4.3438867E-4,1125.4934,0.0,0.0,0.0,0.0,0.0,0.0,0.0,0.0,0.0,0.0,0.0,0.0,0.0,3.8190944,0.07757958,-84.69577,0.012357345,0.005072587,-0.0072862715,548017.3,119984.89,0.0062091034,0.007436479,8771.777,8768.763,7232.986,7210.0947,0.3005066,0.0,0.0,0.0
129.29883,21764.84,1.566,0.0,0.0,305.6228,10928.0,100.0,0.0,0.11482512,0.0,8.0,1.0,0.0,4000000.0,110.0,1.0,0.0,0.0,10.0,0.0,0.0,-388.94217,91.21009,8.233659,-0.014438623,0.23576726,-0.04560847,310.70053,310.69708,305.4959,305.4881,399.0,398.0,468.0,464.0,97.0,97.0,97.0,97.0,0.0,0.0,0.0,0.0,0.047201153,0.047222592,0.054109573,0.05391559,0.0,0.0,0.0,0.0,1675.8843,1680.283,761.7204,627.15405,0.0,0.0,0.0,2.0,1.0,3.096318,-0.014841287,-2.875328E-4,97.0,97.0,97.0,97.0,21.302864,21.302864,24.666473,24.666473,0.016626975,0.016648024,-4.3533623E-4,-4.2016635E-4,1128.6722,0.0,0.0,0.0,0.0,0.0,0.0,0.0,0.0,0.0,0.0,0.0,0.0,0.0,3.8296895,0.09986216,-84.80874,-0.008248297,-0.0020605065,-3.8599E-4,548408.5,119984.9,0.0062686736,0.00860892,8098.023,8095.609,6966.747,6862.7437,0.2992096,0.0,0.0,0.0
133.54883,21769.09,1.616,0.0,0.0,306.03946,10944.0,100.0,0.0,0.10827973,0.0,8.0,1.0,0.0,4000000.0,110.0,1.0,0.0,0.0,10.0,0.0,0.0,-388.7503,91.21428,3.9901705,-0.021491384,0.23414361,-0.12903279,311.17303,311.16443,305.9291,305.89758,397.0,397.0,466.0,462.0,97.0,97.0,97.0,97.0,0.0,0.0,0.0,0.0,0.04646949,0.046382125,0.053635914,0.05350066,0.0,0.0,0.0,0.0,-356.89468,-160.42293,130.56993,226.19066,0.0,0.0,0.0,2.0,1.0,3.0960877,-0.014663739,6.438494E-4,97.0,97.0,97.0,97.0,21.302864,21.302864,24.666473,24.666473,0.016738335,0.016797075,-4.2615915E-4,-4.2161412E-4,1130.9174,0.0,0.0,0.0,0.0,0.0,0.0,0.0,0.0,0.0,0.0,0.0,0.0,0.0,3.8444073,0.05870872,-84.923965,-0.034452517,-0.005998596,-0.0039009887,548696.0,119984.89,0.008763306,0.010161556,7982.1436,7956.173,6608.1934,6560.164,0.3010025,0.0,0.0,0.0
137.80273,21773.344,1.666,0.0,0.0,306.43643,10965.0,100.0,0.0,0.07434734,0.0,8.0,1.0,0.0,4000000.0,110.0,1.0,0.0,0.0,10.0,0.0,0.0,-388.55756,91.21483,-0.2589221,-0.0307878,0.22472696,-0.28560495,311.76056,311.7764,306.32602,306.29602,396.0,395.0,465.0,461.0,97.0,97.0,97.0,97.0,0.0,0.0,0.0,0.0,0.04456087,0.044296782,0.053357825,0.053298768,0.0,0.0,0.0,0.0,-108.32107,-140.73553,-370.81534,-392.54126,0.0,0.0,0.0,2.0,1.0,3.0957696,-0.01487446,0.0023759604,97.0,97.0,97.0,97.0,21.302864,21.302864,24.666473,24.666473,0.017372714,0.01750102,-4.1729672E-4,-4.188869E-4,1133.8422,0.0,0.0,0.0,0.0,0.0,0.0,0.0,0.0,0.0,0.0,0.0,0.0,0.0,3.8654776,-0.046240997,-85.0334,-0.032937754,-0.005409737,0.0079818545,549061.5,119984.9,0.01064509,0.014477571,7528.1895,7441.691,6436.881,6414.5664,0.30418587,0.0,0.0,0.0
142.0625,21777.604,1.716,0.0,0.0,306.83456,10972.0,100.0,0.0,0.16350284,0.0,8.0,1.0,0.0,4000000.0,110.0,1.0,0.0,0.0,10.0,0.0,0.0,-388.36353,91.21011,-4.5134816,-0.05363977,0.22588971,0.016563984,311.93875,311.94907,306.7271,306.67725,394.0,393.0,463.0,459.0,97.0,97.0,97.0,97.0,0.0,0.0,0.0,0.0,0.044636995,0.043968458,0.054115865,0.05383646,0.0,0.0,0.0,0.0,3530.6985,3134.228,1040.375,739.32404,0.0,0.0,0.0,2.0,1.0,3.0954053,-0.015485858,0.003005147,97.0,97.0,97.0,97.0,21.302864,21.302864,24.666473,24.666473,0.016640672,0.016841765,-4.263462E-4,-4.1969641E-4,1134.7949,0.0,0.0,0.0,0.0,0.0,0.0,0.0,0.0,0.0,0.0,0.0,0.0,0.0,3.895688,-0.11030814,-85.14268,0.010709272,-0.008507479,0.007389164,549172.25,119984.89,0.009958668,0.014724593,8153.585,7980.486,7329.5894,7174.7593,0.30400372,0.0,0.0,0.0
146.32617,21781.867,1.766,0.0,0.0,307.21613,10983.0,100.0,0.0,0.1658723,0.0,8.0,1.0,0.0,4000000.0,110.0,1.0,0.0,0.0,10.0,0.0,0.0,-388.16788,91.20486,-8.773378,-0.06280338,0.2157913,0.01912128,312.25836,312.2623,307.1109,307.05826,392.0,391.0,461.0,457.0,97.0,97.0,97.0,97.0,0.0,0.0,0.0,0.0,0.046561666,0.04588888,0.054109383,0.05386572,0.0,0.0,0.0,0.0,-202.48007,-462.58722,252.46289,6.2629647,0.0,0.0,0.0,2.0,1.0,3.0949752,-0.015801676,0.0022723675,97.0,97.0,97.0,97.0,21.302864,21.302864,24.666473,24.666473,0.016384093,0.01655191,-4.2255677E-4,-4.1858695E-4,1136.3358,0.0,0.0,0.0,0.0,0.0,0.0,0.0,0.0,0.0,0.0,0.0,0.0,0.0,3.9288213,-0.101826966,-85.24727,0.008496827,-0.008844881,0.0077419123,549367.2,119984.9,0.010787754,0.013417572,8269.437,8128.452,7010.7905,6892.95,0.3041277,0.0,0.0,0.0
150.59766,21786.139,1.816,0.0,0.0,307.5895,10995.0,100.0,0.0,0.15736362,0.0,8.0,1.0,0.0,4000000.0,110.0,1.0,0.0,0.0,10.0,0.0,0.0,-387.97046,91.200485,-13.038442,-0.068496026,0.21107018,0.09486428,312.59814,312.59787,307.4816,307.42947,390.0,390.0,460.0,456.0,97.0,97.0,97.0,97.0,0.0,0.0,0.0,0.0,0.047397412,0.046774663,0.054485284,0.054097522,0.0,0.0,0.0,0.0,388.7593,486.2845,-20.559137,-9.240216,0.0,0.0,0.0,2.0,1.0,3.0945358,-0.016111746,0.0015678406,97.0,97.0,97.0,97.0,21.302864,21.302864,24.666473,24.666473,0.016275952,0.016426487,-4.237771E-4,-4.193669E-4,1138.0077,0.0,0.0,0.0,0.0,0.0,0.0,0.0,0.0,0.0,0.0,0.0,0.0,0.0,3.9657629,-0.06864638,-85.34942,0.022823479,-0.008564078,0.0031548329,549575.0,119984.89,0.009816811,0.012705361,8361.6,8239.197,7336.906,7152.8613,0.304142,0.0,0.0,0.0
154.87305,21790.414,1.866,0.0,0.0,307.97043,11005.0,100.0,0.0,0.06575906,0.0,8.0,1.0,0.0,4000000.0,110.0,1.0,0.0,0.0,10.0,0.0,0.0,-387.77124,91.19757,-17.308647,-0.05689653,0.21684001,0.16748133,312.8822,312.88483,307.85056,307.81705,389.0,388.0,458.0,454.0,97.0,97.0,97.0,97.0,0.0,0.0,0.0,0.0,0.048399802,0.0479336,0.05464925,0.054260857,0.0,0.0,0.0,0.0,1297.5989,1218.2592,158.8806,160.20831,0.0,0.0,0.0,2.0,1.0,3.0941968,-0.016136363,3.5965443E-4,97.0,97.0,97.0,97.0,21.302864,21.302864,24.666473,24.666473,0.015975792,0.016077513,-4.258083E-4,-4.294948E-4,1139.2247,0.0,0.0,0.0,0.0,0.0,0.0,0.0,0.0,0.0,0.0,0.0,0.0,0.0,3.9997857,-0.028733969,-85.45378,0.029303247,-0.0049604257,-0.0025762212,549662.8,119984.89,0.0072718114,0.009200993,8629.507,8526.235,7480.415,7301.3477,0.30109787,0.0,0.0,0.0
159.15234,21794.693,1.916,0.0,0.0,308.35507,11017.0,100.0,0.0,0.049190566,0.0,8.0,1.0,0.0,4000000.0,110.0,1.0,0.0,0.0,10.0,0.0,0.0,-387.57047,91.19908,-21.584122,-0.046968702,0.21619846,0.1741186,313.2416,313.24332,308.2334,308.2114,387.0,386.0,456.0,452.0,97.0,97.0,97.0,97.0,0.0,0.0,0.0,0.0,0.0486207,0.04857517,0.05463579,0.05436366,0.0,0.0,0.0,0.0,-377.80252,-1026.7494,770.7729,283.21442,0.0,0.0,0.0,2.0,1.0,3.0939782,-0.015772553,-4.912615E-4,97.0,97.0,97.0,97.0,21.302864,21.302864,24.666473,24.666473,0.015838739,0.015899902,-4.2701978E-4,-4.2853228E-4,1140.4948,0.0,0.0,0.0,0.0,0.0,0.0,0.0,0.0,0.0,0.0,0.0,0.0,0.0,4.029125,0.07461491,-85.55933,-8.9769624E-4,-0.0035908818,-0.0035659147,549676.25,119984.89,0.0047215945,0.006866733,8707.696,8642.0,7365.705,7227.5576,0.29778862,0.0,0.0,0.0
163.43945,21798.98,1.966,0.0,0.0,308.73434,11036.0,100.0,0.0,0.0592845,0.0,8.0,1.0,0.0,4000000.0,110.0,1.0,0.0,0.0,10.0,0.0,0.0,-387.36832,91.2043,-25.864841,-0.039856624,0.21446304,0.0027130304,313.77527,313.77972,308.61313,308.59448,385.0,385.0,455.0,451.0,97.0,97.0,97.0,97.0,0.0,0.0,0.0,0.0,0.047805574,0.04776777,0.054482233,0.054186206,0.0,0.0,0.0,0.0,-138.61655,-396.24268,-392.40714,-119.036415,0.0,0.0,0.0,2.0,1.0,3.0938108,-0.0154350335,-1.0597706E-4,97.0,97.0,97.0,97.0,21.302864,21.302864,24.666473,24.666473,0.016307924,0.01636892,-4.2302793E-4,-4.2313559E-4,1142.503,0.0,0.0,0.0,0.0,0.0,0.0,0.0,0.0,0.0,0.0,0.0,0.0,0.0,4.0544353,0.11479968,-85.66357,-0.009820335,-0.0032106366,-0.007794129,549696.1,119984.9,0.0039458647,0.007095486,8248.363,8192.935,7177.0674,7059.9756,0.29745674,0.0,0.0,0.0
167.73047,21803.271,2.016,0.0,0.0,309.1214,11046.0,100.0,0.0,0.088254616,0.0,8.0,1.0,0.0,4000000.0,110.0,1.0,0.0,0.0,10.0,0.0,0.0,-387.16495,91.20952,-30.15084,-0.039052676,0.22055535,0.23845771,314.04684,314.0448,308.99902,308.97693,384.0,383.0,453.0,449.0,97.0,97.0,97.0,97.0,0.0,0.0,0.0,0.0,0.048051417,0.047766317,0.05488219,0.054445382,0.0,0.0,0.0,0.0,4974.8267,4783.2363,3018.7048,2247.2886,0.0,0.0,0.0,2.0,1.0,3.093645,-0.015137867,2.4855137E-4,97.0,97.0,97.0,97.0,21.302864,21.302864,24.666473,24.666473,0.01591187,0.015986776,-4.2413358E-4,-4.2155327E-4,1143.5594,0.0,0.0,0.0,0.0,0.0,0.0,0.0,0.0,0.0,0.0,0.0,0.0,0.0,4.0782356,0.12520666,-85.770065,0.008437984,-0.0037172472,-0.0118273925,549706.3,119984.89,0.0040739384,0.007487791,8759.027,8670.942,7908.258,7719.191,0.29742622,0.0,0.0,0.0
172.02734,21807.568,2.066,0.0,0.0,309.4845,11066.0,100.0,0.0,0.07875433,0.0,8.0,1.0,0.0,4000000.0,110.0,1.0,0.0,0.0,10.0,0.0,0.0,-386.96045,91.21563,-34.441967,-0.035751004,0.20518173,-0.17083204,314.6425,314.64386,309.3675,309.34442,382.0,381.0,451.0,447.0,97.0,97.0,97.0,97.0,0.0,0.0,0.0,0.0,0.04698377,0.046934113,0.0539909,0.053819165,0.0,0.0,0.0,0.0,-784.30475,-1211.2452,782.8696,515.145,0.0,0.0,0.0,2.0,1.0,3.093437,-0.01460788,4.26054E-4,97.0,97.0,97.0,97.0,21.302864,21.302864,24.666473,24.666473,0.016673168,0.016738875,-4.149825E-4,-4.1412737E-4,1145.6763,0.0,0.0,0.0,0.0,0.0,0.0,0.0,0.0,0.0,0.0,0.0,0.0,0.0,4.1012554,0.09114143,-85.86998,-0.011730116,-0.0040371604,-0.0054643014,549728.5,119984.9,0.00828204,0.010017902,7907.794,7858.5015,6835.0527,6761.581,0.29998112,0.0,0.0,0.0
176.32812,21811.87,2.116,0.0,0.0,309.84235,11083.0,100.0,0.0,0.059400268,0.0,8.0,1.0,0.0,4000000.0,110.0,1.0,0.0,0.0,10.0,0.0,0.0,-386.75467,91.217514,-38.73809,-0.03676873,0.19621454,-0.25942308,315.09634,315.11105,309.7349,309.7055,380.0,380.0,450.0,446.0,97.0,97.0,97.0,97.0,0.0,0.0,0.0,0.0,0.045586426,0.045320053,0.05341067,0.05328623,0.0,0.0,0.0,0.0,-847.1352,-785.9676,-403.57852,-211.0496,0.0,0.0,0.0,2.0,1.0,3.0931733,-0.014689342,0.0017886162,97.0,97.0,97.0,97.0,21.302864,21.302864,24.666473,24.666473,0.016925445,0.017043179,-4.0391542E-4,-4.0898458E-4,1147.4722,0.0,0.0,0.0,0.0,0.0,0.0,0.0,0.0,0.0,0.0,0.0,0.0,0.0,4.1272817,-0.016074054,-85.9683,-0.039472397,-0.005242653,0.003526391,549745.7,119984.9,0.013087901,0.014477663,7723.1187,7632.413,6443.159,6400.1484,0.30453777,0.0,0.0,0.0
180.63477,21816.176,2.166,0.0,0.0,310.17426,11096.0,100.0,0.0,0.141087,0.0,8.0,1.0,0.0,4000000.0,110.0,1.0,0.0,0.0,10.0,0.0,0.0,-386.54767,91.21405,-43.038944,-0.047528926,0.18257292,-0.13418598,315.47058,315.47986,310.0634,310.0302,379.0,378.0,448.0,444.0,97.0,97.0,97.0,97.0,0.0,0.0,0.0,0.0,0.04416522,0.043779932,0.05392547,0.0536907,0.0,0.0,0.0,0.0,113.685486,276.56247,218.68045,205.47064,0.0,0.0,0.0,2.0,1.0,3.092931,-0.014957771,0.0032570362,97.0,97.0,97.0,97.0,21.302864,21.302864,24.666473,24.666473,0.017113175,0.017238392,-4.0981898E-4,-4.0129875E-4,1148.8472,0.0,0.0,0.0,0.0,0.0,0.0,0.0,0.0,0.0,0.0,0.0,0.0,0.0,4.153533,-0.10514125,-86.05928,-0.0016725024,-0.005930364,0.0060673994,549759.6,119984.9,0.014830647,0.019289045,7618.843,7539.1025,7092.185,6977.961,0.3099785,0.0,0.0,0.0
184.94531,21820.486,2.216,0.0,0.0,310.51978,11099.0,100.0,0.0,0.17126738,0.0,8.0,1.0,0.0,4000000.0,110.0,1.0,0.0,0.0,10.0,0.0,0.0,-386.3392,91.20404,-47.34432,-0.05589528,0.20018104,0.048619594,315.5679,315.57224,310.40677,310.35965,377.0,376.0,446.0,442.0,97.0,97.0,97.0,97.0,0.0,0.0,0.0,0.0,0.044255752,0.043707423,0.054327957,0.053997885,0.0,0.0,0.0,0.0,4582.0444,4588.5347,1138.0747,1110.8367,0.0,0.0,0.0,2.0,1.0,3.0925908,-0.015543545,0.002932787,97.0,97.0,97.0,97.0,21.302864,21.302864,24.666473,24.666473,0.016339058,0.016495818,-4.260489E-4,-4.1750522E-4,1149.1656,0.0,0.0,0.0,0.0,0.0,0.0,0.0,0.0,0.0,0.0,0.0,0.0,0.0,4.1845007,-0.2207206,-86.15365,0.035612185,-0.0077141733,0.008924843,549763.4,119984.91,0.00985036,0.014999926,8244.917,8121.027,7593.835,7429.4404,0.30700302,0.0,0.0,0.0
189.26172,21824.803,2.266,0.0,0.0,310.87152,11099.0,100.0,0.0,0.41946006,0.0,8.0,1.0,0.0,4000000.0,110.0,1.0,0.0,0.0,10.0,0.0,0.0,-386.12894,91.19632,-51.654495,-0.10394178,0.20960386,0.4546689,315.55884,315.574,310.77747,310.67557,375.0,375.0,445.0,441.0,97.0,97.0,97.0,97.0,0.0,0.0,0.0,0.0,0.050301734,0.05026591,0.055407666,0.05500018,0.0,0.0,0.0,0.0,-4690.674,-2953.4465,748.6312,537.00507,0.0,0.0,0.0,2.0,1.0,3.0920095,-0.01570122,-1.5830994E-4,97.0,97.0,97.0,97.0,21.302864,21.302864,24.666473,24.666473,0.015064862,0.015398979,-4.466657E-4,-4.227447E-4,1149.1663,0.0,0.0,0.0,0.0,0.0,0.0,0.0,0.0,0.0,0.0,0.0,0.0,0.0,4.2278547,-0.06795379,-86.24961,0.062283617,-0.01709706,-5.777839E-4,549763.6,119984.91,0.0032108687,0.0052068233,9314.6,9054.76,8061.8687,7876.6206,0.29710865,0.0,0.0,0.0
193.58203,21829.123,2.316,0.0,0.0,311.22128,11114.0,100.0,0.0,0.3216196,0.0,8.0,1.0,0.0,4000000.0,110.0,1.0,0.0,0.0,10.0,0.0,0.0,-385.9161,91.20017,-55.969543,-0.124461204,0.18709123,0.39041987,316.00974,315.97195,311.15527,311.03275,374.0,373.0,443.0,439.0,97.0,97.0,97.0,97.0,0.0,0.0,0.0,0.0,0.049597133,0.04935402,0.055328175,0.05479659,0.0,0.0,0.0,0.0,-2459.4377,-2049.2075,-521.81024,-274.51068,0.0,0.0,0.0,2.0,1.0,3.0910125,-0.015651347,-7.2336197E-4,97.0,97.0,97.0,97.0,21.302864,21.302864,24.666473,24.666473,0.015112442,0.015328591,-4.2212068E-4,-4.1938285E-4,1150.7522,0.0,0.0,0.0,0.0,0.0,0.0,0.0,0.0,0.0,0.0,0.0,0.0,0.0,4.285058,0.18397343,-86.343895,-0.036379967,-0.021352619,-0.003689345,549779.4,119984.91,0.0035205325,0.0041173645,9254.98,9046.871,7650.275,7416.37,0.2952938,0.0,0.0,0.0
197.9082,21833.45,2.366,0.0,0.0,311.53897,11142.0,100.0,0.0,0.20897996,0.0,8.0,1.0,0.0,4000000.0,110.0,1.0,0.0,0.0,10.0,0.0,0.0,-385.69995,91.208984,-60.288948,-0.13721983,0.18708512,-0.22396757,316.79794,316.78113,311.4685,311.35574,372.0,371.0,441.0,438.0,97.0,97.0,97.0,97.0,0.0,0.0,0.0,0.0,0.046529315,0.045942754,0.05446782,0.053897742,0.0,0.0,0.0,0.0,1549.0964,868.5797,696.8378,478.13052,0.0,0.0,0.0,2.0,1.0,3.0899603,-0.015671376,9.086132E-4,97.0,97.0,97.0,97.0,21.302864,21.302864,24.666473,24.666473,0.016736615,0.017003939,-4.0004824E-4,-4.1256272E-4,1153.7133,0.0,0.0,0.0,0.0,0.0,0.0,0.0,0.0,0.0,0.0,0.0,0.0,0.0,4.358439,0.13334042,-86.42867,-0.017606597,-0.018685872,-3.300124E-5,549808.9,119984.914,0.008039832,0.011791636,7907.7515,7643.0703,7092.0835,6817.6025,0.3009882,0.0,0.0,0.0
202.23633,21837.777,2.416,0.0,0.0,311.87054,11153.0,100.0,0.0,0.09441101,0.0,8.0,1.0,0.0,4000000.0,110.0,1.0,0.0,0.0,10.0,0.0,0.0,-385.4802,91.211945,-64.6127,-0.11715881,0.19058767,-0.26865286,317.07816,317.11816,311.76978,311.715,371.0,370.0,440.0,436.0,97.0,97.0,97.0,97.0,0.0,0.0,0.0,0.0,0.045056965,0.04417186,0.053912226,0.053431634,0.0,0.0,0.0,0.0,814.17096,783.25854,693.37775,417.13712,0.0,0.0,0.0,2.0,1.0,3.0893,-0.01584604,0.0015364885,97.0,97.0,97.0,97.0,21.302864,21.302864,24.666473,24.666473,0.016715996,0.016984953,-4.0363148E-4,-4.161601E-4,1154.8767,0.0,0.0,0.0,0.0,0.0,0.0,0.0,0.0,0.0,0.0,0.0,0.0,0.0,4.4264297,-0.0051779323,-86.51755,-0.010867767,-0.008653687,0.0040090512,549820.5,119984.9,0.009495412,0.013805295,7848.8296,7616.3877,6844.744,6616.922,0.30304813,0.0,0.0,0.0
206.57227,21842.113,2.466,0.0,0.0,312.2035,11157.0,100.0,0.0,0.04663013,0.0,8.0,1.0,0.0,4000000.0,110.0,1.0,0.0,0.0,10.0,0.0,0.0,-385.25745,91.20999,-68.940956,-0.08149505,0.1881922,-0.016416814,317.20612,317.24576,312.07748,312.0621,369.0,368.0,438.0,434.0,97.0,97.0,97.0,97.0,0.0,0.0,0.0,0.0,0.04626778,0.04554797,0.05447569,0.054095294,0.0,0.0,0.0,0.0,1361.2747,1094.7031,-151.37042,-5.8204074,0.0,0.0,0.0,2.0,1.0,3.0890558,-0.015930943,0.0013868809,97.0,97.0,97.0,97.0,21.302864,21.302864,24.666473,24.666473,0.016096558,0.016250698,-4.139246E-4,-4.1928203E-4,1155.3013,0.0,0.0,0.0,0.0,0.0,0.0,0.0,0.0,0.0,0.0,0.0,0.0,0.0,4.478098,-0.05069631,-86.60748,0.017364834,-0.0018600952,0.0025950843,549825.44,119984.9,0.0069940155,0.011122939,8350.631,8180.382,7395.599,7238.5894,0.3006525,0.0,0.0,0.0
210.91016,21846.451,2.516,0.0,0.0,312.5366,11165.0,100.0,0.0,0.108807415,0.0,8.0,1.0,0.0,4000000.0,110.0,1.0,0.0,0.0,10.0,0.0,0.0,-385.03253,91.208115,-73.27372,-0.060310684,0.1883964,0.10278917,317.43762,317.4689,312.4112,312.3962,367.0,367.0,436.0,433.0,97.0,97.0,97.0,97.0,0.0,0.0,0.0,0.0,0.048754748,0.048274472,0.05461063,0.05436928,0.0,0.0,0.0,0.0,-1400.6094,-801.1223,-83.80561,25.024994,0.0,0.0,0.0,2.0,1.0,3.0889742,-0.01605095,5.902052E-4,97.0,97.0,97.0,97.0,21.302864,21.302864,24.666473,24.666473,0.015704079,0.015835457,-4.213603E-4,-4.1562875E-4,1156.1478,0.0,0.0,0.0,0.0,0.0,0.0,0.0,0.0,0.0,0.0,0.0,0.0,0.0,4.514825,-0.01748768,-86.69824,0.0072226417,-0.0024938493,0.002332596,549834.06,119984.9,0.005804477,0.007501287,8663.2705,8521.023,7379.1187,7282.345,0.29844666,0.0,0.0,0.0
215.2539,21850.795,2.566,0.0,0.0,312.86044,11179.0,100.0,0.0,0.24636562,0.0,8.0,1.0,0.0,4000000.0,110.0,1.0,0.0,0.0,10.0,0.0,0.0,-384.80588,91.208565,-77.61099,-0.07080677,0.17811014,0.016892161,317.84668,317.85825,312.7605,312.70377,366.0,365.0,435.0,431.0,97.0,97.0,97.0,97.0,0.0,0.0,0.0,0.0,0.048235804,0.047973674,0.054564185,0.054324344,0.0,0.0,0.0,0.0,-528.4756,-379.53253,-29.55794,-166.99431,0.0,0.0,0.0,2.0,1.0,3.0886571,-0.016406476,9.3638897E-4,97.0,97.0,97.0,97.0,21.302864,21.302864,24.666473,24.666473,0.01585187,0.01605378,-4.1943503E-4,-4.0287973E-4,1157.6288,0.0,0.0,0.0,0.0,0.0,0.0,0.0,0.0,0.0,0.0,0.0,0.0,0.0,4.5512404,0.020474829,-86.78642,-0.014460597,-0.010496569,0.008272025,549848.94,119984.91,0.0066332626,0.008637856,8475.077,8310.1875,7297.0547,7174.1826,0.29932213,0.0,0.0,0.0
219.60156,21855.143,2.616,0.0,0.0,313.17358,11193.0,100.0,0.0,0.18141782,0.0,8.0,1.0,0.0,4000000.0,110.0,1.0,0.0,0.0,10.0,0.0,0.0,-384.5772,91.208664,-81.952545,-0.07821118,0.17643711,-0.099543326,318.2488,318.24362,313.08173,313.00882,364.0,363.0,433.0,430.0,97.0,97.0,97.0,97.0,0.0,0.0,0.0,0.0,0.0475985,0.047111187,0.054402173,0.054034244,0.0,0.0,0.0,0.0,-301.94962,-74.67269,-159.72552,-109.40729,0.0,0.0,0.0,2.0,1.0,3.0880392,-0.01660986,0.001459837,97.0,97.0,97.0,97.0,21.302864,21.302864,24.666473,24.666473,0.016137235,0.01632078,-4.0854962E-4,-4.0753995E-4,1159.1095,0.0,0.0,0.0,0.0,0.0,0.0,0.0,0.0,0.0,0.0,0.0,0.0,0.0,4.5937905,-0.018052295,-86.871284,-0.0075855474,-0.012423717,0.002464302,549863.6,119984.9,0.008121842,0.010720362,8217.691,8082.5894,7152.88,6984.1143,0.30128574,0.0,0.0,0.0
223.95508,21859.496,2.666,0.0,0.0,313.48532,11203.0,100.0,0.0,0.10638007,0.0,8.0,1.0,0.0,4000000.0,110.0,1.0,0.0,0.0,10.0,0.0,0.0,-384.3463,91.20651,-86.29834,-0.07748301,0.17660159,-0.044927206,318.5179,318.5179,313.37976,313.3277,363.0,362.0,432.0,428.0,97.0,97.0,97.0,97.0,0.0,0.0,0.0,0.0,0.047362804,0.04684281,0.054575495,0.054118194,0.0,0.0,0.0,0.0,532.7001,698.3935,377.17218,401.09747,0.0,0.0,0.0,2.0,1.0,3.0875,-0.016653992,0.001552105,97.0,97.0,97.0,97.0,21.302864,21.302864,24.666473,24.666473,0.01604802,0.016189234,-4.103041E-4,-4.1408048E-4,1160.1667,0.0,0.0,0.0,0.0,0.0,0.0,0.0,0.0,0.0,0.0,0.0,0.0,0.0,4.6382074,-0.057624694,-86.95562,0.008025679,-0.008408211,-0.0020804342,549873.9,119984.91,0.0070272386,0.010642603,8310.054,8190.0913,7404.2866,7191.236,0.30133438,0.0,0.0,0.0
228.31055,21863.852,2.716,0.0,0.0,313.80017,11207.0,100.0,0.0,0.08154049,0.0,8.0,1.0,0.0,4000000.0,110.0,1.0,0.0,0.0,10.0,0.0,0.0,-384.11334,91.20415,-90.64838,-0.0686108,0.17947999,0.20938878,318.63672,318.6516,313.67957,313.64838,361.0,360.0,430.0,426.0,97.0,97.0,97.0,97.0,0.0,0.0,0.0,0.0,0.04923759,0.048863646,0.05513355,0.054561593,0.0,0.0,0.0,0.0,1833.2228,1715.983,842.45496,438.2327,0.0,0.0,0.0,2.0,1.0,3.0871964,-0.016232824,5.2309036E-4,97.0,97.0,97.0,97.0,21.302864,21.302864,24.666473,24.666473,0.015424791,0.015569668,-4.1696834E-4,-4.1952953E-4,1160.5914,0.0,0.0,0.0,0.0,0.0,0.0,0.0,0.0,0.0,0.0,0.0,0.0,0.0,4.6772213,-0.015701557,-87.04114,0.028369784,-0.004599791,-0.020495964,549878.8,119984.9,0.004913,0.007019577,8929.795,8763.737,7871.704,7581.1934,0.29904842,0.0,0.0,0.0
232.67188,21868.213,2.766,0.0,0.0,314.1074,11227.0,100.0,0.0,0.08356431,0.0,8.0,1.0,0.0,4000000.0,110.0,1.0,0.0,0.0,10.0,0.0,0.0,-383.8787,91.205574,-95.00267,-0.04961163,0.16680418,-0.19107896,319.19437,319.19327,313.98737,313.97137,359.0,359.0,428.0,425.0,97.0,97.0,97.0,97.0,0.0,0.0,0.0,0.0,0.047484558,0.047618564,0.054325987,0.054256972,0.0,0.0,0.0,0.0,-4103.35,-4066.4297,-1343.4915,-1462.2463,0.0,0.0,0.0,2.0,1.0,3.0870388,-0.015505407,4.7016144E-4,97.0,97.0,97.0,97.0,21.302864,21.302864,24.666473,24.666473,0.016200868,0.016203742,-4.1133037E-4,-4.0842648E-4,1162.7056,0.0,0.0,0.0,0.0,0.0,0.0,0.0,0.0,0.0,0.0,0.0,0.0,0.0,4.7073364,0.021582969,-87.12498,-0.019600524,-0.0029702866,0.0069382037,549899.1,119984.91,0.004741549,0.0070984857,7966.068,8001.1104,6805.2295,6792.7593,0.2987318,0.0,0.0,0.0
237.03711,21872.578,2.816,0.0,0.0,314.43304,11233.0,100.0,0.0,0.124948926,0.0,8.0,1.0,0.0,4000000.0,110.0,1.0,0.0,0.0,10.0,0.0,0.0,-383.6425,91.2056,-99.36125,-0.04961651,0.18600087,-0.029424908,319.3812,319.39243,314.31827,314.28513,358.0,357.0,427.0,423.0,97.0,97.0,97.0,97.0,0.0,0.0,0.0,0.0,0.047904886,0.047484193,0.054464035,0.054204956,0.0,0.0,0.0,0.0,1419.8405,1780.772,-1485.2596,-963.9858,0.0,0.0,0.0,2.0,1.0,3.086813,-0.015912987,5.0497055E-4,97.0,97.0,97.0,97.0,21.302864,21.302864,24.666473,24.666473,0.015748614,0.015868038,-4.1774302E-4,-4.1321648E-4,1163.3425,0.0,0.0,0.0,0.0,0.0,0.0,0.0,0.0,0.0,0.0,0.0,0.0,0.0,4.738195,-0.00671228,-87.2139,-0.0035466787,-0.005735964,0.0051938198,549906.5,119984.9,0.0051021185,0.005634688,8526.6045,8423.875,7126.8125,7025.7607,0.29522514,0.0,0.0,0.0
241.4043,21876.945,2.866,0.0,0.0,314.6438,11253.0,100.0,0.0,0.028877461,0.0,8.0,1.0,0.0,4000000.0,110.0,1.0,0.0,0.0,10.0,0.0,0.0,-383.40564,91.20511,-103.72336,-0.05346137,0.16165635,-0.4400763,319.93735,319.99432,314.53348,314.5294,356.0,356.0,425.0,422.0,97.0,97.0,97.0,97.0,0.0,0.0,0.0,0.0,0.046794996,0.046682507,0.05256005,0.05290317,0.0,0.0,0.0,0.0,-2484.047,-4645.3438,2162.8262,604.4222,0.0,0.0,0.0,2.0,1.0,3.086663,-0.016041938,0.00243783,97.0,97.0,97.0,97.0,21.302864,21.302864,24.666473,24.666473,0.016724823,0.016883265,-3.8062778E-4,-3.9010192E-4,1165.4591,0.0,0.0,0.0,0.0,0.0,0.0,0.0,0.0,0.0,0.0,0.0,0.0,0.0,4.7432117,-0.070643514,-87.272224,-0.08410784,-0.0013723366,0.021729235,549927.9,119984.914,0.014580581,0.012602349,7647.6924,7489.5596,5762.0327,5899.472,0.29773903,0.0,0.0,0.0
245.77734,21881.318,2.916,0.0,0.0,314.92868,11276.0,100.0,0.0,-0.059224408,0.0,8.0,1.0,0.0,4000000.0,110.0,1.0,0.0,0.0,10.0,0.0,0.0,-383.16772,91.19083,-108.08893,-0.020433169,0.17093588,-0.5123595,320.57538,320.6634,314.80466,314.81073,355.0,354.0,424.0,420.0,97.0,97.0,97.0,97.0,0.0,0.0,0.0,0.0,0.040565196,0.039423283,0.052939523,0.0530151,0.0,0.0,0.0,0.0,4721.4385,4896.7744,1794.4781,1850.2278,0.0,0.0,0.0,2.0,1.0,3.086619,-0.018174797,0.0074448586,97.0,97.0,97.0,97.0,21.302864,21.302864,24.666473,24.666473,0.018113615,0.018357672,-3.9395367E-4,-4.0588222E-4,1167.8928,0.0,0.0,0.0,0.0,0.0,0.0,0.0,0.0,0.0,0.0,0.0,0.0,0.0,4.770134,-0.43243316,-87.34897,-0.052062448,0.0010464217,0.034036633,549952.2,119984.9,0.013331016,0.021297453,6932.5986,6680.551,6869.5146,6885.459,0.3036499,0.0,0.0,0.0
250.15234,21885.693,2.966,0.0,0.0,315.21948,11263.0,100.0,0.0,-0.6198863,0.0,8.0,1.0,0.0,4000000.0,110.0,1.0,0.0,0.0,10.0,0.0,0.0,-382.9295,91.16716,-112.45857,0.09883146,0.15909034,0.0063556726,320.18088,320.27808,315.01163,315.15195,353.0,352.0,422.0,419.0,97.0,97.0,97.0,97.0,0.0,0.0,0.0,0.0,0.045324776,0.044704672,0.05427375,0.054754697,0.0,0.0,0.0,0.0,98.55743,1878.6583,-2060.8213,-571.41766,0.0,0.0,0.0,2.0,1.0,3.0872602,-0.018888043,0.0063818693,97.0,97.0,97.0,97.0,21.302864,21.302864,24.666473,24.666473,0.016100427,0.015943287,-3.7901956E-4,-4.389092E-4,1166.5164,0.0,0.0,0.0,0.0,0.0,0.0,0.0,0.0,0.0,0.0,0.0,0.0,0.0,4.7501426,-0.48091522,-87.4307,0.05033909,0.027675431,0.0028340425,549938.06,119984.9,0.009816852,0.0150482,8292.879,8274.608,7259.3975,7575.927,0.30361557,0.0,0.0,0.0
254.53125,21890.072,3.016,0.0,0.0,315.07928,11254.0,100.0,0.0,-0.8610992,0.0,8.0,1.0,0.0,4000000.0,110.0,1.0,0.0,0.0,10.0,0.0,0.0,-382.69492,91.14789,-116.831345,0.56880105,-0.19761321,0.95767355,319.8749,320.03815,314.9645,315.2904,352.0,351.0,421.0,417.0,97.0,97.0,97.0,97.0,0.0,0.0,0.0,0.0,0.049747597,0.051116224,0.053758327,0.05537661,0.0,0.0,0.0,0.0,-6544.9644,-2026.1941,-6529.327,-3965.471,0.0,0.0,0.0,2.0,1.0,3.0894454,-0.018549263,0.0016306639,97.0,97.0,97.0,97.0,21.302864,21.302864,24.666473,24.666473,0.015335758,0.01478299,-4.3514417E-4,-4.8360153E-4,1165.5635,0.0,0.0,0.0,0.0,0.0,0.0,0.0,0.0,0.0,0.0,0.0,0.0,0.0,4.5479684,-0.13716936,-87.40367,0.15892358,0.063799396,-0.06404641,549928.25,119984.91,0.004960252,0.005181422,9148.4375,9619.085,6327.3955,7170.4355,0.29434395,0.0,0.0,0.0
258.9082,21894.45,3.066,0.0,0.0,315.18744,11267.0,100.0,0.0,-0.6961053,0.0,8.0,1.0,0.0,4000000.0,110.0,1.0,0.0,0.0,10.0,0.0,0.0,-382.47183,91.14456,-121.2023,0.16187838,0.15224235,-0.18818061,320.3078,320.39835,314.94324,315.19946,350.0,349.0,419.0,416.0,97.0,97.0,97.0,97.0,0.0,0.0,0.0,0.0,0.04670732,0.04753883,0.05264088,0.054247756,0.0,0.0,0.0,0.0,4015.87,864.82446,5657.636,2459.5315,0.0,0.0,0.0,2.0,1.0,3.0917926,-0.019793326,0.0024961233,97.0,97.0,97.0,97.0,21.302864,21.302864,24.666473,24.666473,0.01653436,0.015972733,-3.8075013E-4,-3.9963343E-4,1166.9401,0.0,0.0,0.0,0.0,0.0,0.0,0.0,0.0,0.0,0.0,0.0,0.0,0.0,4.404914,-0.06557089,-87.44116,-0.0775369,0.043269735,0.09847997,549942.5,119984.9,0.008602899,0.010451105,7860.417,8285.775,6738.7373,7317.9116,0.29958248,0.0,0.0,0.0
263.2871,21898.828,3.116,0.0,0.0,315.4655,11276.0,100.0,0.0,-0.5838604,0.0,8.0,1.0,0.0,4000000.0,110.0,1.0,0.0,0.0,10.0,0.0,0.0,-382.25403,91.13787,-125.57648,0.25527397,0.16374624,-0.07625791,320.54855,320.65564,315.2037,315.46085,349.0,348.0,418.0,414.0,97.0,97.0,97.0,97.0,0.0,0.0,0.0,0.0,0.045177564,0.045275696,0.05415374,0.05467109,0.0,0.0,0.0,0.0,2178.1143,4229.91,-245.05998,2267.9282,0.0,0.0,0.0,2.0,1.0,3.093974,-0.021434436,0.0038875341,97.0,97.0,97.0,97.0,21.302864,21.302864,24.666473,24.666473,0.016598523,0.016207604,-4.066764E-4,-4.0720977E-4,1167.8923,0.0,0.0,0.0,0.0,0.0,0.0,0.0,0.0,0.0,0.0,0.0,0.0,0.0,4.303534,-0.17321405,-87.5234,0.015693512,0.043901347,-0.019391315,549951.94,119984.914,0.008654936,0.013754929,7925.947,8174.203,7422.367,7743.254,0.3029213,0.0,0.0,0.0
267.66992,21903.21,3.166,0.0,0.0,315.74216,11279.0,100.0,0.0,-0.28813714,0.0,8.0,1.0,0.0,4000000.0,110.0,1.0,0.0,0.0,10.0,0.0,0.0,-382.04224,91.128716,-129.95483,0.25993612,0.15697566,0.018539635,320.66525,320.7226,315.51688,315.70013,347.0,346.0,416.0,412.0,97.0,97.0,97.0,97.0,0.0,0.0,0.0,0.0,0.047053907,0.048490893,0.053868406,0.05505508,0.0,0.0,0.0,0.0,608.41895,-622.80896,432.14407,-368.5891,0.0,0.0,0.0,2.0,1.0,3.0959005,-0.02083783,0.002593279,97.0,97.0,97.0,97.0,21.302864,21.302864,24.666473,24.666473,0.015908917,0.0155939,-4.1666726E-4,-3.9546046E-4,1168.2107,0.0,0.0,0.0,0.0,0.0,0.0,0.0,0.0,0.0,0.0,0.0,0.0,0.0,4.177126,-0.18402931,-87.60644,0.021303823,0.030392274,0.006495807,549955.56,119984.92,0.009351569,0.0109852655,8372.087,8710.679,6995.579,7529.054,0.30217457,0.0,0.0,0.0
272.05664,21907.598,3.216,0.0,0.0,316.0133,11287.0,100.0,0.0,0.021295808,0.0,8.0,1.0,0.0,4000000.0,110.0,1.0,0.0,0.0,10.0,0.0,0.0,-381.8362,91.120514,-134.33731,0.18888023,0.1501301,0.14224112,320.9236,320.88956,315.86285,315.90445,346.0,345.0,414.0,411.0,97.0,97.0,97.0,97.0,0.0,0.0,0.0,0.0,0.04860656,0.048870172,0.054461136,0.054864865,0.0,0.0,0.0,0.0,-2228.8618,-150.20369,267.36252,615.8888,0.0,0.0,0.0,2.0,1.0,3.0967653,-0.02173301,0.0022314787,97.0,97.0,97.0,97.0,21.302864,21.302864,24.666473,24.666473,0.0156202465,0.015425384,-4.2283436E-4,-3.9129806E-4,1169.0563,0.0,0.0,0.0,0.0,0.0,0.0,0.0,0.0,0.0,0.0,0.0,0.0,0.0,4.0732775,-0.13765937,-87.68681,5.4195296E-4,0.005344665,0.011818057,549963.56,119984.92,0.009693643,0.010749623,8545.9,8906.99,7438.6016,7587.513,0.30308628,0.0,0.0,0.0
276.44727,21911.988,3.266,0.0,0.0,316.28244,11297.0,100.0,0.0,0.19583465,0.0,8.0,1.0,0.0,4000000.0,110.0,1.0,0.0,0.0,10.0,0.0,0.0,-381.63416,91.11235,-138.72365,0.08195211,0.15691969,0.108742945,321.2241,321.15497,316.17636,316.1179,344.0,343.0,413.0,409.0,97.0,97.0,97.0,97.0,0.0,0.0,0.0,0.0,0.04798261,0.04856397,0.05462277,0.055087257,0.0,0.0,0.0,0.0,2626.6733,3006.957,713.22614,801.1892,0.0,0.0,0.0,2.0,1.0,3.0965557,-0.02094397,0.0018918514,97.0,97.0,97.0,97.0,21.302864,21.302864,24.666473,24.666473,0.015628075,0.015589926,-4.1869716E-4,-4.059699E-4,1170.1146,0.0,0.0,0.0,0.0,0.0,0.0,0.0,0.0,0.0,0.0,0.0,0.0,0.0,4.020184,-0.15613092,-87.76407,0.030230451,-0.010078682,-0.0038472943,549974.2,119984.9,0.0066520493,0.009208615,8551.35,8702.822,7658.325,7903.105,0.3011427,0.0,0.0,0.0
280.8418,21916.383,3.316,0.0,0.0,316.56363,11299.0,100.0,0.0,0.14608335,0.0,8.0,1.0,0.0,4000000.0,110.0,1.0,0.0,0.0,10.0,0.0,0.0,-381.4336,91.10833,-143.11395,0.0021524108,0.15767848,0.38860416,321.23303,321.22562,316.4674,316.39014,343.0,342.0,411.0,408.0,97.0,97.0,97.0,97.0,0.0,0.0,0.0,0.0,0.050069835,0.049641624,0.055288162,0.055421527,0.0,0.0,0.0,0.0,-3372.475,-1792.1044,7.094478,460.8705,0.0,0.0,0.0,2.0,1.0,3.0959606,-0.021988658,2.3686886E-4,97.0,97.0,97.0,97.0,21.302864,21.302864,24.666473,24.666473,0.0146768065,0.014872324,-4.1571065E-4,-4.2029403E-4,1170.3254,0.0,0.0,0.0,0.0,0.0,0.0,0.0,0.0,0.0,0.0,0.0,0.0,0.0,4.0068974,0.0024094433,-87.843,0.014473069,-0.012541913,0.016821498,549975.9,119984.9,0.0036012845,0.005288499,9450.801,9277.26,7897.822,7949.5293,0.29685783,0.0,0.0,0.0
285.24023,21920.781,3.366,0.0,0.0,316.82547,11315.0,100.0,0.0,0.03460227,0.0,8.0,1.0,0.0,4000000.0,110.0,1.0,0.0,0.0,10.0,0.0,0.0,-381.233,91.11212,-147.50801,-0.023295501,0.14861317,0.11192499,321.67883,321.70358,316.71652,316.6744,341.0,340.0,410.0,406.0,97.0,97.0,97.0,97.0,0.0,0.0,0.0,0.0,0.04894853,0.04853923,0.054981142,0.055178933,0.0,0.0,0.0,0.0,-85.24051,334.96762,-155.39378,-519.0878,0.0,0.0,0.0,2.0,1.0,3.0954678,-0.023128923,8.46386E-6,97.0,97.0,97.0,97.0,21.302864,21.302864,24.666473,24.666473,0.015251811,0.015442997,-4.0142037E-4,-4.147785E-4,1172.0192,0.0,0.0,0.0,0.0,0.0,0.0,0.0,0.0,0.0,0.0,0.0,0.0,0.0,4.0176344,0.11510998,-87.915245,-0.007346092,-0.006591215,0.0228783,549993.0,119984.91,0.004026427,0.0062867305,8899.918,8674.577,7487.0234,7557.788,0.29678154,0.0,0.0,0.0
289.64258,21925.184,3.416,0.0,0.0,317.09024,11327.0,100.0,0.0,-0.029024756,0.0,8.0,1.0,0.0,4000000.0,110.0,1.0,0.0,0.0,10.0,0.0,0.0,-381.0318,91.117546,-151.9057,-0.011974815,0.15275721,0.024028054,322.04065,322.07245,316.9548,316.9636,340.0,339.0,408.0,405.0,97.0,97.0,97.0,97.0,0.0,0.0,0.0,0.0,0.048325945,0.047891367,0.05483164,0.054787476,0.0,0.0,0.0,0.0,2633.795,2624.9033,1216.9181,1234.8755,0.0,0.0,0.0,2.0,1.0,3.0953927,-0.024122117,2.6738644E-4,97.0,97.0,97.0,97.0,21.302864,21.302864,24.666473,24.666473,0.015666451,0.015733067,-4.0413433E-4,-4.084711E-4,1173.291,0.0,0.0,0.0,0.0,0.0,0.0,0.0,0.0,0.0,0.0,0.0,0.0,0.0,4.028783,0.103279516,-87.98837,0.005676926,0.0019545718,0.015396558,550006.56,119984.91,0.0053210715,0.0083240615,8574.772,8472.948,7647.103,7608.917,0.29830837,0.0,0.0,0.0
294.04883,21929.59,3.466,0.0,0.0,317.35397,11340.0,100.0,0.0,0.058847427,0.0,8.0,1.0,0.0,4000000.0,110.0,1.0,0.0,0.0,10.0,0.0,0.0,-380.8301,91.121735,-156.30704,-0.010618282,0.14891067,-0.2131321,322.4198,322.43283,317.22617,317.2263,338.0,337.0,407.0,403.0,97.0,97.0,97.0,97.0,0.0,0.0,0.0,0.0,0.047619477,0.04760038,0.054376133,0.05411095,0.0,0.0,0.0,0.0,-1165.2991,-1274.143,-184.88461,-237.65709,0.0,0.0,0.0,2.0,1.0,3.0954487,-0.024231225,2.6392937E-4,97.0,97.0,97.0,97.0,21.302864,21.302864,24.666473,24.666473,0.0160038,0.016049666,-4.0608604E-4,-3.9638355E-4,1174.6671,0.0,0.0,0.0,0.0,0.0,0.0,0.0,0.0,0.0,0.0,0.0,0.0,0.0,4.0391884,0.04664156,-88.06128,-0.008989262,-5.802736E-4,-0.00582646,550020.4,119984.91,0.0064390725,0.008872591,8125.0566,8090.103,7021.163,6884.747,0.2993269,0.0,0.0,0.0
298.45703,21933.998,3.516,0.0,0.0,317.6269,11347.0,100.0,0.0,0.02922618,0.0,8.0,1.0,0.0,4000000.0,110.0,1.0,0.0,0.0,10.0,0.0,0.0,-380.6279,91.12242,-160.71211,-0.009597693,0.15332618,-0.04593212,322.60837,322.617,317.5032,317.49066,337.0,336.0,405.0,402.0,97.0,97.0,97.0,97.0,0.0,0.0,0.0,0.0,0.04779621,0.047777407,0.05456943,0.05440016,0.0,0.0,0.0,0.0,884.0024,171.66133,120.52505,255.21213,0.0,0.0,0.0,2.0,1.0,3.095346,-0.02381421,7.3456764E-4,97.0,97.0,97.0,97.0,21.302864,21.302864,24.666473,24.666473,0.015720537,0.01577996,-4.0705083E-4,-4.0897465E-4,1175.4073,0.0,0.0,0.0,0.0,0.0,0.0,0.0,0.0,0.0,0.0,0.0,0.0,0.0,4.048922,-0.0025361506,-88.13674,-0.0043341196,-0.0020900979,-0.0075672325,550027.44,119984.91,0.0050781965,0.0077701807,8424.467,8367.339,7427.9844,7369.1543,0.29834938,0.0,0.0,0.0
302.8711,21938.412,3.566,0.0,0.0,317.89685,11355.0,100.0,0.0,-0.18443915,0.0,8.0,1.0,0.0,4000000.0,110.0,1.0,0.0,0.0,10.0,0.0,0.0,-380.4252,91.12203,-165.12093,0.019240556,0.15333788,0.009726336,322.82352,322.85733,317.75146,317.7821,335.0,335.0,404.0,400.0,97.0,97.0,97.0,97.0,0.0,0.0,0.0,0.0,0.04841498,0.048343927,0.054559603,0.054714404,0.0,0.0,0.0,0.0,-459.03323,-810.4293,-37.711853,-42.848278,0.0,0.0,0.0,2.0,1.0,3.0954087,-0.02374428,8.698702E-4,97.0,97.0,97.0,97.0,21.302864,21.302864,24.666473,24.666473,0.015591751,0.015584771,-3.971179E-4,-4.20187E-4,1176.2544,0.0,0.0,0.0,0.0,0.0,0.0,0.0,0.0,0.0,0.0,0.0,0.0,0.0,4.0495367,-0.008735162,-88.21178,-0.0052893464,0.006233803,0.005476529,550036.0,119984.9,0.0046434156,0.0067902035,8558.465,8501.924,7373.318,7460.9053,0.29770565,0.0,0.0,0.0
