LapDistance [m],TotalDistance [m],LapTime [s],Sector1Time [s],Sector2Time [s],Speed [km/h],EngineRevs [rpm],ThrottlePercentage [%],BrakePercentage [%],Steer [%],Clutch [%],Gear [int],DRS [0/1],CanUseDRS [0/1],KERSLevel [J],EngineTemperature [C],RacePosition [int],Sector [int],InPits [int],FuelRemaining [kg],CurrentFlag [int],CurrentLapInvalid [int],X [m],Y [m],Z [m],GForceLatitudinal [G],GForceLongitudinal [G],GForceVertical [G],WheelSpeedRearLeft [km/h],WheelSpeedRearRight [km/h],WheelSpeedFrontLeft [km/h],WheelSpeedFrontRight [km/h],BrakeTemperatureRearLeft [C],BrakeTemperatureRearRight [C],BrakeTemperatureFrontLeft [C],BrakeTemperatureFrontRight [C],TyreTemperatureRearLeft [C],TyreTemperatureRearRight [C],TyreTemperatureFrontLeft [C],TyreTemperatureFrontRight [C],TyreWearRearLeft [%],TyreWearRearRight [%],TyreWearFrontLeft [%],TyreWearFrontRight [%],SuspensionPositionRearLeft [m],SuspensionPositionRearRight [m],SuspensionPositionFrontLeft [m],SuspensionPositionFrontRight [m],SuspensionVelocityRearLeft [m/s],SuspensionVelocityRearRight [m/s],SuspensionVelocityFrontLeft [m/s],SuspensionVelocityFrontRight [m/s],SuspensionAccelerationRearLeft [m/s^2],SuspensionAccelerationRearRight [m/s^2],SuspensionAccelerationFrontLeft [m/s^2],SuspensionAccelerationFrontRight [m/s^2],MGUKHarvested [J],MGUHHarvested [J],ERSSpent [J],ERSMode [int],FuelMixMode [int],Yaw [rad],Roll [rad],Pitch [rad],TyreCarcassTemperatureRearLeft [C],TyreCarcassTemperatureRearRight [C],TyreCarcassTemperatureFrontLeft [C],TyreCarcassTemperatureFrontRight [C],TyrePressureRearLeft [PSI],TyrePressureRearRight [PSI],TyrePressureFrontLeft [PSI],TyrePressureFrontRight [PSI],WheelSlipRearLeft [%],WheelSlipRearRight [%],WheelSlipFrontLeft [%],WheelSlipFrontRight [%],Torque [Nm],Handbrake [%],RearLeftInside [C],RearLeftMiddle [C],RearLeftOutside [C],RearRightInside [C],RearRightMiddle [C],RearRightOutside [C],FrontLeftInside [C],FrontLeftMiddle [C],FrontLeftOutside [C],FrontRightInside [C],FrontRightMiddle [C],FrontRightOutside [C],WoldSpeedX [km/h],WoldSpeedY [km/h],WoldSpeedZ [km/h],LocalAngularVelocityX [rad/s],LocalAngularVelocityY [rad/s],LocalAngularVelocityZ [rad/s],IcePower [W],MgukPower [W],FrontRideHeight [m],RearRideHeight [m],LoadRearLeft [N],LoadRearRight [N],LoadFrontLeft [N],LoadFrontRight [N],Extra1 [m],Extra2 [],Extra3 [],Extra4 []
3.0763285,3.0763285,0.033,0.0,0.0,293.836,10583.0,100.0,0.0,0.007856017,0.0,8.0,1.0,0.0,4000000.0,110.0,1.0,0.0,0.0,10.0,0.0,0.0,-395.2983,91.18222,134.23973,-0.0063924175,0.33774492,0.0010387196,299.38193,299.35828,293.70053,293.69742,443.0,441.0,510.0,505.0,97.0,97.0,97.0,97.0,0.0,0.0,0.0,0.0,0.04281777,0.043057177,0.052286405,0.052068997,-2.3102758,0.9948759,0.99822867,4.706606,-360.85092,143.95413,-111.6067,283.2278,0.0,0.0,0.0,2.0,1.0,3.0976472,-0.019442244,8.4638596E-4,97.0,97.0,97.0,97.0,21.710573,21.710573,24.666473,24.666473,0.018888695,0.018812941,-4.5895734E-4,-4.5969247E-4,1081.0615,0.0,0.0,0.0,0.0,0.0,0.0,0.0,0.0,0.0,0.0,0.0,0.0,0.0,3.5593271,0.059615266,-81.54344,0.0027462319,-3.9424576E-4,-0.011661674,542398.7,119984.9,0.0136559885,0.018079653,7061.443,7111.3335,5994.2783,5914.8535,0.31178188,0.0,0.0,0.0
5.8024187,5.8024187,0.083,0.0,0.0,294.24237,10594.0,100.0,0.0,0.010809988,0.0,8.0,1.0,0.0,4000000.0,110.0,1.0,0.0,0.0,10.0,0.0,0.0,-395.17957,91.184235,131.51958,-0.0070445463,0.3426777,0.0012903302,299.69443,299.68,294.10498,294.10434,441.0,440.0,509.0,504.0,97.0,97.0,97.0,97.0,0.0,0.0,0.0,0.0,0.043000985,0.04319521,0.052320726,0.052045885,0.0,0.0,0.0,0.0,277.16605,120.87373,-9.106095,-135.07602,0.0,0.0,0.0,2.0,1.0,3.0976443,-0.019039705,7.1561337E-4,97.0,97.0,97.0,97.0,21.710573,21.710573,24.666473,24.666473,0.018573714,0.018540828,-4.6287107E-4,-4.6073904E-4,1082.5769,0.0,0.0,0.0,0.0,0.0,0.0,0.0,0.0,0.0,0.0,0.0,0.0,0.0,3.5666282,0.059968214,-81.65611,0.004295662,-8.429205E-5,-0.014610257,542595.0,119984.91,0.0136406785,0.017704764,7139.488,7157.463,5989.036,5853.8594,0.3111534,0.0,0.0,0.0
11.265841,11.265841,0.133,0.0,0.0,295.03937,10622.0,100.0,0.0,0.026540164,0.0,8.0,1.0,0.0,4000000.0,110.0,1.0,0.0,0.0,10.0,0.0,0.0,-394.94125,91.188385,126.068115,-0.006203872,0.33708107,0.0028567591,300.48804,300.47064,294.90442,294.9003,439.0,438.0,506.0,501.0,97.0,97.0,97.0,97.0,0.0,0.0,0.0,0.0,0.04325075,0.043560643,0.052314367,0.05211582,-1.4747678,5.2104144,-1.5854089,2.9224901,-244.84541,319.1426,-204.51842,202.43971,0.0,0.0,0.0,2.0,1.0,3.0976093,-0.018186457,6.8712234E-4,97.0,97.0,97.0,97.0,21.710573,21.710573,24.666473,24.666473,0.018512089,0.018440114,-4.6044166E-4,-4.5857034E-4,1086.4155,0.0,0.0,0.0,0.0,0.0,0.0,0.0,0.0,0.0,0.0,0.0,0.0,0.0,3.5806549,0.063928425,-81.8771,1.9801894E-4,-7.179411E-4,-0.011142764,543083.56,119984.89,0.013480797,0.017354436,7141.226,7201.6396,5987.2256,5917.4937,0.3111725,0.0,0.0,0.0
15.373016,15.373016,0.183,0.0,0.0,295.6295,10643.0,100.0,0.0,0.026810884,0.0,8.0,1.0,0.0,4000000.0,110.0,1.0,0.0,0.0,10.0,0.0,0.0,-394.76196,91.19154,121.96993,-0.00666066,0.3338844,-7.6557987E-4,301.0742,301.05887,295.49496,295.49005,437.0,436.0,504.0,500.0,97.0,97.0,97.0,97.0,0.0,0.0,0.0,0.0,0.043300595,0.043615982,0.05233521,0.052143198,-0.6645172,5.0541754,-1.6596167,2.5346873,-104.61955,377.11853,-185.89046,192.27412,0.0,0.0,0.0,2.0,1.0,3.0975754,-0.017563216,6.799698E-4,97.0,97.0,97.0,97.0,21.710573,21.710573,24.666473,24.666473,0.018460961,0.018399248,-4.5920574E-4,-4.5740898E-4,1089.2892,0.0,0.0,0.0,0.0,0.0,0.0,0.0,0.0,0.0,0.0,0.0,0.0,0.0,3.5910509,0.06392611,-82.04072,8.7803777E-4,-8.3455123E-4,-0.010563063,543445.7,119984.9,0.013385577,0.01724576,7157.621,7212.0586,6000.044,5930.931,0.31108475,0.0,0.0,0.0
18.115654,18.115654,0.233,0.0,0.0,296.01883,10658.0,100.0,0.0,0.03901186,0.0,8.0,1.0,0.0,4000000.0,110.0,1.0,0.0,0.0,10.0,0.0,0.0,-394.64215,91.193634,119.23329,-0.009981691,0.32962772,-0.023786511,301.48837,301.46243,295.88742,295.87747,436.0,434.0,503.0,498.0,97.0,97.0,97.0,97.0,0.0,0.0,0.0,0.0,0.04336526,0.04357822,0.052329946,0.05208152,0.0,0.0,0.0,0.0,-339.67493,-185.94412,-247.47398,-154.41476,0.0,0.0,0.0,2.0,1.0,3.0975306,-0.01718734,6.8736076E-4,97.0,97.0,97.0,97.0,21.710573,21.710573,24.666473,24.666473,0.018481124,0.018433763,-4.5817666E-4,-4.5474267E-4,1091.33,0.0,0.0,0.0,0.0,0.0,0.0,0.0,0.0,0.0,0.0,0.0,0.0,0.0,3.5993066,0.060334787,-82.14862,-0.0013054125,-0.0018133434,-0.012732491,543697.56,119984.9,0.013350956,0.01727122,7131.8315,7162.933,5963.193,5851.379,0.31076622,0.0,0.0,0.0
23.611776,23.611776,0.283,0.0,0.0,296.79395,10684.0,100.0,0.0,0.03856974,0.0,8.0,1.0,0.0,4000000.0,110.0,1.0,0.0,0.0,10.0,0.0,0.0,-394.4016,91.1973,113.74924,-0.01169531,0.3286577,-0.00923261,302.2275,302.22076,296.66095,296.65277,433.0,432.0,501.0,496.0,97.0,97.0,97.0,97.0,0.0,0.0,0.0,0.0,0.043411776,0.04366305,0.05238273,0.05219604,1.9479542,6.330013,-0.13925134,3.447756,88.56653,401.2182,-108.18689,159.45732,0.0,0.0,0.0,2.0,1.0,3.0974376,-0.016484713,7.917881E-4,97.0,97.0,97.0,97.0,21.710573,21.710573,24.666473,24.666473,0.018347682,0.0183297,-4.5770235E-4,-4.562672E-4,1094.922,0.0,0.0,0.0,0.0,0.0,0.0,0.0,0.0,0.0,0.0,0.0,0.0,0.0,3.6154153,0.051073797,-82.363434,5.6583155E-4,-0.0013806807,-0.008336821,544159.6,119984.89,0.012461263,0.016628908,7194.2305,7221.943,6050.7046,5976.8374,0.3103342,0.0,0.0,0.0
27.743256,27.743256,0.333,0.0,0.0,297.3721,10701.0,100.0,0.0,0.021412926,0.0,8.0,1.0,0.0,4000000.0,110.0,1.0,0.0,0.0,10.0,0.0,0.0,-394.22052,91.1999,109.62683,-0.012210665,0.32844213,0.09742345,302.70468,302.7005,297.23886,297.23022,431.0,430.0,499.0,494.0,97.0,97.0,97.0,97.0,0.0,0.0,0.0,0.0,0.044155356,0.044266194,0.05267866,0.052382536,32.917183,29.867065,14.388933,10.991692,1727.9055,1542.4578,815.2439,651.24023,0.0,0.0,0.0,2.0,1.0,3.0973694,-0.015908549,6.5875053E-4,97.0,97.0,97.0,97.0,21.710573,21.710573,24.666473,24.666473,0.017953975,0.017976398,-4.5416877E-4,-4.5567533E-4,1097.261,0.0,0.0,0.0,0.0,0.0,0.0,0.0,0.0,0.0,0.0,0.0,0.0,0.0,3.628034,0.064013995,-82.52363,0.009202079,-0.0012225177,-0.016303608,544455.75,119984.89,0.011826517,0.015700167,7466.4507,7445.2236,6389.3496,6232.1016,0.3096447,0.0,0.0,0.0
31.882677,31.882677,0.383,0.0,0.0,297.93695,10724.0,100.0,0.0,0.023319485,0.0,8.0,1.0,0.0,4000000.0,110.0,1.0,0.0,0.0,10.0,0.0,0.0,-394.03882,91.20348,105.49652,-0.009550086,0.31882754,-0.033761766,303.37003,303.35776,297.80255,297.79803,429.0,428.0,497.0,492.0,97.0,97.0,97.0,97.0,0.0,0.0,0.0,0.0,0.044164833,0.044517245,0.052378967,0.052249614,-14.136358,-7.5506415,-6.988048,-2.99938,-721.39343,-781.3006,120.01541,76.0138,0.0,0.0,0.0,2.0,1.0,3.0973248,-0.015126197,4.544258E-4,97.0,97.0,97.0,97.0,21.710573,21.710573,24.666473,24.666473,0.018273162,0.01821768,-4.5481845E-4,-4.53466E-4,1100.441,0.0,0.0,0.0,0.0,0.0,0.0,0.0,0.0,0.0,0.0,0.0,0.0,0.0,3.639373,0.06823149,-82.680176,-0.0010917382,-7.8446703E-4,-0.0064898757,544862.56,119984.89,0.0125868665,0.015656939,7174.9746,7233.72,5976.49,5926.6055,0.3098526,0.0,0.0,0.0
34.646652,34.646652,0.433,0.0,0.0,298.31363,10738.0,100.0,0.0,0.036033127,0.0,8.0,1.0,0.0,4000000.0,110.0,1.0,0.0,0.0,10.0,0.0,0.0,-393.91733,91.20556,102.73863,-0.012005576,0.31875166,-0.030965421,303.75113,303.73495,298.18274,298.17267,428.0,427.0,496.0,491.0,97.0,97.0,97.0,97.0,0.0,0.0,0.0,0.0,0.04401435,0.044218935,0.052360743,0.0521482,0.0,0.0,0.0,0.0,-40.70254,138.85794,40.957325,169.85086,0.0,0.0,0.0,2.0,1.0,3.0972774,-0.014888186,5.9723854E-4,97.0,97.0,97.0,97.0,21.710573,21.710573,24.666473,24.666473,0.018243732,0.018223464,-4.5435372E-4,-4.5237318E-4,1102.3503,0.0,0.0,0.0,0.0,0.0,0.0,0.0,0.0,0.0,0.0,0.0,0.0,0.0,3.6485243,0.05769779,-82.784515,-0.0058053937,-0.0018360298,-0.008657718,545096.3,119984.89,0.013016823,0.015989006,7212.8687,7229.6694,6012.015,5914.823,0.31009197,0.0,0.0,0.0
38.799114,38.799114,0.483,0.0,0.0,298.8673,10761.0,100.0,0.0,0.020385766,0.0,8.0,1.0,0.0,4000000.0,110.0,1.0,0.0,0.0,10.0,0.0,0.0,-393.73456,91.20759,98.59533,-0.011591536,0.30931127,-0.06926204,304.38065,304.4035,298.7373,298.73163,426.0,425.0,494.0,489.0,97.0,97.0,97.0,97.0,0.0,0.0,0.0,0.0,0.043627206,0.04354572,0.052129395,0.05211562,0.0,0.0,0.0,0.0,-368.85733,-345.91098,425.22394,255.57425,0.0,0.0,0.0,2.0,1.0,3.097196,-0.014719403,0.0014151335,97.0,97.0,97.0,97.0,21.710573,21.710573,24.666473,24.666473,0.018432137,0.018512033,-4.4587534E-4,-4.476076E-4,1105.5204,0.0,0.0,0.0,0.0,0.0,0.0,0.0,0.0,0.0,0.0,0.0,0.0,0.0,3.661737,0.02403941,-82.9379,-0.019601107,-0.0010967929,-3.2181013E-4,545495.44,119984.9,0.014631558,0.017905397,7093.945,7035.8984,5909.1885,5907.361,0.31221962,0.0,0.0,0.0
44.34756,44.34756,0.533,0.0,0.0,299.59842,10784.0,100.0,0.0,0.044933364,0.0,8.0,1.0,0.0,4000000.0,110.0,1.0,0.0,0.0,10.0,0.0,0.0,-393.4898,91.206696,93.05915,-0.013267008,0.3137869,-0.024546973,305.0329,305.05844,299.4643,299.45734,424.0,423.0,492.0,487.0,97.0,97.0,97.0,97.0,0.0,0.0,0.0,0.0,0.04300938,0.042676404,0.05239528,0.052254807,23.25922,12.8544855,11.714547,6.4263487,1657.0685,1457.834,217.4735,247.13869,0.0,0.0,0.0,2.0,1.0,3.0971255,-0.015325264,0.0017026663,97.0,97.0,97.0,97.0,21.710573,21.710573,24.666473,24.666473,0.01821538,0.018328873,-4.537015E-4,-4.506676E-4,1108.7041,0.0,0.0,0.0,0.0,0.0,0.0,0.0,0.0,0.0,0.0,0.0,0.0,0.0,3.6797,-0.037351366,-83.14038,0.008495819,-0.0010976712,0.007962185,545899.6,119984.89,0.013581901,0.018024363,7241.8896,7161.3193,6157.314,6081.496,0.31163502,0.0,0.0,0.0
48.517796,48.517796,0.583,0.0,0.0,300.14404,10798.0,100.0,0.0,0.06908637,0.0,8.0,1.0,0.0,4000000.0,110.0,1.0,0.0,0.0,10.0,0.0,0.0,-393.30548,91.20547,88.89814,-0.016396891,0.30577073,0.09197187,305.4513,305.45566,300.01355,299.9981,422.0,421.0,490.0,485.0,97.0,97.0,97.0,97.0,0.0,0.0,0.0,0.0,0.044887174,0.044608567,0.052742366,0.052588206,30.908657,36.169586,6.5783405,7.1632857,-861.5521,-593.8142,105.07552,95.204994,0.0,0.0,0.0,2.0,1.0,3.0970337,-0.015384028,0.0010415316,97.0,97.0,97.0,97.0,21.710573,21.710573,24.666473,24.666473,0.017707678,0.017767847,-4.5169456E-4,-4.4836037E-4,1110.6577,0.0,0.0,0.0,0.0,0.0,0.0,0.0,0.0,0.0,0.0,0.0,0.0,0.0,3.6933591,-0.0060412255,-83.2915,0.015629672,-0.0024510748,-4.2890175E-4,546152.5,119984.9,0.012029346,0.015618595,7496.961,7460.5195,6350.797,6281.179,0.30992317,0.0,0.0,0.0
51.30218,51.30218,0.633,0.0,0.0,300.5043,10810.0,100.0,0.0,0.11303876,0.0,8.0,1.0,0.0,4000000.0,110.0,1.0,0.0,0.0,10.0,0.0,0.0,-393.1822,91.20577,86.11993,-0.024787024,0.30686677,0.080220215,305.77338,305.7694,300.37814,300.35336,421.0,420.0,489.0,484.0,97.0,97.0,97.0,97.0,0.0,0.0,0.0,0.0,0.045623537,0.045472827,0.052795146,0.05258465,0.0,0.0,0.0,0.0,45.86574,-52.946774,-227.66588,-237.02678,0.0,0.0,0.0,2.0,1.0,3.0969265,-0.015337175,4.968643E-4,97.0,97.0,97.0,97.0,21.710573,21.710573,24.666473,24.666473,0.017550385,0.0176147,-4.5512355E-4,-4.475435E-4,1112.2924,0.0,0.0,0.0,0.0,0.0,0.0,0.0,0.0,0.0,0.0,0.0,0.0,0.0,3.7045686,0.021223452,-83.39117,0.0141393095,-0.004233271,-8.2797516E-4,546349.1,119984.9,0.011540313,0.014245595,7591.712,7558.5938,6291.216,6189.599,0.30861664,0.0,0.0,0.0
55.48498,55.48498,0.683,0.0,0.0,301.0403,10830.0,100.0,0.0,0.100625455,0.0,8.0,1.0,0.0,4000000.0,110.0,1.0,0.0,0.0,10.0,0.0,0.0,-392.99643,91.20766,81.94643,-0.03206615,0.30189025,0.036733888,306.3577,306.3574,300.92117,300.88757,419.0,418.0,487.0,482.0,97.0,97.0,97.0,97.0,0.0,0.0,0.0,0.0,0.0460319,0.04586184,0.052689195,0.052479103,0.0,0.0,0.0,0.0,-673.43555,-690.52124,79.83594,189.63216,0.0,0.0,0.0,2.0,1.0,3.0966656,-0.01520333,3.2556057E-4,97.0,97.0,97.0,97.0,21.710573,21.710573,24.666473,24.666473,0.017632322,0.017725552,-4.4889285E-4,-4.4812483E-4,1115.086,0.0,0.0,0.0,0.0,0.0,0.0,0.0,0.0,0.0,0.0,0.0,0.0,0.0,3.7251852,0.048494767,-83.539276,-0.0033281469,-0.0056954124,-0.0021024395,546709.9,119984.9,0.011223505,0.013626993,7507.83,7454.019,6219.363,6130.7295,0.30842876,0.0,0.0,0.0
59.67292,59.67292,0.733,0.0,0.0,301.5684,10850.0,100.0,0.0,0.12134647,0.0,8.0,1.0,0.0,4000000.0,110.0,1.0,0.0,0.0,10.0,0.0,0.0,-392.80954,91.21099,77.765594,-0.042034253,0.2984617,0.00783483,306.91284,306.90085,301.45117,301.41284,417.0,416.0,485.0,480.0,97.0,97.0,97.0,97.0,0.0,0.0,0.0,0.0,0.045858804,0.045682482,0.05275739,0.05245182,0.0,0.0,0.0,0.0,-153.79785,-3.1784246,-233.71425,-224.90318,0.0,0.0,0.0,2.0,1.0,3.0963626,-0.014988298,2.0861626E-4,97.0,97.0,97.0,97.0,21.710573,21.710573,24.666473,24.666473,0.017693492,0.017763235,-4.4866608E-4,-4.4594944E-4,1117.837,0.0,0.0,0.0,0.0,0.0,0.0,0.0,0.0,0.0,0.0,0.0,0.0,0.0,3.7506323,0.072838806,-83.68496,0.0011604377,-0.006499452,-0.0041525876,547048.44,119984.89,0.011726771,0.014182319,7459.9624,7428.4272,6203.0645,6058.248,0.3086338,0.0,0.0,0.0
63.86444,63.86444,0.783,0.0,0.0,302.09506,10870.0,100.0,0.0,0.18692109,0.0,8.0,1.0,0.0,4000000.0,110.0,1.0,0.0,0.0,10.0,0.0,0.0,-392.6212,91.21374,73.57753,-0.059113212,0.29959747,-0.040986057,307.4861,307.49078,301.98587,301.9326,415.0,414.0,483.0,479.0,97.0,97.0,97.0,97.0,0.0,0.0,0.0,0.0,0.045080602,0.044828452,0.052591953,0.052256953,0.0,0.0,0.0,0.0,512.5835,380.4042,210.62042,231.5685,0.0,0.0,0.0,2.0,1.0,3.0959682,-0.014880441,4.7397614E-4,97.0,97.0,97.0,97.0,21.710573,21.710573,24.666473,24.666473,0.017812407,0.01798517,-4.50837E-4,-4.4424878E-4,1120.6307,0.0,0.0,0.0,0.0,0.0,0.0,0.0,0.0,0.0,0.0,0.0,0.0,0.0,3.7837417,0.043227043,-83.82993,-0.006420505,-0.009307736,-0.0017437374,547406.56,119984.89,0.011465408,0.01437902,7381.4473,7284.877,6179.088,6025.1465,0.3086357,0.0,0.0,0.0
69.46451,69.46451,0.833,0.0,0.0,302.79184,10895.0,100.0,0.0,0.22684473,0.0,8.0,1.0,0.0,4000000.0,110.0,1.0,0.0,0.0,10.0,0.0,0.0,-392.36707,91.215996,67.982216,-0.08066794,0.29391408,-0.053077444,308.17474,308.1833,302.6924,302.62137,413.0,412.0,481.0,476.0,97.0,97.0,97.0,97.0,0.0,0.0,0.0,0.0,0.045065954,0.04462544,0.052605316,0.052213635,0.16115604,-4.830211,-2.2906063,-3.268495,-19.459425,-205.24261,42.660538,0.18775462,0.0,0.0,0.0,2.0,1.0,3.0952535,-0.014818622,9.417534E-4,97.0,97.0,97.0,97.0,21.710573,21.710573,24.666473,24.666473,0.017700212,0.017937455,-4.4809867E-4,-4.4265826E-4,1124.0819,0.0,0.0,0.0,0.0,0.0,0.0,0.0,0.0,0.0,0.0,0.0,0.0,0.0,3.8393846,0.021350466,-84.021164,-0.012971471,-0.012318552,7.364812E-4,547832.44,119984.9,0.011890452,0.014458177,7422.868,7285.127,6128.9873,5947.629,0.3087721,0.0,0.0,0.0
73.672905,73.672905,0.883,0.0,0.0,303.30038,10916.0,100.0,0.0,0.26987854,0.0,8.0,1.0,0.0,4000000.0,110.0,1.0,0.0,0.0,10.0,0.0,0.0,-392.17377,91.21634,63.777473,-0.09942818,0.28731704,-0.10523396,308.773,308.78894,303.20905,303.12335,411.0,410.0,479.0,475.0,97.0,97.0,97.0,97.0,0.0,0.0,0.0,0.0,0.04463119,0.043996073,0.052572828,0.05213213,-15.3326235,-18.758698,-1.7224251,-2.4003534,-139.67604,-149.66719,32.146275,56.353207,0.0,0.0,0.0,2.0,1.0,3.094569,-0.014955502,0.001681447,97.0,97.0,97.0,97.0,21.710573,21.710573,24.666473,24.666473,0.017950857,0.018250313,-4.4459995E-4,-4.3852945E-4,1127.0098,0.0,0.0,0.0,0.0,0.0,0.0,0.0,0.0,0.0,0.0,0.0,0.0,0.0,3.892079,-0.014515045,-84.16016,-0.014634279,-0.0148260705,0.0040224143,548202.7,119984.9,0.012854978,0.016167091,7259.758,7093.1406,6111.2725,5908.7373,0.3102026,0.0,0.0,0.0
76.482414,76.482414,0.933,0.0,0.0,303.6379,10926.0,100.0,0.0,0.25640205,0.0,8.0,1.0,0.0,4000000.0,110.0,1.0,0.0,0.0,10.0,0.0,0.0,-392.0433,91.21543,60.97047,-0.10789586,0.28769347,0.0069724973,309.04758,309.06348,303.5464,303.45697,410.0,409.0,478.0,473.0,97.0,97.0,97.0,97.0,0.0,0.0,0.0,0.0,0.044531833,0.04372342,0.052878737,0.05235738,0.0,0.0,0.0,0.0,1199.819,1103.6216,967.43243,806.7413,0.0,0.0,0.0,2.0,1.0,3.0940664,-0.015104576,0.0019263029,97.0,97.0,97.0,97.0,21.710573,21.710573,24.666473,24.666473,0.017747967,0.018071989,-4.421012E-4,-4.403722E-4,1128.3922,0.0,0.0,0.0,0.0,0.0,0.0,0.0,0.0,0.0,0.0,0.0,0.0,0.0,3.9313152,-0.030045364,-84.25219,0.004149992,-0.014989433,0.0029078706,548372.8,119984.9,0.013039131,0.016825689,7426.617,7226.8516,6519.888,6268.144,0.31074524,0.0,0.0,0.0
80.70246,80.70246,0.983,0.0,0.0,304.1336,10941.0,100.0,0.0,0.18444012,0.0,8.0,1.0,0.0,4000000.0,110.0,1.0,0.0,0.0,10.0,0.0,0.0,-391.84518,91.21392,56.75429,-0.105088435,0.27936214,-0.0077456646,309.48083,309.49573,304.03506,303.95996,408.0,407.0,476.0,472.0,97.0,97.0,97.0,97.0,0.0,0.0,0.0,0.0,0.045241438,0.044493243,0.052825134,0.0522853,0.0,0.0,0.0,0.0,-73.03653,9.0390005,-156.49347,-43.264015,0.0,0.0,0.0,2.0,1.0,3.0933762,-0.015133862,0.0014390945,97.0,97.0,97.0,97.0,21.710573,21.710573,24.666473,24.666473,0.017520847,0.017775645,-4.3665603E-4,-4.432011E-4,1130.4926,0.0,0.0,0.0,0.0,0.0,0.0,0.0,0.0,0.0,0.0,0.0,0.0,0.0,3.9904392,-0.030848766,-84.38725,0.0058078407,-0.012147687,-1.4664565E-4,548640.3,119984.89,0.014391519,0.016708607,7520.6016,7355.4604,6233.2227,5993.763,0.31129265,0.0,0.0,0.0
84.929306,84.929306,1.033,0.0,0.0,304.61734,10959.0,100.0,0.0,0.1027836,0.0,8.0,1.0,0.0,4000000.0,110.0,1.0,0.0,0.0,10.0,0.0,0.0,-391.6442,91.2125,52.53143,-0.08743844,0.27143893,0.022391535,309.97226,310.00058,304.5045,304.4612,406.0,405.0,474.0,470.0,97.0,97.0,97.0,97.0,0.0,0.0,0.0,0.0,0.045534648,0.04481223,0.052821618,0.05238054,0.0,0.0,0.0,0.0,-305.289,-127.3915,132.47429,84.66392,0.0,0.0,0.0,2.0,1.0,3.0929122,-0.015112299,0.001390934,97.0,97.0,97.0,97.0,21.710573,21.710573,24.666473,24.666473,0.01756257,0.017764635,-4.3240716E-4,-4.3993376E-4,1132.9861,0.0,0.0,0.0,0.0,0.0,0.0,0.0,0.0,0.0,0.0,0.0,0.0,0.0,4.0429435,-0.024220614,-84.51928,0.001806407,-0.0067518465,-7.22563E-4,548947.3,119984.9,0.015393354,0.017668402,7489.582,7343.9194,6327.5073,6129.2637,0.31266117,0.0,0.0,0.0
90.5755,90.5755,1.083,0.0,0.0,305.2666,10978.0,100.0,0.0,0.030400522,0.0,8.0,1.0,0.0,4000000.0,110.0,1.0,0.0,0.0,10.0,0.0,0.0,-391.37274,91.2089,46.890694,-0.050842397,0.27762946,0.022830948,310.5341,310.55466,305.132,305.12192,404.0,403.0,472.0,468.0,97.0,97.0,97.0,97.0,0.0,0.0,0.0,0.0,0.045463298,0.04505812,0.05301197,0.052625276,30.40172,37.81043,-7.3827796,-1.2637674,334.45804,624.7669,-1949.3622,-1402.527,0.0,0.0,0.0,2.0,1.0,3.092669,-0.015083567,7.145405E-4,97.0,97.0,97.0,97.0,21.710573,21.710573,24.666473,24.666473,0.017336963,0.017421357,-4.4122548E-4,-4.466039E-4,1135.6643,0.0,0.0,0.0,0.0,0.0,0.0,0.0,0.0,0.0,0.0,0.0,0.0,0.0,4.094785,-0.04761001,-84.69734,0.02438497,-9.4062224E-4,-0.004982216,549292.6,119984.9,0.010916902,0.014495917,7611.316,7543.084,6339.505,6195.2964,0.3087921,0.0,0.0,0.0
93.40318,93.40318,1.133,0.0,0.0,305.59958,10984.0,100.0,0.0,0.070391424,0.0,8.0,1.0,0.0,4000000.0,110.0,1.0,0.0,0.0,10.0,0.0,0.0,-391.23593,91.208244,44.06579,-0.042694174,0.2823721,0.22437713,310.70068,310.711,305.46008,305.45285,403.0,402.0,471.0,466.0,97.0,97.0,97.0,97.0,0.0,0.0,0.0,0.0,0.0473876,0.04717128,0.053550947,0.053167347,0.0,0.0,0.0,0.0,729.01105,646.533,88.499504,-149.57341,0.0,0.0,0.0,2.0,1.0,3.0926523,-0.014838102,-3.7395954E-4,97.0,97.0,97.0,97.0,21.710573,21.710573,24.666473,24.666473,0.01676279,0.01681801,-4.501721E-4,-4.449302E-4,1136.4957,0.0,0.0,0.0,0.0,0.0,0.0,0.0,0.0,0.0,0.0,0.0,0.0,0.0,4.1128316,0.012465751,-84.78908,0.04171606,-7.0056895E-4,-0.0077843163,549394.5,119984.9,0.006875088,0.009939554,8031.937,7984.9775,6962.589,6780.263,0.3043642,0.0,0.0,0.0
99.06785,99.06785,1.183,0.0,0.0,306.2653,11012.0,100.0,0.0,0.026527803,0.0,8.0,1.0,0.0,4000000.0,110.0,1.0,0.0,0.0,10.0,0.0,0.0,-390.96106,91.21407,38.40673,-0.011688985,0.27153158,0.060996,311.47235,311.4879,306.1273,306.1424,400.0,399.0,469.0,464.0,97.0,97.0,97.0,97.0,0.0,0.0,0.0,0.0,0.04810804,0.048137534,0.052873984,0.05281175,-50.853115,-50.09159,-11.9724865,-8.92572,-2263.9316,-2149.8303,192.07294,-11.0507,0.0,0.0,0.0,2.0,1.0,3.0927725,-0.014206342,-5.7065487E-4,97.0,97.0,97.0,97.0,21.710573,21.710573,24.666473,24.666473,0.016938789,0.016930232,-4.41704E-4,-4.3536766E-4,1139.9642,0.0,0.0,0.0,0.0,0.0,0.0,0.0,0.0,0.0,0.0,0.0,0.0,0.0,4.130124,0.13347389,-84.973274,-0.045221154,0.0017714665,-0.004026558,549670.0,119984.89,0.007453508,0.0078101926,7794.427,7800.5522,6239.1694,6218.398,0.3013487,0.0,0.0,0.0
103.324135,103.324135,1.233,0.0,0.0,306.72772,11042.0,100.0,0.0,0.014527326,0.0,8.0,1.0,0.0,4000000.0,110.0,1.0,0.0,0.0,10.0,0.0,0.0,-390.7542,91.220566,34.15467,-0.0063890377,0.26164058,-0.27771604,312.33704,312.34232,306.6021,306.59293,399.0,398.0,467.0,463.0,97.0,97.0,97.0,97.0,0.0,0.0,0.0,0.0,0.04571093,0.045578174,0.052411307,0.052346196,-73.04549,-73.68184,-24.651064,-22.63002,-1081.7346,-1005.6268,-506.6827,-488.69846,0.0,0.0,0.0,2.0,1.0,3.092734,-0.014086936,0.001103282,97.0,97.0,97.0,97.0,21.710573,21.710573,24.666473,24.666473,0.018253181,0.018292328,-4.269339E-4,-4.3002664E-4,1143.1366,0.0,0.0,0.0,0.0,0.0,0.0,0.0,0.0,0.0,0.0,0.0,0.0,0.0,4.1429744,0.08471955,-85.10132,-0.031646777,-0.0018195028,-0.002388056,549702.1,119984.9,0.012030529,0.0146531435,6956.0654,6924.5586,5785.0327,5762.4463,0.30739784,0.0,0.0,0.0
106.165245,106.165245,1.283,0.0,0.0,307.041,11054.0,100.0,0.0,-0.00863393,0.0,8.0,1.0,0.0,4000000.0,110.0,1.0,0.0,0.0,10.0,0.0,0.0,-390.61597,91.22138,31.316397,-0.0038560033,0.26780403,-0.25644654,312.6782,312.69717,306.9111,306.90863,397.0,396.0,466.0,461.0,97.0,97.0,97.0,97.0,0.0,0.0,0.0,0.0,0.04367558,0.043480936,0.05210273,0.05209614,0.0,0.0,0.0,0.0,1447.6686,1247.8304,1913.501,1625.3916,0.0,0.0,0.0,2.0,1.0,3.0926907,-0.014171532,0.0022585392,97.0,97.0,97.0,97.0,21.710573,21.710573,24.666473,24.666473,0.018423662,0.018488286,-4.2985374E-4,-4.3440764E-4,1144.4062,0.0,0.0,0.0,0.0,0.0,0.0,0.0,0.0,0.0,0.0,0.0,0.0,0.0,4.1501565,-0.018200414,-85.188126,-0.028358694,-5.5066496E-4,0.0021710203,549715.25,119984.89,0.014476066,0.017737629,6909.48,6847.035,5964.552,5950.558,0.31149387,0.0,0.0,0.0
110.43229,110.43229,1.333,0.0,0.0,307.4996,11067.0,100.0,0.0,-0.07767087,0.0,8.0,1.0,0.0,4000000.0,110.0,1.0,0.0,0.0,10.0,0.0,0.0,-390.40833,91.21777,27.05362,0.010897517,0.25871766,-0.14085324,313.026,313.0693,307.35367,307.37762,396.0,395.0,464.0,460.0,97.0,97.0,97.0,97.0,0.0,0.0,0.0,0.0,0.042825304,0.042593177,0.05231139,0.05239206,0.0,0.0,0.0,0.0,1111.7352,880.43494,343.49707,89.53216,0.0,0.0,0.0,2.0,1.0,3.092793,-0.01437728,0.0029957294,97.0,97.0,97.0,97.0,21.710573,21.710573,24.666473,24.666473,0.018099336,0.018155769,-4.2779412E-4,-4.347888E-4,1145.7805,0.0,0.0,0.0,0.0,0.0,0.0,0.0,0.0,0.0,0.0,0.0,0.0,0.0,4.1541996,-0.110992745,-85.31541,-9.5903693E-4,0.00444128,0.006445118,549728.9,119984.89,0.01584382,0.020039389,7108.0737,7050.841,6107.7476,6138.9766,0.31378746,0.0,0.0,0.0
116.13142,116.13142,1.383,0.0,0.0,308.09036,11087.0,100.0,0.0,0.013253408,0.0,8.0,1.0,0.0,4000000.0,110.0,1.0,0.0,0.0,10.0,0.0,0.0,-390.13147,91.20919,21.360178,0.015656913,0.24219464,-0.25765446,313.61948,313.62497,307.9499,307.96194,393.0,392.0,462.0,457.0,97.0,97.0,97.0,97.0,0.0,0.0,0.0,0.0,0.0440488,0.043899275,0.052175205,0.052306633,-31.440403,-23.497267,-32.792015,-26.721506,-4976.516,-4197.9116,-2482.0757,-1918.1681,0.0,0.0,0.0,2.0,1.0,3.0930364,-0.014931438,0.0022557974,97.0,97.0,97.0,97.0,21.710573,21.710573,24.666473,24.666473,0.018038573,0.01799989,-4.3028386E-4,-4.256472E-4,1147.8964,0.0,0.0,0.0,0.0,0.0,0.0,0.0,0.0,0.0,0.0,0.0,0.0,0.0,4.1544547,-0.1632978,-85.47961,4.2185938E-4,0.0019164307,0.0147985695,549750.5,119984.89,0.015474115,0.018218042,6920.2437,6965.9014,5525.908,5621.0957,0.3129282,0.0,0.0,0.0
120.41447,120.41447,1.433,0.0,0.0,308.54977,11090.0,100.0,0.0,0.010991809,0.0,8.0,1.0,0.0,4000000.0,110.0,1.0,0.0,0.0,10.0,0.0,0.0,-389.92383,91.201126,17.082792,0.013052459,0.2562334,0.17542726,313.70297,313.70587,308.4097,308.41144,392.0,391.0,460.0,456.0,97.0,97.0,97.0,97.0,0.0,0.0,0.0,0.0,0.046479873,0.046214864,0.053242017,0.053164788,76.80192,78.866325,17.164125,17.016603,1164.4271,1798.6085,-877.3102,-403.5785,0.0,0.0,0.0,2.0,1.0,3.0930848,-0.015431148,0.0015836954,97.0,97.0,97.0,97.0,21.710573,21.710573,24.666473,24.666473,0.01676571,0.0167741,-4.384426E-4,-4.3579188E-4,1148.214,0.0,0.0,0.0,0.0,0.0,0.0,0.0,0.0,0.0,0.0,0.0,0.0,0.0,4.154028,-0.13037935,-85.607445,0.027544385,6.164676E-4,0.0025913347,549753.9,119984.9,0.010228584,0.013659914,7939.2163,7930.373,6777.265,6751.6875,0.308753,0.0,0.0,0.0
123.27333,123.27333,1.483,0.0,0.0,308.8513,11097.0,100.0,0.0,0.05720422,0.0,8.0,1.0,0.0,4000000.0,110.0,1.0,0.0,0.0,10.0,0.0,0.0,-389.7854,91.198105,14.227703,0.0023352979,0.25905666,0.24712674,313.88556,313.8852,308.71173,308.70374,391.0,390.0,459.0,455.0,97.0,97.0,97.0,97.0,0.0,0.0,0.0,0.0,0.048553333,0.048472848,0.053696733,0.053600945,0.0,0.0,0.0,0.0,354.42694,123.87771,-355.33902,-399.1663,0.0,0.0,0.0,2.0,1.0,3.0930817,-0.015429198,2.8133392E-4,97.0,97.0,97.0,97.0,21.710573,21.710573,24.666473,24.666473,0.01638397,0.016411979,-4.4650532E-4,-4.3992372E-4,1148.9532,0.0,0.0,0.0,0.0,0.0,0.0,0.0,0.0,0.0,0.0,0.0,0.0,0.0,4.1552653,-0.054072633,-85.69132,0.046134524,-9.21104E-4,0.0014857115,549760.8,119984.9,0.0068496545,0.009390998,8205.789,8190.7,7004.7007,6955.8022,0.30449772,0.0,0.0,0.0
127.56696,127.56696,1.533,0.0,0.0,309.31534,11110.0,100.0,0.0,-0.09667074,0.0,8.0,1.0,0.0,4000000.0,110.0,1.0,0.0,0.0,10.0,0.0,0.0,-389.57776,91.1998,9.939721,0.01747311,0.2614809,0.2803825,314.24777,314.254,309.17093,309.18558,389.0,388.0,457.0,453.0,97.0,97.0,97.0,97.0,0.0,0.0,0.0,0.0,0.0493098,0.04937451,0.053557392,0.053521007,0.0,0.0,0.0,0.0,-444.65656,-927.6285,-393.6409,-490.02612,0.0,0.0,0.0,2.0,1.0,3.0931227,-0.015156647,-0.0010968447,97.0,97.0,97.0,97.0,21.710573,21.710573,24.666473,24.666473,0.01596379,0.015931208,-4.3741203E-4,-4.4835647E-4,1150.3282,0.0,0.0,0.0,0.0,0.0,0.0,0.0,0.0,0.0,0.0,0.0,0.0,0.0,4.1525693,0.10481316,-85.82046,-0.006153731,0.0029036931,-0.004602581,549774.7,119984.91,0.004829582,0.0051342794,8530.013,8545.948,6675.5635,6661.666,0.29940605,0.0,0.0,0.0
133.30148,133.30148,1.583,0.0,0.0,309.8874,11148.0,100.0,0.0,-0.21530977,0.0,8.0,1.0,0.0,4000000.0,110.0,1.0,0.0,0.0,10.0,0.0,0.0,-389.30142,91.210976,4.2126994,0.054929737,0.23208284,-0.22631972,315.3411,315.34283,309.72394,309.7917,387.0,386.0,455.0,451.0,97.0,97.0,97.0,97.0,0.0,0.0,0.0,0.0,0.046928927,0.04713553,0.05278608,0.052911084,-65.69646,-59.820633,-39.687527,-32.695454,-697.6691,-793.7997,-959.6406,-1027.4601,0.0,0.0,0.0,2.0,1.0,3.0936205,-0.014483435,1.963377E-4,97.0,97.0,97.0,97.0,21.710573,21.710573,24.666473,24.666473,0.017619608,0.017417967,-4.11954E-4,-4.2400346E-4,1154.348,0.0,0.0,0.0,0.0,0.0,0.0,0.0,0.0,0.0,0.0,0.0,0.0,0.0,4.1337886,0.16316521,-85.98036,-0.024922412,0.011675438,-0.010904418,549815.3,119984.91,0.010367238,0.012294866,7215.038,7321.324,5890.2236,5966.5527,0.3054123,0.0,0.0,0.0
137.60922,137.60922,1.633,0.0,0.0,310.3152,11169.0,100.0,0.0,-0.0670515,0.0,8.0,1.0,0.0,4000000.0,110.0,1.0,0.0,0.0,10.0,0.0,0.0,-389.09515,91.21453,-0.089463696,0.05498264,0.24551034,-0.31536078,315.9328,315.95706,310.15955,310.21143,385.0,384.0,453.0,449.0,97.0,97.0,97.0,97.0,0.0,0.0,0.0,0.0,0.043649238,0.043894716,0.051983442,0.05223173,-45.834927,-49.524082,-6.023347,-3.0856578,1610.1833,1380.1571,-13.156241,184.34819,0.0,0.0,0.0,2.0,1.0,3.0941155,-0.014396897,0.0018786192,97.0,97.0,97.0,97.0,21.710573,21.710573,24.666473,24.666473,0.018234668,0.018158874,-4.274338E-4,-4.205642E-4,1156.5703,0.0,0.0,0.0,0.0,0.0,0.0,0.0,0.0,0.0,0.0,0.0,0.0,0.0,4.116132,-0.0053089196,-86.10033,-0.030276868,0.008050549,7.394955E-4,549838.0,119984.914,0.014492219,0.017331101,6902.622,6940.392,5754.9736,5882.308,0.31154442,0.0,0.0,0.0
141.92288,141.92288,1.683,0.0,0.0,310.7378,11179.0,100.0,0.0,-0.059582844,0.0,8.0,1.0,0.0,4000000.0,110.0,1.0,0.0,0.0,10.0,0.0,0.0,-388.8899,91.21129,-4.3976116,0.053456083,0.23925428,-0.13245587,316.20602,316.2211,310.59015,310.61835,383.0,382.0,452.0,447.0,97.0,97.0,97.0,97.0,0.0,0.0,0.0,0.0,0.043101933,0.043192342,0.05237018,0.05264469,9.879246,5.967468,11.1642475,10.610595,1532.775,1352.0479,233.62039,71.07856,0.0,0.0,0.0,2.0,1.0,3.0944057,-0.014659746,0.0026744604,97.0,97.0,97.0,97.0,21.710573,21.710573,24.666473,24.666473,0.01774494,0.017708043,-4.2620944E-4,-4.2433068E-4,1157.6273,0.0,0.0,0.0,0.0,0.0,0.0,0.0,0.0,0.0,0.0,0.0,0.0,0.0,4.0966682,-0.10332925,-86.21872,-2.865667E-4,0.0046588266,0.008810305,549848.2,119984.91,0.015187337,0.019040221,7209.552,7227.1553,6195.001,6314.784,0.31293106,0.0,0.0,0.0
144.80188,144.80188,1.733,0.0,0.0,311.0124,11183.0,100.0,0.0,-0.08911922,0.0,8.0,1.0,0.0,4000000.0,110.0,1.0,0.0,0.0,10.0,0.0,0.0,-388.75357,91.20754,-7.272965,0.054520857,0.23192957,-0.0104005225,316.33942,316.3442,310.8627,310.89233,382.0,381.0,450.0,446.0,97.0,97.0,97.0,97.0,0.0,0.0,0.0,0.0,0.044369992,0.044421095,0.052665446,0.05291298,0.0,0.0,0.0,0.0,517.45166,919.6087,-369.25967,-117.36004,0.0,0.0,0.0,2.0,1.0,3.094571,-0.014888063,0.002349496,97.0,97.0,97.0,97.0,21.710573,21.710573,24.666473,24.666473,0.017253876,0.017177539,-4.2242132E-4,-4.2500143E-4,1158.0519,0.0,0.0,0.0,0.0,0.0,0.0,0.0,0.0,0.0,0.0,0.0,0.0,0.0,4.0824523,-0.11508361,-86.29574,0.014432682,0.005334599,0.008067985,549853.1,119984.91,0.015625816,0.018342713,7495.825,7538.8096,6328.312,6448.332,0.31270885,0.0,0.0,0.0
149.12512,149.12512,1.783,0.0,0.0,311.42783,11196.0,100.0,0.0,-0.10670875,0.0,8.0,1.0,0.0,4000000.0,110.0,1.0,0.0,0.0,10.0,0.0,0.0,-388.55002,91.19927,-11.590777,0.056018695,0.23776963,0.06385207,316.684,316.7017,311.27045,311.311,380.0,379.0,449.0,445.0,97.0,97.0,97.0,97.0,0.0,0.0,0.0,0.0,0.04498219,0.045001995,0.052905392,0.05308613,0.0,0.0,0.0,0.0,2003.1138,2225.2139,769.47205,886.5504,0.0,0.0,0.0,2.0,1.0,3.0948803,-0.015527288,0.0022697449,97.0,97.0,97.0,97.0,21.710573,21.710573,24.666473,24.666473,0.017048663,0.016982028,-4.2970903E-4,-4.3071742E-4,1159.4261,0.0,0.0,0.0,0.0,0.0,0.0,0.0,0.0,0.0,0.0,0.0,0.0,0.0,4.0614376,-0.17095311,-86.41217,0.01793851,0.0071988306,0.010225476,549866.44,119984.9,0.012157243,0.015483494,7638.8022,7669.707,6734.9307,6809.0596,0.3098688,0.0,0.0,0.0
154.89844,154.89844,1.833,0.0,0.0,311.97903,11205.0,100.0,0.0,-0.11005844,0.0,8.0,1.0,0.0,4000000.0,110.0,1.0,0.0,0.0,10.0,0.0,0.0,-388.28024,91.192894,-17.356955,0.054588307,0.23903888,0.26858985,316.93686,316.94086,311.82074,311.85443,378.0,377.0,447.0,442.0,97.0,97.0,97.0,97.0,0.0,0.0,0.0,0.0,0.049186032,0.04937578,0.05369173,0.053795923,15.019029,23.353321,-3.4906714,0.61199063,-1871.9001,-2635.887,-744.4202,-514.7158,0.0,0.0,0.0,2.0,1.0,3.0952773,-0.015591217,-8.523464E-5,97.0,97.0,97.0,97.0,21.710573,21.710573,24.666473,24.666473,0.016035339,0.01595621,-4.3402892E-4,-4.3884327E-4,1160.3782,0.0,0.0,0.0,0.0,0.0,0.0,0.0,0.0,0.0,0.0,0.0,0.0,0.0,4.032652,-0.016085835,-86.56696,0.035849348,0.006415877,-0.0042205877,549875.94,119984.92,0.007757661,0.009038555,8379.085,8429.166,6884.457,6945.6616,0.30447102,0.0,0.0,0.0
159.23514,159.23514,1.883,0.0,0.0,312.38947,11221.0,100.0,0.0,-0.09189554,0.0,8.0,1.0,0.0,4000000.0,110.0,1.0,0.0,0.0,10.0,0.0,0.0,-388.07922,91.195915,-21.68836,0.052149113,0.23011932,0.19682354,317.40378,317.39987,312.2358,312.27078,377.0,376.0,445.0,441.0,97.0,97.0,97.0,97.0,0.0,0.0,0.0,0.0,0.04881563,0.048999783,0.053662322,0.05370373,-22.598951,-22.370739,-7.0287285,-6.9319453,-533.3304,-605.37445,-506.80334,-360.82413,0.0,0.0,0.0,2.0,1.0,3.0955865,-0.015367779,-8.752346E-4,97.0,97.0,97.0,97.0,21.710573,21.710573,24.666473,24.666473,0.016106857,0.015990438,-4.3126242E-4,-4.3132566E-4,1162.0719,0.0,0.0,0.0,0.0,0.0,0.0,0.0,0.0,0.0,0.0,0.0,0.0,0.0,4.0101295,0.11581957,-86.68206,5.362587E-4,0.005897352,-0.0039182394,549893.3,119984.92,0.0058613485,0.0072604814,8242.547,8350.378,6805.698,6823.9336,0.30238342,0.0,0.0,0.0
163.57742,163.57742,1.933,0.0,0.0,312.78238,11242.0,100.0,0.0,-0.09003341,0.0,8.0,1.0,0.0,4000000.0,110.0,1.0,0.0,0.0,10.0,0.0,0.0,-387.8793,91.20513,-26.025408,0.05254928,0.21582896,-0.02785042,318.01,317.98206,312.6336,312.6688,375.0,374.0,443.0,439.0,97.0,97.0,97.0,97.0,0.0,0.0,0.0,0.0,0.047914423,0.04821383,0.0533107,0.05333123,-52.233784,-45.83135,-26.120468,-22.382362,-1203.0244,-1408.0254,-584.34607,-527.51,0.0,0.0,0.0,2.0,1.0,3.0958848,-0.014656485,-8.275509E-4,97.0,97.0,97.0,97.0,21.710573,21.710573,24.666473,24.666473,0.016707445,0.016522612,-4.1827076E-4,-4.178073E-4,1164.2937,0.0,0.0,0.0,0.0,0.0,0.0,0.0,0.0,0.0,0.0,0.0,0.0,0.0,3.9878817,0.20165676,-86.79219,-0.013883923,0.0056834496,-0.013684764,549915.5,119984.9,0.009210794,0.010560632,7725.0205,7874.8545,6361.836,6381.254,0.30566025,0.0,0.0,0.0
166.47523,166.47523,1.983,0.0,0.0,313.03537,11263.0,100.0,0.0,-0.11733604,0.0,8.0,1.0,0.0,4000000.0,110.0,1.0,0.0,0.0,10.0,0.0,0.0,-387.7466,91.21053,-28.919748,0.055731557,0.21630217,-0.33796278,318.60907,318.59995,312.8836,312.9235,374.0,373.0,442.0,438.0,97.0,97.0,97.0,97.0,0.0,0.0,0.0,0.0,0.0457305,0.046121925,0.052547175,0.052702814,0.0,0.0,0.0,0.0,-2034.4016,-1774.2408,238.27411,229.34222,0.0,0.0,0.0,2.0,1.0,3.0960898,-0.01438164,-2.4807453E-4,97.0,97.0,97.0,97.0,21.710573,21.710573,24.666473,24.666473,0.017907426,0.017752113,-4.158408E-4,-4.1960212E-4,1166.5167,0.0,0.0,0.0,0.0,0.0,0.0,0.0,0.0,0.0,0.0,0.0,0.0,0.0,3.9741015,0.11620199,-86.86333,-0.014237394,0.0066674068,-0.005088883,549938.2,119984.91,0.0104927225,0.013051267,6874.0913,6987.5283,5929.136,6011.4507,0.30758476,0.0,0.0,0.0
170.82663,170.82663,2.033,0.0,0.0,313.44913,11268.0,100.0,0.0,-0.047714856,0.0,8.0,1.0,0.0,4000000.0,110.0,1.0,0.0,0.0,10.0,0.0,0.0,-387.54843,91.21378,-33.265995,0.0485939,0.23030639,-0.09293779,318.72736,318.72946,313.30002,313.33167,372.0,371.0,441.0,437.0,97.0,97.0,97.0,97.0,0.0,0.0,0.0,0.0,0.045487173,0.045896024,0.0526186,0.05278897,0.0,0.0,0.0,0.0,1529.2076,1450.9005,-358.39676,-83.75196,0.0,0.0,0.0,2.0,1.0,3.0963998,-0.014167115,1.283884E-4,97.0,97.0,97.0,97.0,21.710573,21.710573,24.666473,24.666473,0.016945442,0.016854564,-4.2625002E-4,-4.2190254E-4,1167.0449,0.0,0.0,0.0,0.0,0.0,0.0,0.0,0.0,0.0,0.0,0.0,0.0,0.0,3.955224,0.03647822,-86.97931,-0.008036887,0.0050172466,-0.001327937,549943.06,119984.9,0.011147907,0.012351103,7602.769,7672.0547,6241.7803,6335.2515,0.30665874,0.0,0.0,0.0
176.63705,176.63705,2.083,0.0,0.0,313.9522,11302.0,100.0,0.0,-0.09301141,0.0,8.0,1.0,0.0,4000000.0,110.0,1.0,0.0,0.0,10.0,0.0,0.0,-387.28558,91.21326,-39.069622,0.050163124,0.19947161,-0.54014313,319.69547,319.7031,313.81326,313.84482,370.0,369.0,438.0,434.0,97.0,97.0,97.0,97.0,0.0,0.0,0.0,0.0,0.04418767,0.04444188,0.051642586,0.05204168,-105.10347,-98.110954,-46.54303,-36.092026,-5238.689,-4752.659,-2758.4102,-2138.2568,0.0,0.0,0.0,2.0,1.0,3.0966873,-0.014473218,0.00234437,97.0,97.0,97.0,97.0,21.710573,21.710573,24.666473,24.666473,0.018327905,0.018228436,-4.0131324E-4,-4.0622655E-4,1170.6434,0.0,0.0,0.0,0.0,0.0,0.0,0.0,0.0,0.0,0.0,0.0,0.0,0.0,3.9315453,-0.10332397,-87.12022,-0.056932136,0.004797877,0.014899099,549979.3,119984.91,0.01574214,0.017657524,6465.1494,6542.197,5079.2495,5292.3174,0.30890656,0.0,0.0,0.0
181.00104,181.00104,2.133,0.0,0.0,314.34375,11300.0,100.0,0.0,-0.011298778,0.0,8.0,1.0,0.0,4000000.0,110.0,1.0,0.0,0.0,10.0,0.0,0.0,-387.08932,91.20432,-43.428524,0.03626538,0.22277394,0.022294907,319.63397,319.64935,314.20084,314.21747,368.0,367.0,437.0,433.0,97.0,97.0,97.0,97.0,0.0,0.0,0.0,0.0,0.044123106,0.043882538,0.052963555,0.053072356,73.6814,61.880123,32.20059,28.611568,5251.5366,5152.322,-98.46381,168.09401,0.0,0.0,0.0,2.0,1.0,3.0968819,-0.015297675,0.003510356,97.0,97.0,97.0,97.0,21.710573,21.710573,24.666473,24.666473,0.016947377,0.016957792,-4.2403393E-4,-4.184476E-4,1170.4325,0.0,0.0,0.0,0.0,0.0,0.0,0.0,0.0,0.0,0.0,0.0,0.0,0.0,3.9188719,-0.19841762,-87.2295,0.011585141,0.0027508645,0.0101133995,549977.5,119984.9,0.012837088,0.01768971,7703.787,7678.6733,6796.099,6841.6787,0.30971336,0.0,0.0,0.0
183.91325,183.91325,2.183,0.0,0.0,314.59076,11305.0,100.0,0.0,-0.05768006,0.0,8.0,1.0,0.0,4000000.0,110.0,1.0,0.0,0.0,10.0,0.0,0.0,-386.9589,91.19801,-46.33742,0.038151782,0.21034881,0.09834775,319.7687,319.77292,314.4444,314.46014,367.0,366.0,436.0,432.0,97.0,97.0,97.0,97.0,0.0,0.0,0.0,0.0,0.046306036,0.046189383,0.053422503,0.053510234,0.0,0.0,0.0,0.0,-418.6926,-69.37545,257.4384,375.69693,0.0,0.0,0.0,2.0,1.0,3.0969753,-0.015450785,0.002749443,97.0,97.0,97.0,97.0,21.710573,21.710573,24.666473,24.666473,0.016566288,0.016535236,-4.2238281E-4,-4.2523615E-4,1170.9608,0.0,0.0,0.0,0.0,0.0,0.0,0.0,0.0,0.0,0.0,0.0,0.0,0.0,3.9091635,-0.17593443,-87.29867,0.033314615,0.0032902018,0.0036654975,549982.44,119984.91,0.010445213,0.014712088,7845.478,7862.1714,6905.048,6945.2803,0.30949783,0.0,0.0,0.0
188.28595,188.28595,2.233,0.0,0.0,314.97156,11309.0,100.0,0.0,-0.10309126,0.0,8.0,1.0,0.0,4000000.0,110.0,1.0,0.0,0.0,10.0,0.0,0.0,-386.76376,91.19149,-50.70513,0.03747441,0.22348475,0.28981146,319.88367,319.8841,314.81714,314.83582,366.0,365.0,434.0,430.0,97.0,97.0,97.0,97.0,0.0,0.0,0.0,0.0,0.049713966,0.04976582,0.053977698,0.05397652,0.0,0.0,0.0,0.0,1469.9711,1185.952,236.31602,67.90011,0.0,0.0,0.0,2.0,1.0,3.0971475,-0.015486505,7.104874E-5,97.0,97.0,97.0,97.0,21.710573,21.710573,24.666473,24.666473,0.015719326,0.015670976,-4.3038093E-4,-4.383758E-4,1171.3849,0.0,0.0,0.0,0.0,0.0,0.0,0.0,0.0,0.0,0.0,0.0,0.0,0.0,3.8958182,-0.07518905,-87.40529,0.0571612,0.004343987,-2.806238E-4,549987.0,119984.91,0.0050177868,0.006991764,8565.362,8595.967,7186.5615,7170.9707,0.30274963,0.0,0.0,0.0
192.6641,192.6641,2.283,0.0,0.0,315.3583,11317.0,100.0,0.0,-0.104316056,0.0,8.0,1.0,0.0,4000000.0,110.0,1.0,0.0,0.0,10.0,0.0,0.0,-386.56946,91.19474,-55.078323,0.043383267,0.20754011,0.58149534,320.10242,320.10278,315.20578,315.23956,364.0,363.0,432.0,428.0,97.0,97.0,97.0,97.0,0.0,0.0,0.0,0.0,0.050599623,0.05068781,0.054551482,0.054478563,0.0,0.0,0.0,0.0,-5482.2334,-4298.293,-3657.2854,-2371.8638,0.0,0.0,0.0,2.0,1.0,3.0974092,-0.0149067165,-0.001332283,97.0,97.0,97.0,97.0,21.710573,21.710573,24.666473,24.666473,0.015034704,0.014936797,-4.2730657E-4,-4.3208155E-4,1172.2313,0.0,0.0,0.0,0.0,0.0,0.0,0.0,0.0,0.0,0.0,0.0,0.0,0.0,3.8768456,0.2056809,-87.51346,-0.0040584696,0.0058993553,-0.021370346,549995.4,119984.9,0.0047660926,0.0044433004,9103.181,9189.873,7305.836,7313.6484,0.2997284,0.0,0.0,0.0
197.04713,197.04713,2.333,0.0,0.0,315.69098,11357.0,100.0,0.0,-0.03798195,0.0,8.0,1.0,0.0,4000000.0,110.0,1.0,0.0,0.0,10.0,0.0,0.0,-386.37622,91.2057,-59.456474,0.044558078,0.18543483,-0.35560602,321.24405,321.25674,315.54092,315.58868,363.0,362.0,431.0,427.0,97.0,97.0,97.0,97.0,0.0,0.0,0.0,0.0,0.046293553,0.046571728,0.052822184,0.053026795,0.0,0.0,0.0,0.0,113.81927,166.96745,565.718,198.91249,0.0,0.0,0.0,2.0,1.0,3.0977955,-0.014511214,2.7167797E-4,97.0,97.0,97.0,97.0,21.710573,21.710573,24.666473,24.666473,0.017592836,0.017484011,-4.0646008E-4,-3.9611052E-4,1176.4656,0.0,0.0,0.0,0.0,0.0,0.0,0.0,0.0,0.0,0.0,0.0,0.0,0.0,3.856563,0.16604182,-87.60694,-0.03522666,0.007158629,0.0010062181,550037.9,119984.91,0.01091911,0.013101853,6988.214,7067.0605,6004.4,6091.8506,0.30730915,0.0,0.0,0.0
202.89874,202.89874,2.383,0.0,0.0,316.1775,11370.0,100.0,0.0,0.05723296,0.0,8.0,1.0,0.0,4000000.0,110.0,1.0,0.0,0.0,10.0,0.0,0.0,-386.11966,91.20855,-65.30163,0.027622122,0.20974167,-0.2160938,321.62396,321.6327,316.0445,316.04596,360.0,359.0,429.0,425.0,97.0,97.0,97.0,97.0,0.0,0.0,0.0,0.0,0.043824613,0.04377278,0.052543323,0.052748345,3.5302339,-3.9587166,11.240913,10.426864,1989.354,1753.9498,583.62177,450.5574,0.0,0.0,0.0,2.0,1.0,3.0980139,-0.014919635,0.0017956495,97.0,97.0,97.0,97.0,21.710573,21.710573,24.666473,24.666473,0.017323006,0.017360548,-4.2146235E-4,-4.1173134E-4,1177.843,0.0,0.0,0.0,0.0,0.0,0.0,0.0,0.0,0.0,0.0,0.0,0.0,0.0,3.841769,-0.04720181,-87.743004,-0.0058631236,-2.760734E-4,0.011078087,550052.25,119984.9,0.011921036,0.01635203,7294.5547,7268.754,6297.669,6388.543,0.3100481,0.0,0.0,0.0
205.82797,205.82797,2.433,0.0,0.0,316.4204,11372.0,100.0,0.0,0.028917402,0.0,8.0,1.0,0.0,4000000.0,110.0,1.0,0.0,0.0,10.0,0.0,0.0,-385.99158,91.206314,-68.22762,0.017305015,0.20625502,-0.043721836,321.67392,321.67133,316.29187,316.27643,359.0,358.0,428.0,424.0,97.0,97.0,97.0,97.0,0.0,0.0,0.0,0.0,0.045227885,0.045022238,0.053104676,0.053133946,0.0,0.0,0.0,0.0,1412.022,1545.6897,65.64708,-134.6871,0.0,0.0,0.0,2.0,1.0,3.0979502,-0.01531091,0.0015292168,97.0,97.0,97.0,97.0,21.710573,21.710573,24.666473,24.666473,0.016676487,0.01671994,-4.199763E-4,-4.191423E-4,1178.0541,0.0,0.0,0.0,0.0,0.0,0.0,0.0,0.0,0.0,0.0,0.0,0.0,0.0,3.8391528,-0.07538425,-87.81064,0.017700551,-0.0024171418,0.009795883,550054.06,119984.91,0.010140631,0.013964954,7704.271,7676.425,6691.703,6683.439,0.30784512,0.0,0.0,0.0
210.22597,210.22597,2.483,0.0,0.0,316.7824,11379.0,100.0,0.0,-0.024339065,0.0,8.0,1.0,0.0,4000000.0,110.0,1.0,0.0,0.0,10.0,0.0,0.0,-385.79987,91.20316,-72.62081,0.014624339,0.20455013,0.0777929,321.84827,321.868,316.6416,316.64993,358.0,357.0,426.0,422.0,97.0,97.0,97.0,97.0,0.0,0.0,0.0,0.0,0.04856217,0.048320293,0.053384297,0.053422693,0.0,0.0,0.0,0.0,-512.8248,-811.69,-64.81557,-214.89857,0.0,0.0,0.0,2.0,1.0,3.097958,-0.015814677,4.7397614E-4,97.0,97.0,97.0,97.0,21.710573,21.710573,24.666473,24.666473,0.016059482,0.016100662,-4.208847E-4,-4.219236E-4,1178.7446,0.0,0.0,0.0,0.0,0.0,0.0,0.0,0.0,0.0,0.0,0.0,0.0,0.0,3.8337042,-0.047107596,-87.91155,0.015123158,0.0017403879,0.008596143,550037.94,119984.9,0.008653009,0.009499627,8149.857,8096.671,6727.5693,6734.8203,0.30514908,0.0,0.0,0.0
216.09776,216.09776,2.533,0.0,0.0,317.25104,11397.0,100.0,0.0,-0.038765762,0.0,8.0,1.0,0.0,4000000.0,110.0,1.0,0.0,0.0,10.0,0.0,0.0,-385.54434,91.20255,-78.4862,0.01824938,0.1909507,0.027233696,322.3809,322.3926,317.11163,317.12808,356.0,355.0,424.0,420.0,97.0,97.0,97.0,97.0,0.0,0.0,0.0,0.0,0.048350338,0.04833593,0.053371787,0.053419087,-22.016687,-19.609629,-5.1712985,-6.096214,-714.4867,-544.8639,-285.31992,-387.72668,0.0,0.0,0.0,2.0,1.0,3.0980985,-0.015956368,5.8567524E-4,97.0,97.0,97.0,97.0,21.710573,21.710573,24.666473,24.666473,0.016190015,0.016177557,-4.1231074E-4,-4.132658E-4,1179.8193,0.0,0.0,0.0,0.0,0.0,0.0,0.0,0.0,0.0,0.0,0.0,0.0,0.0,3.8280225,0.014409838,-88.04211,-0.011285663,0.0026924538,0.0010934394,549669.94,119984.91,0.010065141,0.010508726,7985.0444,7982.328,6634.9775,6650.7026,0.30604458,0.0,0.0,0.0
219.03682,219.03682,2.583,0.0,0.0,317.47284,11409.0,100.0,0.0,-0.0021697066,0.0,8.0,1.0,0.0,4000000.0,110.0,1.0,0.0,0.0,10.0,0.0,0.0,-385.4169,91.202736,-81.42206,0.013960199,0.18775564,-0.07995539,322.72626,322.73306,317.3385,317.34662,355.0,354.0,423.0,419.0,97.0,97.0,97.0,97.0,0.0,0.0,0.0,0.0,0.047729824,0.04772796,0.053188782,0.05315394,0.0,0.0,0.0,0.0,357.753,236.94637,107.060356,100.75716,0.0,0.0,0.0,2.0,1.0,3.0981565,-0.016020868,9.6440315E-4,97.0,97.0,97.0,97.0,21.710573,21.710573,24.666473,24.666473,0.016563589,0.016562708,-4.1040283E-4,-4.0780604E-4,1180.551,0.0,0.0,0.0,0.0,0.0,0.0,0.0,0.0,0.0,0.0,0.0,0.0,0.0,3.8266456,-0.0055479277,-88.103836,-0.010223148,0.0011096119,2.5935582E-4,549432.3,119984.9,0.011625044,0.012550563,7693.6484,7690.4214,6503.341,6479.3613,0.30803585,0.0,0.0,0.0
224.92107,224.92107,2.633,0.0,0.0,317.92264,11424.0,100.0,0.0,-0.014126694,0.0,8.0,1.0,0.0,4000000.0,110.0,1.0,0.0,0.0,10.0,0.0,0.0,-385.16202,91.19907,-87.29994,0.015231196,0.19385242,-0.012805004,323.1394,323.1364,317.78317,317.7925,353.0,352.0,421.0,417.0,97.0,97.0,97.0,97.0,0.0,0.0,0.0,0.0,0.046696745,0.046784114,0.053286247,0.05322473,12.330338,16.853212,18.982662,18.097311,1654.4935,1831.2244,742.5024,669.84143,0.0,0.0,0.0,2.0,1.0,3.0982425,-0.015777353,0.0012863874,97.0,97.0,97.0,97.0,21.710573,21.710573,24.666473,24.666473,0.016513687,0.016476283,-4.1694372E-4,-4.1586903E-4,1181.4873,0.0,0.0,0.0,0.0,0.0,0.0,0.0,0.0,0.0,0.0,0.0,0.0,0.0,3.8230112,-0.08520947,-88.22901,0.012841747,0.0017419038,-0.0053811255,549146.06,119984.9,0.010304354,0.0129050985,7754.786,7783.8125,6841.072,6808.3467,0.30774117,0.0,0.0,0.0
229.33978,229.33978,2.683,0.0,0.0,318.27002,11434.0,100.0,0.0,-0.04859312,0.0,8.0,1.0,0.0,4000000.0,110.0,1.0,0.0,0.0,10.0,0.0,0.0,-384.97086,91.19423,-91.71388,0.01573782,0.20497109,-0.06463778,323.41287,323.41263,318.1319,318.1383,351.0,350.0,419.0,415.0,97.0,97.0,97.0,97.0,0.0,0.0,0.0,0.0,0.047695283,0.047870245,0.053173725,0.053100087,23.364944,18.001198,12.893154,5.8577204,1527.3569,809.0078,2833.8474,2073.6155,0.0,0.0,0.0,2.0,1.0,3.0982985,-0.01578415,8.043051E-4,97.0,97.0,97.0,97.0,21.710573,21.710573,24.666473,24.666473,0.016228449,0.016217796,-4.2029767E-4,-4.2409165E-4,1182.106,0.0,0.0,0.0,0.0,0.0,0.0,0.0,0.0,0.0,0.0,0.0,0.0,0.0,3.8211477,-0.11856672,-88.325645,-0.003603568,0.001198653,0.0015477808,548953.06,119984.9,0.0055787996,0.008212085,7938.16,7936.8765,6670.0684,6605.823,0.3027668,0.0,0.0,0.0
232.28836,232.28836,2.733,0.0,0.0,318.3826,11438.0,100.0,0.0,-0.04671551,0.0,8.0,1.0,0.0,4000000.0,110.0,1.0,0.0,0.0,10.0,0.0,0.0,-384.8434,91.19076,-94.659294,0.01637819,0.21006203,0.18125516,323.52914,323.53162,318.36987,318.37964,350.0,349.0,418.0,414.0,97.0,97.0,97.0,97.0,0.0,0.0,0.0,0.0,0.048950806,0.04892946,0.053823177,0.053716365,0.0,0.0,0.0,0.0,340.30515,-122.000305,18.507269,108.696434,0.0,0.0,0.0,2.0,1.0,3.0983465,-0.015750343,6.984472E-4,97.0,97.0,97.0,97.0,21.710573,21.710573,24.666473,24.666473,0.015829423,0.015810404,-4.29057E-4,-4.3274538E-4,1182.3379,0.0,0.0,0.0,0.0,0.0,0.0,0.0,0.0,0.0,0.0,0.0,0.0,0.0,3.782584,-0.009452261,-88.35868,0.05232542,0.0071562114,-0.036681246,548868.75,119984.914,9.641182E-4,0.003940908,8250.289,8260.849,7201.952,7152.241,0.298625,0.0,0.0,0.0
238.18799,238.18799,2.783,0.0,0.0,318.65076,11445.0,100.0,0.0,-0.13968952,0.0,8.0,1.0,0.0,4000000.0,110.0,1.0,0.0,0.0,10.0,0.0,0.0,-384.5933,91.19306,-100.55274,0.102953665,0.079342596,0.4044017,323.7297,323.76193,318.5138,318.53073,348.0,347.0,416.0,412.0,97.0,97.0,97.0,97.0,0.0,0.0,0.0,0.0,0.048613634,0.04879928,0.052753408,0.053247936,94.92628,79.812256,46.463905,33.621487,8844.892,8462.422,4976.1406,3957.049,0.0,0.0,0.0,2.0,1.0,3.0986447,-0.015538476,0.0012452602,97.0,97.0,97.0,97.0,21.710573,21.710573,24.666473,24.666473,0.015924167,0.015923323,-4.0952524E-4,-4.401825E-4,1182.7413,0.0,0.0,0.0,0.0,0.0,0.0,0.0,0.0,0.0,0.0,0.0,0.0,0.0,3.727344,0.07572138,-88.435555,-0.019118208,0.0040124236,0.023624433,548720.25,119984.9,0.0051196394,0.0060132444,8496.531,8481.564,6808.121,7017.885,0.29756927,0.0,0.0,0.0
242.61665,242.61665,2.833,0.0,0.0,318.96875,11482.0,100.0,0.0,-0.13627584,0.0,8.0,1.0,0.0,4000000.0,110.0,1.0,0.0,0.0,10.0,0.0,0.0,-384.40634,91.19153,-104.97682,-8.7730587E-7,0.18490918,-0.7232306,324.73203,324.84094,318.82306,318.8822,346.0,346.0,415.0,411.0,97.0,97.0,97.0,97.0,0.0,0.0,0.0,0.0,0.04448914,0.04352741,0.051477533,0.051571228,-114.9094,-132.60304,-23.531017,-25.92042,-1563.0839,-962.1619,532.3379,957.8032,0.0,0.0,0.0,2.0,1.0,3.0989778,-0.017218627,0.004563093,97.0,97.0,97.0,97.0,21.710573,21.710573,24.666473,24.666473,0.018104356,0.018255396,-3.8602948E-4,-3.9554396E-4,1185.0155,0.0,0.0,0.0,0.0,0.0,0.0,0.0,0.0,0.0,0.0,0.0,0.0,0.0,3.7446728,-0.18136337,-88.52308,-0.09798334,0.009131883,0.021355614,548003.7,119984.9,0.012017695,0.015726386,6556.1494,6383.814,5178.6514,5221.4775,0.30646133,0.0,0.0,0.0
247.04977,247.04977,2.883,0.0,0.0,319.28668,11490.0,100.0,0.0,-0.018587718,0.0,8.0,1.0,0.0,4000000.0,110.0,1.0,0.0,0.0,10.0,0.0,0.0,-384.21902,91.17653,-109.40532,0.024138736,0.17499793,-0.44504318,324.97888,325.05853,319.1396,319.18695,345.0,344.0,413.0,409.0,97.0,97.0,97.0,97.0,0.0,0.0,0.0,0.0,0.041939218,0.041008607,0.05193556,0.052256998,-36.163326,-32.878292,4.830658,11.91616,626.32275,521.314,1256.9768,820.2462,0.0,0.0,0.0,2.0,1.0,3.0993934,-0.018132053,0.0076891184,97.0,97.0,97.0,97.0,21.710573,21.710573,24.666473,24.666473,0.017921586,0.018031199,-3.9783414E-4,-3.9256617E-4,1185.4866,0.0,0.0,0.0,0.0,0.0,0.0,0.0,0.0,0.0,0.0,0.0,0.0,0.0,3.7445416,-0.40695485,-88.610725,-0.046799548,0.0071945023,0.019422159,547839.9,119984.9,0.017045457,0.022384247,6731.863,6612.683,5867.458,6029.839,0.3167019,0.0,0.0,0.0
250.00694,250.00694,2.933,0.0,0.0,319.48553,11492.0,100.0,0.0,0.09643258,0.0,8.0,1.0,0.0,4000000.0,110.0,1.0,0.0,0.0,10.0,0.0,0.0,-384.09415,91.160805,-112.35997,0.016889622,0.17679146,-0.26059595,325.0272,325.10074,319.34134,319.3557,344.0,343.0,412.0,408.0,97.0,97.0,97.0,97.0,0.0,0.0,0.0,0.0,0.041294888,0.04047624,0.05279633,0.05312028,0.0,0.0,0.0,0.0,3341.8577,2739.0447,283.5229,-116.22012,0.0,0.0,0.0,2.0,1.0,3.0995529,-0.019125575,0.0076897144,97.0,97.0,97.0,97.0,21.710573,21.710573,24.666473,24.666473,0.01758998,0.017776575,-4.1585352E-4,-4.0057144E-4,1185.6176,0.0,0.0,0.0,0.0,0.0,0.0,0.0,0.0,0.0,0.0,0.0,0.0,0.0,3.7420866,-0.5140099,-88.665565,0.038853653,0.0028353487,0.03596063,547805.0,119984.9,0.014641584,0.02317211,7043.4395,6898.3564,6656.4365,6791.822,0.3191681,0.0,0.0,0.0
254.44618,254.44618,2.983,0.0,0.0,319.80777,11480.0,100.0,0.0,-0.055852655,0.0,8.0,1.0,0.0,4000000.0,110.0,1.0,0.0,0.0,10.0,0.0,0.0,-383.9071,91.13498,-116.7956,0.022392578,0.18698816,0.2773476,324.72064,324.74866,319.66248,319.65112,342.0,342.0,411.0,407.0,97.0,97.0,97.0,97.0,0.0,0.0,0.0,0.0,0.048883107,0.048018456,0.05409705,0.05424223,0.0,0.0,0.0,0.0,3128.8364,2192.7327,1726.6986,1077.5371,0.0,0.0,0.0,2.0,1.0,3.0995333,-0.02092687,0.003874302,97.0,97.0,97.0,97.0,21.710573,21.710573,24.666473,24.666473,0.015508227,0.015641866,-4.2161913E-4,-4.331298E-4,1184.8558,0.0,0.0,0.0,0.0,0.0,0.0,0.0,0.0,0.0,0.0,0.0,0.0,0.0,3.7372782,-0.47737744,-88.75556,0.10237738,8.184258E-4,0.037062913,548025.3,119984.91,0.0063725193,0.009603456,8556.305,8393.945,7586.761,7618.8936,0.3065834,0.0,0.0,0.0
260.37045,260.37045,3.033,0.0,0.0,320.01178,11498.0,100.0,0.0,-0.24228832,0.0,8.0,1.0,0.0,4000000.0,110.0,1.0,0.0,0.0,10.0,0.0,0.0,-383.66028,91.119736,-122.71515,-0.0047213673,0.13755809,0.11947064,325.26486,325.21628,319.86346,319.9103,340.0,340.0,409.0,405.0,97.0,97.0,97.0,97.0,0.0,0.0,0.0,0.0,0.04732861,0.048298676,0.053912215,0.055397365,-130.79858,-157.62381,5.8248634,-9.706914,1833.5576,-4956.6016,1653.005,-4696.856,0.0,0.0,0.0,2.0,1.0,3.0996652,-0.020508159,0.0041992664,97.0,97.0,97.0,97.0,21.710573,21.710573,24.666473,24.666473,0.016370077,0.016017238,-3.8020962E-4,-4.099126E-4,1185.9625,0.0,0.0,0.0,0.0,0.0,0.0,0.0,0.0,0.0,0.0,0.0,0.0,0.0,3.6675766,-0.041640673,-88.81646,-0.05381076,0.008606646,0.07098433,547678.5,119984.9,0.008270634,0.011750974,7636.1787,7910.745,7243.842,7766.724,0.30668068,0.0,0.0,0.0
264.81665,264.81665,3.083,0.0,0.0,320.28934,11514.0,100.0,0.0,-0.3792758,0.0,8.0,1.0,0.0,4000000.0,110.0,1.0,0.0,0.0,10.0,0.0,0.0,-383.47705,91.114204,-127.15789,0.06719273,0.17625278,-0.29854396,325.63904,325.73163,320.0924,320.21674,339.0,338.0,407.0,403.0,97.0,97.0,97.0,97.0,0.0,0.0,0.0,0.0,0.04514791,0.044398718,0.05330212,0.053014785,-9.813532,-17.93079,-24.044214,-32.543465,2151.1045,4115.4194,-550.7111,1582.0471,0.0,0.0,0.0,2.0,1.0,3.100515,-0.022916798,0.0035856962,97.0,97.0,97.0,97.0,21.710573,21.710573,24.666473,24.666473,0.016996006,0.01695397,-3.9438228E-4,-4.1408848E-4,1186.9421,0.0,0.0,0.0,0.0,0.0,0.0,0.0,0.0,0.0,0.0,0.0,0.0,0.0,3.6541226,-0.18146233,-88.894005,0.028938185,0.022724304,-8.21242E-4,547369.2,119984.9,0.013428075,0.017146828,7386.0913,7312.6934,6274.203,6140.8164,0.31100655,0.0,0.0,0.0
269.267,269.267,3.133,0.0,0.0,320.59167,11519.0,100.0,0.0,-0.19743091,0.0,8.0,1.0,0.0,4000000.0,110.0,1.0,0.0,0.0,10.0,0.0,0.0,-383.29538,91.102875,-131.60486,0.103355154,0.16829935,-0.15674913,325.811,325.83917,320.40082,320.51642,338.0,337.0,406.0,402.0,97.0,97.0,97.0,97.0,0.0,0.0,0.0,0.0,0.046149906,0.04627696,0.052979913,0.052923623,15.031769,18.143354,2.6705859,-10.77488,-1051.399,-2608.7969,373.83286,-1348.8292,0.0,0.0,0.0,2.0,1.0,3.1016092,-0.02183282,0.002758503,97.0,97.0,97.0,97.0,21.710573,21.710573,24.666473,24.666473,0.016502522,0.016333597,-4.1246714E-4,-4.013014E-4,1187.2408,0.0,0.0,0.0,0.0,0.0,0.0,0.0,0.0,0.0,0.0,0.0,0.0,0.0,3.6130047,-0.2588283,-88.979546,0.009086276,0.019093342,-0.042383946,547269.25,119984.91,0.011925663,0.01400239,7587.9453,7626.6914,6400.501,6289.998,0.30857563,0.0,0.0,0.0
273.7216,273.7216,3.183,0.0,0.0,320.89896,11520.0,100.0,0.0,0.06981057,0.0,8.0,1.0,0.0,4000000.0,110.0,1.0,0.0,0.0,10.0,0.0,0.0,-383.11603,91.09067,-136.05617,0.087749824,0.17287722,0.23704031,325.8654,325.82104,320.73608,320.78333,336.0,335.0,404.0,400.0,97.0,97.0,97.0,97.0,0.0,0.0,0.0,0.0,0.049141914,0.049638562,0.053724222,0.05422247,82.1194,53.949055,21.01667,18.993614,1047.6571,-1712.2816,163.4135,-822.75415,0.0,0.0,0.0,2.0,1.0,3.1023016,-0.02080846,0.0017983913,97.0,97.0,97.0,97.0,21.710573,21.710573,24.666473,24.666473,0.015609852,0.015368747,-4.3221738E-4,-4.0325004E-4,1187.3057,0.0,0.0,0.0,0.0,0.0,0.0,0.0,0.0,0.0,0.0,0.0,0.0,0.0,3.5648475,-0.20211257,-89.067055,0.033012155,0.007271716,0.01476348,547251.6,119984.9,0.0080387965,0.008863139,8314.312,8575.559,7207.6875,7413.5015,0.30449104,0.0,0.0,0.0
276.6937,276.6937,3.233,0.0,0.0,321.10074,11522.0,100.0,0.0,0.12474745,0.0,8.0,1.0,0.0,4000000.0,110.0,1.0,0.0,0.0,10.0,0.0,0.0,-382.99762,91.08621,-139.02614,0.057320975,0.16728519,0.40348467,325.89713,325.88943,320.97256,320.95734,335.0,334.0,403.0,399.0,97.0,97.0,97.0,97.0,0.0,0.0,0.0,0.0,0.050232388,0.05012987,0.054260515,0.054374777,0.0,0.0,0.0,0.0,-3977.6616,-3144.3665,-1013.0166,284.9042,0.0,0.0,0.0,2.0,1.0,3.1023335,-0.021202102,0.0010914803,97.0,97.0,97.0,97.0,21.710573,21.710573,24.666473,24.666473,0.014934138,0.014954283,-4.2586456E-4,-4.0996555E-4,1187.4299,0.0,0.0,0.0,0.0,0.0,0.0,0.0,0.0,0.0,0.0,0.0,0.0,0.0,3.5427504,-0.074757285,-89.12423,0.008434742,-0.0032008472,0.007827638,547213.94,119984.9,0.0071990117,0.007521411,8902.671,8940.215,7346.299,7424.236,0.30415058,0.0,0.0,0.0
281.1551,281.1551,3.283,0.0,0.0,321.3748,11539.0,100.0,0.0,0.10494848,0.0,8.0,1.0,0.0,4000000.0,110.0,1.0,0.0,0.0,10.0,0.0,0.0,-382.82086,91.085396,-143.48438,0.011722175,0.15566495,0.078066796,326.3977,326.40234,321.26578,321.2174,334.0,333.0,402.0,398.0,97.0,97.0,97.0,97.0,0.0,0.0,0.0,0.0,0.048784543,0.04866592,0.053817973,0.054277893,0.0,0.0,0.0,0.0,713.0784,471.00928,-384.11908,-145.91214,0.0,0.0,0.0,2.0,1.0,3.101999,-0.021810891,7.7342987E-4,97.0,97.0,97.0,97.0,21.710573,21.710573,24.666473,24.666473,0.015580872,0.01570333,-4.0306122E-4,-4.082395E-4,1188.423,0.0,0.0,0.0,0.0,0.0,0.0,0.0,0.0,0.0,0.0,0.0,0.0,0.0,3.5315824,0.012448474,-89.20089,0.007614895,-0.007749743,0.030837424,546864.7,119984.91,0.00783148,0.009661603,8275.223,8181.443,6885.714,7131.935,0.305233,0.0,0.0,0.0
287.10968,287.10968,3.333,0.0,0.0,321.7554,11552.0,100.0,0.0,-0.028495915,0.0,8.0,1.0,0.0,4000000.0,110.0,1.0,0.0,0.0,10.0,0.0,0.0,-382.5851,91.08721,-149.43474,-0.0033555245,0.16298191,0.050574146,326.7384,326.79694,321.62592,321.61914,332.0,331.0,400.0,396.0,97.0,97.0,97.0,97.0,0.0,0.0,0.0,0.0,0.049175274,0.0485219,0.05373914,0.05362659,15.519484,-7.20039,5.6404614,-17.600878,103.251625,-505.194,439.7481,-169.30103,0.0,0.0,0.0,2.0,1.0,3.1017165,-0.02444577,-1.4948845E-4,97.0,97.0,97.0,97.0,21.710573,21.710573,24.666473,24.666473,0.0154984435,0.015715446,-4.052394E-4,-4.1004084E-4,1189.2024,0.0,0.0,0.0,0.0,0.0,0.0,0.0,0.0,0.0,0.0,0.0,0.0,0.0,3.535916,0.043595128,-89.30652,0.004052666,-7.5099507E-4,0.025240242,546607.5,119984.914,0.0083365,0.0091779055,8387.057,8128.8276,6883.136,6748.7666,0.30505943,0.0,0.0,0.0
291.58023,291.58023,3.383,0.0,0.0,322.03873,11565.0,100.0,0.0,-0.10858043,0.0,8.0,1.0,0.0,4000000.0,110.0,1.0,0.0,0.0,10.0,0.0,0.0,-382.40823,91.089264,-153.90213,0.017947797,0.16297355,-0.05545537,327.13284,327.154,321.89178,321.92148,330.0,329.0,398.0,394.0,97.0,97.0,97.0,97.0,0.0,0.0,0.0,0.0,0.048168164,0.048250966,0.053577017,0.05344015,-5.584806,-0.78946346,-0.64171845,2.137497,1849.1952,877.2298,754.26385,471.14337,0.0,0.0,0.0,2.0,1.0,3.1018393,-0.024340512,-4.9233437E-5,97.0,97.0,97.0,97.0,21.710573,21.710573,24.666473,24.666473,0.015902204,0.015881645,-4.0336256E-4,-4.1019858E-4,1189.9723,0.0,0.0,0.0,0.0,0.0,0.0,0.0,0.0,0.0,0.0,0.0,0.0,0.0,3.5338461,0.028938541,-89.38537,-0.0027475196,0.0053270203,-0.0076092477,546346.56,119984.9,0.0073187016,0.0090410635,7999.9116,7992.4453,6817.2417,6753.4814,0.30413628,0.0,0.0,0.0
296.05475,296.05475,3.433,0.0,0.0,322.33115,11574.0,100.0,0.0,-0.0768528,0.0,8.0,1.0,0.0,4000000.0,110.0,1.0,0.0,0.0,10.0,0.0,0.0,-382.23178,91.09064,-158.37355,0.029719787,0.16629007,0.0015109779,327.37503,327.38794,322.17856,322.2193,329.0,328.0,397.0,393.0,97.0,97.0,97.0,97.0,0.0,0.0,0.0,0.0,0.048522055,0.048634212,0.053606547,0.053553376,8.170455,1.5308707,-5.3141265,-0.056996938,248.43958,-616.452,-375.4824,-252.22147,0.0,0.0,0.0,2.0,1.0,3.1021657,-0.023833659,1.513958E-5,97.0,97.0,97.0,97.0,21.710573,21.710573,24.666473,24.666473,0.015745353,0.015667127,-4.0911027E-4,-4.0856705E-4,1190.5339,0.0,0.0,0.0,0.0,0.0,0.0,0.0,0.0,0.0,0.0,0.0,0.0,0.0,3.523883,0.027148578,-89.46706,-0.006502582,0.0067848302,-0.0065179844,546179.4,119984.9,0.006421235,0.007574146,8107.5073,8158.755,6801.4453,6793.882,0.3024559,0.0,0.0,0.0
299.04007,299.04007,3.483,0.0,0.0,322.5228,11583.0,100.0,0.0,-0.111048505,0.0,8.0,1.0,0.0,4000000.0,110.0,1.0,0.0,0.0,10.0,0.0,0.0,-382.1145,91.091415,-161.35677,0.04254397,0.16105556,-0.04878227,327.6307,327.6453,322.37152,322.41446,328.0,327.0,396.0,392.0,97.0,97.0,97.0,97.0,0.0,0.0,0.0,0.0,0.048253253,0.048313864,0.05344949,0.053552404,0.0,0.0,0.0,0.0,-889.3131,-317.64056,135.55884,126.47955,0.0,0.0,0.0,2.0,1.0,3.1023905,-0.023659708,5.3179264E-4,97.0,97.0,97.0,97.0,21.710573,21.710573,24.666473,24.666473,0.015905984,0.015817849,-4.0261797E-4,-4.069702E-4,1191.0717,0.0,0.0,0.0,0.0,0.0,0.0,0.0,0.0,0.0,0.0,0.0,0.0,0.0,3.5134065,0.016198581,-89.520744,-0.019178044,0.007077914,-0.0035609049,546001.5,119984.9,0.0064200615,0.007953018,7943.25,7997.611,6730.9365,6792.8447,0.30298424,0.0,0.0,0.0
303.5212,303.5212,3.533,0.0,0.0,322.79703,11595.0,100.0,0.0,-0.055796273,0.0,8.0,1.0,0.0,4000000.0,110.0,1.0,0.0,0.0,10.0,0.0,0.0,-381.93933,91.09232,-165.83485,0.04460541,0.1507537,-0.13974932,327.9642,328.0034,322.64978,322.68747,326.0,325.0,394.0,391.0,97.0,97.0,97.0,97.0,0.0,0.0,0.0,0.0,0.04805442,0.047856893,0.053290006,0.05354867,0.0,0.0,0.0,0.0,-712.19354,-528.328,25.025023,-488.56427,0.0,0.0,0.0,2.0,1.0,3.1027367,-0.024273898,0.0011781454,97.0,97.0,97.0,97.0,21.710573,21.710573,24.666473,24.666473,0.016055332,0.016076595,-3.9788356E-4,-3.9560738E-4,1191.7808,0.0,0.0,0.0,0.0,0.0,0.0,0.0,0.0,0.0,0.0,0.0,0.0,0.0,3.495245,-0.0026882095,-89.597694,-0.014797133,0.005993596,0.014099843,545761.2,119984.91,0.008685395,0.010436905,7818.171,7762.107,6548.661,6644.7754,0.30537415,0.0,0.0,0.0
