LapDistance [m],TotalDistance [m],LapTime [s],Sector1Time [s],Sector2Time [s],Speed [km/h],EngineRevs [rpm],ThrottlePercentage [%],BrakePercentage [%],Steer [%],Clutch [%],Gear [int],DRS [0/1],CanUseDRS [0/1],KERSLevel [J],EngineTemperature [C],RacePosition [int],Sector [int],InPits [int],FuelRemaining [kg],CurrentFlag [int],CurrentLapInvalid [int],X [m],Y [m],Z [m],GForceLatitudinal [G],GForceLongitudinal [G],GForceVertical [G],WheelSpeedRearLeft [km/h],WheelSpeedRearRight [km/h],WheelSpeedFrontLeft [km/h],WheelSpeedFrontRight [km/h],BrakeTemperatureRearLeft [C],BrakeTemperatureRearRight [C],BrakeTemperatureFrontLeft [C],BrakeTemperatureFrontRight [C],TyreTemperatureRearLeft [C],TyreTemperatureRearRight [C],TyreTemperatureFrontLeft [C],TyreTemperatureFrontRight [C],TyreWearRearLeft [%],TyreWearRearRight [%],TyreWearFrontLeft [%],TyreWearFrontRight [%],SuspensionPositionRearLeft [m],SuspensionPositionRearRight [m],SuspensionPositionFrontLeft [m],SuspensionPositionFrontRight [m],SuspensionVelocityRearLeft [m/s],SuspensionVelocityRearRight [m/s],SuspensionVelocityFrontLeft [m/s],SuspensionVelocityFrontRight [m/s],SuspensionAccelerationRearLeft [m/s^2],SuspensionAccelerationRearRight [m/s^2],SuspensionAccelerationFrontLeft [m/s^2],SuspensionAccelerationFrontRight [m/s^2],MGUKHarvested [J],MGUHHarvested [J],ERSSpent [J],ERSMode [int],FuelMixMode [int],Yaw [rad],Roll [rad],Pitch [rad],TyreCarcassTemperatureRearLeft [C],TyreCarcassTemperatureRearRight [C],TyreCarcassTemperatureFrontLeft [C],TyreCarcassTemperatureFrontRight [C],TyrePressureRearLeft [PSI],TyrePressureRearRight [PSI],TyrePressureFrontLeft [PSI],TyrePressureFrontRight [PSI],WheelSlipRearLeft [%],WheelSlipRearRight [%],WheelSlipFrontLeft [%],WheelSlipFrontRight [%],Torque [Nm],Handbrake [%],RearLeftInside [C],RearLeftMiddle [C],RearLeftOutside [C],RearRightInside [C],RearRightMiddle [C],RearRightOutside [C],FrontLeftInside [C],FrontLeftMiddle [C],FrontLeftOutside [C],FrontRightInside [C],FrontRightMiddle [C],FrontRightOutside [C],WoldSpeedX [km/h],WoldSpeedY [km/h],WoldSpeedZ [km/h],LocalAngularVelocityX [rad/s],LocalAngularVelocityY [rad/s],LocalAngularVelocityZ [rad/s],IcePower [W],MgukPower [W],FrontRideHeight [m],RearRideHeight [m],LoadRearLeft [N],LoadRearRight [N],LoadFrontLeft [N],LoadFrontRight [N],Extra1 [m],Extra2 [],Extra3 [],Extra4 []
4.0859747,4.0859747,0.05,0.0,0.0,290.86807,10412.0,100.0,0.0,0.011632256,0.0,8.0,1.0,0.0,4000000.0,110.0,1.0,0.0,0.0,10.0,0.0,0.0,-395.2036,91.17747,133.2344,-0.02550063,0.31799772,0.033417795,296.03436,296.03,290.74097,290.73038,454.0,453.0,524.0,518.0,97.0,97.0,97.0,97.0,0.0,0.0,0.0,0.0,0.043352604,0.04349515,0.053429596,0.05311542,-4.3176856,-0.81628555,-1.0798125,-0.13478099,-242.55212,-238.89093,-146.89114,-183.27531,0.0,0.0,0.0,2.0,1.0,3.1030757,-0.019419583,0.001077652,97.0,97.0,97.0,97.0,21.302864,21.302864,24.666473,24.666473,0.017787512,0.017789973,-4.4645453E-4,-4.510031E-4,1052.2139,0.0,0.0,0.0,0.0,0.0,0.0,0.0,0.0,0.0,0.0,0.0,0.0,0.0,3.072662,0.061502274,-80.73821,0.003431449,-0.001477814,-0.0116431825,536595.3,119984.9,0.010957007,0.015704444,7623.0576,7630.631,6583.5576,6436.4697,0.3050785,0.0,0.0,0.0
8.134897,8.134897,0.116,0.0,0.0,291.42783,10432.0,100.0,0.0,0.0053147613,0.0,8.0,1.0,0.0,4000000.0,110.0,1.0,0.0,0.0,10.0,0.0,0.0,-395.04956,91.180626,129.19339,-0.015899919,0.31540236,-6.355206E-4,296.619,296.6226,291.29526,291.29776,452.0,451.0,522.0,516.0,97.0,97.0,97.0,97.0,0.0,0.0,0.0,0.0,0.043144643,0.04335918,0.053296883,0.053040296,0.0,0.0,0.0,0.0,-23.066996,-317.2919,210.87523,43.679768,0.0,0.0,0.0,2.0,1.0,3.103065,-0.018735604,0.0011026859,97.0,97.0,97.0,97.0,21.302864,21.302864,24.666473,24.666473,0.017847843,0.017842807,-4.475267E-4,-4.475657E-4,1056.2406,0.0,0.0,0.0,0.0,0.0,0.0,0.0,0.0,0.0,0.0,0.0,0.0,0.0,3.0873458,0.0641148,-80.89326,-0.0029696466,4.4074992E-4,-0.011847463,537616.1,119984.9,0.011296269,0.01596956,7583.5,7586.3496,6501.073,6380.2666,0.30545807,0.0,0.0,0.0
12.191551,12.191551,0.166,0.0,0.0,291.9822,10453.0,100.0,0.0,0.09546396,0.0,8.0,1.0,0.0,4000000.0,110.0,1.0,0.0,0.0,10.0,0.0,0.0,-394.89484,91.18364,125.14468,-0.022771582,0.31345144,-0.012882869,297.19724,297.1932,291.8585,291.8422,450.0,449.0,520.0,514.0,97.0,97.0,97.0,97.0,0.0,0.0,0.0,0.0,0.042848907,0.04305886,0.053308487,0.05304854,0.0,0.0,0.0,0.0,374.79843,26.768444,185.63567,24.542208,0.0,0.0,0.0,2.0,1.0,3.103006,-0.018146228,0.0012360811,97.0,97.0,97.0,97.0,21.302864,21.302864,24.666473,24.666473,0.017877106,0.017912129,-4.5095186E-4,-4.4273105E-4,1060.3291,0.0,0.0,0.0,0.0,0.0,0.0,0.0,0.0,0.0,0.0,0.0,0.0,0.0,3.1029813,0.056690134,-81.04677,-8.497046E-4,-0.0030781464,-0.008733284,538612.9,119984.9,0.011355546,0.016387308,7561.0503,7552.7705,6532.2334,6406.1636,0.30566788,0.0,0.0,0.0
16.255894,16.255894,0.2,0.0,0.0,292.53256,10472.0,100.0,0.0,0.19694793,0.0,8.0,1.0,0.0,4000000.0,110.0,1.0,0.0,0.0,10.0,0.0,0.0,-394.73914,91.18632,121.088326,-0.043600637,0.31089032,-0.0038742367,297.73932,297.7258,292.42294,292.3776,449.0,447.0,518.0,512.0,97.0,97.0,97.0,97.0,0.0,0.0,0.0,0.0,0.04292489,0.043045215,0.053385433,0.05305827,5.2718816,1.9338726,2.3198872,0.54940575,414.66946,0.4827976,166.04213,-39.388233,0.0,0.0,0.0,2.0,1.0,3.102734,-0.017645422,0.0012232065,97.0,97.0,97.0,97.0,21.302864,21.302864,24.666473,24.666473,0.017768292,0.01786754,-4.5324268E-4,-4.397932E-4,1064.0969,0.0,0.0,0.0,0.0,0.0,0.0,0.0,0.0,0.0,0.0,0.0,0.0,0.0,3.1251822,0.051690936,-81.198906,0.0014816367,-0.008197289,-0.0066823238,539546.1,119984.9,0.011197351,0.016225614,7621.074,7583.534,6579.8086,6417.662,0.30548573,0.0,0.0,0.0
20.327845,20.327845,0.25,0.0,0.0,293.0784,10490.0,100.0,0.0,0.28198543,0.0,8.0,1.0,0.0,4000000.0,110.0,1.0,0.0,0.0,10.0,0.0,0.0,-394.58194,91.18891,117.024414,-0.07612938,0.30822104,0.0043740175,298.27844,298.25717,292.98737,292.90448,447.0,445.0,516.0,511.0,97.0,97.0,97.0,97.0,0.0,0.0,0.0,0.0,0.043261208,0.04319073,0.053505756,0.053031467,8.0958,3.3031402,2.677515,-0.021904705,278.26575,-138.76407,121.54429,-25.025007,0.0,0.0,0.0,2.0,1.0,3.1021502,-0.017243354,0.0011476278,97.0,97.0,97.0,97.0,21.302864,21.302864,24.666473,24.666473,0.017651858,0.01784183,-4.5216043E-4,-4.3988295E-4,1067.7626,0.0,0.0,0.0,0.0,0.0,0.0,0.0,0.0,0.0,0.0,0.0,0.0,0.0,3.1621664,0.051758554,-81.34921,0.0019268297,-0.014516549,-0.006086747,540475.75,119984.9,0.010964729,0.01583883,7687.8086,7599.5444,6643.2026,6412.4404,0.3051777,0.0,0.0,0.0
24.407324,24.407324,0.316,0.0,0.0,293.6194,10509.0,100.0,0.0,0.308487,0.0,8.0,1.0,0.0,4000000.0,110.0,1.0,0.0,0.0,10.0,0.0,0.0,-394.4225,91.191635,112.95309,-0.10801933,0.30537015,0.009101885,298.81113,298.78793,293.5407,293.43277,445.0,443.0,514.0,509.0,97.0,97.0,97.0,97.0,0.0,0.0,0.0,0.0,0.043626856,0.04336801,0.053623714,0.053003132,0.0,0.0,0.0,0.0,191.89864,-248.07748,118.070816,-64.493706,0.0,0.0,0.0,2.0,1.0,3.1013024,-0.016840467,0.0010493994,97.0,97.0,97.0,97.0,21.302864,21.302864,24.666473,24.666473,0.017554548,0.017811261,-4.48116E-4,-4.4266353E-4,1070.9442,0.0,0.0,0.0,0.0,0.0,0.0,0.0,0.0,0.0,0.0,0.0,0.0,0.0,3.2156568,0.05663792,-81.497505,0.001946024,-0.018464847,-0.00689111,541106.1,119984.89,0.010817905,0.015491152,7747.3506,7611.3584,6699.1436,6400.3604,0.30492878,0.0,0.0,0.0
28.494335,28.494335,0.366,0.0,0.0,294.15756,10528.0,100.0,0.0,0.25987566,0.0,8.0,1.0,0.0,4000000.0,110.0,1.0,0.0,0.0,10.0,0.0,0.0,-394.25998,91.19403,108.874344,-0.12307405,0.3047637,-0.0012668148,299.34537,299.336,294.07645,293.97314,443.0,441.0,512.0,507.0,97.0,97.0,97.0,97.0,0.0,0.0,0.0,0.0,0.043618407,0.043222863,0.053668357,0.052969266,0.0,0.0,0.0,0.0,590.2066,108.68309,295.6196,43.693176,0.0,0.0,0.0,2.0,1.0,3.1003919,-0.016512118,0.0010949373,97.0,97.0,97.0,97.0,21.302864,21.302864,24.666473,24.666473,0.017526537,0.017809123,-4.446397E-4,-4.4682904E-4,1073.5388,0.0,0.0,0.0,0.0,0.0,0.0,0.0,0.0,0.0,0.0,0.0,0.0,0.0,3.2797291,0.04546627,-81.64457,9.486481E-4,-0.017328892,-0.006408654,541438.2,119984.9,0.010068281,0.014942594,7762.54,7592.21,6758.9834,6421.795,0.30424976,0.0,0.0,0.0
32.588825,32.588825,0.4,0.0,0.0,294.6922,10546.0,100.0,0.0,0.16413614,0.0,8.0,1.0,0.0,4000000.0,110.0,1.0,0.0,0.0,10.0,0.0,0.0,-394.0943,91.19641,104.78825,-0.114333756,0.3017859,2.227943E-4,299.84628,299.85083,294.59695,294.52258,441.0,439.0,510.0,505.0,97.0,97.0,97.0,97.0,0.0,0.0,0.0,0.0,0.044039626,0.043651924,0.053659696,0.053028796,8.983611,8.512437,-3.1817703,0.0462681,162.60889,-300.23303,-72.19165,-152.71155,0.0,0.0,0.0,2.0,1.0,3.0996547,-0.015949005,0.0010164976,97.0,97.0,97.0,97.0,21.302864,21.302864,24.666473,24.666473,0.017418245,0.017649187,-4.4059474E-4,-4.497788E-4,1075.9937,0.0,0.0,0.0,0.0,0.0,0.0,0.0,0.0,0.0,0.0,0.0,0.0,0.0,3.3434215,0.048265543,-81.79062,-9.962837E-4,-0.012103383,-0.010068117,541750.06,119984.9,0.009977288,0.014198569,7826.3535,7668.574,6684.132,6402.538,0.30357838,0.0,0.0,0.0
36.690716,36.690716,0.45,0.0,0.0,295.2182,10566.0,100.0,0.0,0.16706951,0.0,8.0,1.0,0.0,4000000.0,110.0,1.0,0.0,0.0,10.0,0.0,0.0,-393.92557,91.19864,100.6949,-0.101127975,0.29496118,-0.05643113,300.4209,300.4364,295.11438,295.06232,439.0,437.0,509.0,503.0,97.0,97.0,97.0,97.0,0.0,0.0,0.0,0.0,0.044040035,0.043564305,0.053439014,0.052961316,-8.611455,-8.134245,-8.039474,-2.235174,-726.32874,-597.44855,-342.79965,-45.40979,0.0,0.0,0.0,2.0,1.0,3.0991554,-0.015471513,0.001427412,97.0,97.0,97.0,97.0,21.302864,21.302864,24.666473,24.666473,0.017566562,0.01775806,-4.4056962E-4,-4.4213794E-4,1078.7411,0.0,0.0,0.0,0.0,0.0,0.0,0.0,0.0,0.0,0.0,0.0,0.0,0.0,3.4012759,0.0360849,-81.93448,-0.015609679,-0.008830886,-0.006799735,542105.25,119984.9,0.011031865,0.015004978,7701.6914,7568.765,6501.87,6311.664,0.30418205,0.0,0.0,0.0
40.799828,40.799828,0.516,0.0,0.0,295.73328,10586.0,100.0,0.0,0.13444372,0.0,8.0,1.0,0.0,4000000.0,110.0,1.0,0.0,0.0,10.0,0.0,0.0,-393.7541,91.19942,96.59445,-0.084886804,0.29160812,-0.043208424,300.9896,301.01282,295.62476,295.5798,437.0,436.0,507.0,501.0,97.0,97.0,97.0,97.0,0.0,0.0,0.0,0.0,0.04332594,0.04267345,0.05352468,0.0531202,0.0,0.0,0.0,0.0,513.7369,641.41,634.1278,339.70172,0.0,0.0,0.0,2.0,1.0,3.0987418,-0.015502331,0.0021824837,97.0,97.0,97.0,97.0,21.302864,21.302864,24.666473,24.666473,0.01775775,0.01797265,-4.3808288E-4,-4.3992407E-4,1081.4823,0.0,0.0,0.0,0.0,0.0,0.0,0.0,0.0,0.0,0.0,0.0,0.0,0.0,3.452722,7.410883E-4,-82.07554,-0.0038254864,-0.0074520246,7.5327145E-5,542456.0,119984.9,0.01139207,0.016815973,7603.7725,7443.496,6757.7227,6559.484,0.30584145,0.0,0.0,0.0
44.91604,44.91604,0.55,0.0,0.0,296.24316,10601.0,100.0,0.0,0.16524549,0.0,8.0,1.0,0.0,4000000.0,110.0,1.0,0.0,0.0,10.0,0.0,0.0,-393.58023,91.198975,92.486984,-0.07821341,0.2882475,-0.019375386,301.4168,301.4352,296.1345,296.08606,435.0,434.0,505.0,500.0,97.0,97.0,97.0,97.0,0.0,0.0,0.0,0.0,0.04358684,0.04294502,0.053559534,0.05320668,15.708355,14.302432,-0.40411946,0.3223121,562.01654,495.8197,-9.454785,-39.388237,0.0,0.0,0.0,2.0,1.0,3.0983646,-0.015598565,0.0018953085,97.0,97.0,97.0,97.0,21.302864,21.302864,24.666473,24.666473,0.017451052,0.017655289,-4.4096584E-4,-4.3869638E-4,1083.537,0.0,0.0,0.0,0.0,0.0,0.0,0.0,0.0,0.0,0.0,0.0,0.0,0.0,3.4984946,-0.014788042,-82.21536,0.007883441,-0.008048276,0.0032996563,542717.6,119984.89,0.011375517,0.016293392,7776.176,7628.9355,6663.1016,6505.8066,0.30564404,0.0,0.0,0.0
49.03933,49.03933,0.6,0.0,0.0,296.74802,10617.0,100.0,0.0,0.16940574,0.0,8.0,1.0,0.0,4000000.0,110.0,1.0,0.0,0.0,10.0,0.0,0.0,-393.40417,91.19843,88.37255,-0.07410586,0.28471246,0.05633039,301.8711,301.87827,296.63895,296.58942,433.0,432.0,503.0,498.0,97.0,97.0,97.0,97.0,0.0,0.0,0.0,0.0,0.044438295,0.043891534,0.053813968,0.053413335,16.524864,19.653215,7.459893,5.851909,-11.453132,52.705418,49.58061,16.455343,0.0,0.0,0.0,2.0,1.0,3.0979629,-0.015683463,0.0014469624,97.0,97.0,97.0,97.0,21.302864,21.302864,24.666473,24.666473,0.017245913,0.017417531,-4.4203547E-4,-4.3789032E-4,1085.7244,0.0,0.0,0.0,0.0,0.0,0.0,0.0,0.0,0.0,0.0,0.0,0.0,0.0,3.54063,-4.654089E-4,-82.35393,0.014443531,-0.008241684,8.1223465E-4,542993.7,119984.89,0.01012315,0.014907531,7900.4834,7780.677,6904.6045,6717.642,0.30444336,0.0,0.0,0.0
53.169624,53.169624,0.666,0.0,0.0,297.25165,10633.0,100.0,0.0,0.14756273,0.0,8.0,1.0,0.0,4000000.0,110.0,1.0,0.0,0.0,10.0,0.0,0.0,-393.22604,91.1992,84.251205,-0.07030041,0.2843601,0.07664631,302.30954,302.30777,297.14313,297.09354,431.0,430.0,501.0,496.0,97.0,97.0,97.0,97.0,0.0,0.0,0.0,0.0,0.04549886,0.045122176,0.05386277,0.053397387,0.0,0.0,0.0,0.0,-133.89586,-202.775,-84.047005,-29.101963,0.0,0.0,0.0,2.0,1.0,3.09755,-0.015553913,7.170439E-4,97.0,97.0,97.0,97.0,21.302864,21.302864,24.666473,24.666473,0.016980212,0.017121458,-4.413455E-4,-4.3987206E-4,1087.8955,0.0,0.0,0.0,0.0,0.0,0.0,0.0,0.0,0.0,0.0,0.0,0.0,0.0,3.5809917,0.03251427,-82.49221,0.008536122,-0.008252131,-0.0055600847,543260.8,119984.89,0.009626576,0.012874884,8074.3354,7975.771,6839.1284,6625.243,0.3029709,0.0,0.0,0.0
57.30686,57.30686,0.716,0.0,0.0,297.7496,10653.0,100.0,0.0,0.15839362,0.0,8.0,1.0,0.0,4000000.0,110.0,1.0,0.0,0.0,10.0,0.0,0.0,-393.0459,91.201195,80.12299,-0.072814316,0.28103253,0.02222617,302.87424,302.87787,297.64407,297.59167,430.0,428.0,499.0,494.0,97.0,97.0,97.0,97.0,0.0,0.0,0.0,0.0,0.04543158,0.04502383,0.053788923,0.05341046,0.0,0.0,0.0,0.0,-170.70917,-276.4821,174.16922,-16.710161,0.0,0.0,0.0,2.0,1.0,3.09711,-0.015372926,8.2075596E-4,97.0,97.0,97.0,97.0,21.302864,21.302864,24.666473,24.666473,0.017164089,0.017331416,-4.39814E-4,-4.380035E-4,1090.6383,0.0,0.0,0.0,0.0,0.0,0.0,0.0,0.0,0.0,0.0,0.0,0.0,0.0,3.6224968,0.045464758,-82.628845,-0.0020523195,-0.008895274,-0.0024711937,543608.0,119984.89,0.008859455,0.012808164,7920.238,7802.1045,6849.271,6671.8823,0.3026514,0.0,0.0,0.0
61.446255,61.446255,0.749,0.0,0.0,298.24646,10670.0,100.0,0.0,0.12117937,0.0,8.0,1.0,0.0,4000000.0,110.0,1.0,0.0,0.0,10.0,0.0,0.0,-392.8637,91.20353,75.98795,-0.06877057,0.28083053,-0.002004319,303.3658,303.36346,298.13837,298.0902,428.0,426.0,498.0,492.0,97.0,97.0,97.0,97.0,0.0,0.0,0.0,0.0,0.045203768,0.044864614,0.053817794,0.053361762,-2.029985,-0.8878111,-0.25928017,-1.3753026,86.87675,-5.9142704,-30.282135,6.625056,0.0,0.0,0.0,2.0,1.0,3.0966809,-0.01518795,8.29339E-4,97.0,97.0,97.0,97.0,21.302864,21.302864,24.666473,24.666473,0.017130306,0.01726379,-4.382026E-4,-4.4046176E-4,1092.9813,0.0,0.0,0.0,0.0,0.0,0.0,0.0,0.0,0.0,0.0,0.0,0.0,0.0,3.6633377,0.047527913,-82.76519,-8.7227114E-4,-0.008003238,-0.0058862935,543907.9,119984.91,0.008278033,0.012299898,7929.498,7837.5156,6815.76,6604.8687,0.30191422,0.0,0.0,0.0
65.591415,65.591415,0.799,0.0,0.0,298.7373,10686.0,100.0,0.0,0.119389616,0.0,8.0,1.0,0.0,4000000.0,110.0,1.0,0.0,0.0,10.0,0.0,0.0,-392.6795,91.206345,71.84611,-0.064256094,0.2732154,0.0384303,303.83017,303.8293,298.62506,298.58542,426.0,424.0,496.0,490.0,97.0,97.0,97.0,97.0,0.0,0.0,0.0,0.0,0.0457034,0.045335107,0.053898357,0.053522862,6.2991676,7.272362,-5.036965,-2.6285646,-1227.7407,-960.633,-1035.8958,-896.126,0.0,0.0,0.0,2.0,1.0,3.0963228,-0.014806981,8.019209E-4,97.0,97.0,97.0,97.0,21.302864,21.302864,24.666473,24.666473,0.017011182,0.017120836,-4.3681636E-4,-4.3684652E-4,1095.1954,0.0,0.0,0.0,0.0,0.0,0.0,0.0,0.0,0.0,0.0,0.0,0.0,0.0,3.7015398,0.06874484,-82.899956,6.0600135E-4,-0.0065998733,-0.008565498,544193.6,119984.9,0.00872805,0.012286012,7996.792,7916.003,6835.8496,6676.135,0.30217838,0.0,0.0,0.0
69.7433,69.7433,0.849,0.0,0.0,299.21704,10708.0,100.0,0.0,0.09723961,0.0,8.0,1.0,0.0,4000000.0,110.0,1.0,0.0,0.0,10.0,0.0,0.0,-392.4935,91.208954,67.697624,-0.057162,0.27128926,-0.11465948,304.44037,304.454,299.10385,299.07153,424.0,423.0,494.0,489.0,97.0,97.0,97.0,97.0,0.0,0.0,0.0,0.0,0.044710733,0.04439387,0.053469583,0.053172078,-28.017237,-29.54453,-2.3507326,-2.0775943,-477.393,-605.75006,630.09106,540.8405,0.0,0.0,0.0,2.0,1.0,3.0960138,-0.014643635,0.001360178,97.0,97.0,97.0,97.0,21.302864,21.302864,24.666473,24.666473,0.017454349,0.017587297,-4.342907E-4,-4.351218E-4,1098.2107,0.0,0.0,0.0,0.0,0.0,0.0,0.0,0.0,0.0,0.0,0.0,0.0,0.0,3.7374933,0.028401745,-83.03177,-0.016848382,-0.0055734105,-0.0015389156,544570.75,119984.89,0.010289154,0.013817278,7659.367,7565.857,6586.965,6450.8574,0.30373383,0.0,0.0,0.0
73.90181,73.90181,0.916,0.0,0.0,299.6929,10724.0,100.0,0.0,0.067357235,0.0,8.0,1.0,0.0,4000000.0,110.0,1.0,0.0,0.0,10.0,0.0,0.0,-392.30576,91.20904,63.542576,-0.046438497,0.26857075,-0.08536104,304.90485,304.91904,299.57498,299.5513,422.0,421.0,492.0,487.0,97.0,97.0,97.0,97.0,0.0,0.0,0.0,0.0,0.04394743,0.043603648,0.053484436,0.05323045,0.0,0.0,0.0,0.0,495.25644,523.0709,108.84402,197.78607,0.0,0.0,0.0,2.0,1.0,3.0957735,-0.014592545,0.0020362139,97.0,97.0,97.0,97.0,21.302864,21.302864,24.666473,24.666473,0.017413586,0.01752338,-4.3215856E-4,-4.3455043E-4,1100.4279,0.0,0.0,0.0,0.0,0.0,0.0,0.0,0.0,0.0,0.0,0.0,0.0,0.0,3.7689197,-0.019361887,-83.16267,-0.010359671,-0.0039580003,-0.0012260235,544856.06,119984.9,0.011283173,0.015319698,7706.1123,7621.9077,6645.8438,6537.4775,0.3050499,0.0,0.0,0.0
78.06685,78.06685,0.949,0.0,0.0,300.1572,10739.0,100.0,0.0,0.10183636,0.0,8.0,1.0,0.0,4000000.0,110.0,1.0,0.0,0.0,10.0,0.0,0.0,-392.11652,91.20739,59.38106,-0.045762952,0.26151434,-0.021168584,305.3241,305.33575,300.03998,300.0111,420.0,419.0,490.0,485.0,97.0,97.0,97.0,97.0,0.0,0.0,0.0,0.0,0.044056356,0.043662306,0.053679314,0.05345392,10.129362,9.100512,3.7693975,3.3040342,571.43115,596.1879,-39.267525,-97.36418,0.0,0.0,0.0,2.0,1.0,3.0955546,-0.014671027,0.0021352768,97.0,97.0,97.0,97.0,21.302864,21.302864,24.666473,24.666473,0.017230714,0.017352317,-4.3244057E-4,-4.3037496E-4,1102.4868,0.0,0.0,0.0,0.0,0.0,0.0,0.0,0.0,0.0,0.0,0.0,0.0,0.0,3.798249,-0.0402048,-83.29043,0.005512172,-0.004814157,0.0028805595,545113.06,119984.9,0.011717155,0.015926277,7822.65,7731.9917,6795.2266,6691.799,0.30555344,0.0,0.0,0.0
82.238304,82.238304,0.999,0.0,0.0,300.62186,10754.0,100.0,0.0,0.10448878,0.0,8.0,1.0,0.0,4000000.0,110.0,1.0,0.0,0.0,10.0,0.0,0.0,-391.92587,91.20372,55.21319,-0.044702858,0.26381624,-0.004628557,305.75903,305.7716,300.50577,300.4749,419.0,417.0,489.0,483.0,97.0,97.0,97.0,97.0,0.0,0.0,0.0,0.0,0.04416595,0.04374835,0.05366937,0.05341877,21.844803,18.864645,12.956634,11.193975,1161.1685,1043.862,495.91354,511.8459,0.0,0.0,0.0,2.0,1.0,3.0953045,-0.014945629,0.0022867918,97.0,97.0,97.0,97.0,21.302864,21.302864,24.666473,24.666473,0.017109653,0.017243104,-4.350369E-4,-4.3248117E-4,1104.5688,0.0,0.0,0.0,0.0,0.0,0.0,0.0,0.0,0.0,0.0,0.0,0.0,0.0,3.8263803,-0.08440973,-83.41832,5.852757E-4,-0.005242011,0.004430369,545380.7,119984.9,0.010587924,0.014812864,7901.439,7799.767,6882.4937,6764.497,0.30437374,0.0,0.0,0.0
86.41616,86.41616,1.066,0.0,0.0,301.07608,10769.0,100.0,0.0,0.10605614,0.0,8.0,1.0,0.0,4000000.0,110.0,1.0,0.0,0.0,10.0,0.0,0.0,-391.73383,91.2004,51.038967,-0.044391748,0.25546068,0.025817271,306.17236,306.18344,300.96,300.92957,417.0,415.0,487.0,482.0,97.0,97.0,97.0,97.0,0.0,0.0,0.0,0.0,0.04561555,0.045148876,0.053863868,0.0536854,0.0,0.0,0.0,0.0,-1000.3567,-910.46234,-142.86783,-246.60225,0.0,0.0,0.0,2.0,1.0,3.0950458,-0.015059713,0.0021586418,97.0,97.0,97.0,97.0,21.302864,21.302864,24.666473,24.666473,0.01691906,0.017040385,-4.3228906E-4,-4.3034114E-4,1106.6239,0.0,0.0,0.0,0.0,0.0,0.0,0.0,0.0,0.0,0.0,0.0,0.0,0.0,3.853271,-0.056652267,-83.54341,0.0011669017,-0.0051256004,0.0040330198,545634.3,119984.9,0.0097749885,0.014002673,8012.2417,7917.291,6870.041,6790.595,0.30380154,0.0,0.0,0.0
90.60033,90.60033,1.116,0.0,0.0,301.5305,10782.0,100.0,0.0,0.10427309,0.0,8.0,1.0,0.0,4000000.0,110.0,1.0,0.0,0.0,10.0,0.0,0.0,-391.54044,91.19832,46.858494,-0.045827072,0.26089498,0.07491589,306.5586,306.55643,301.40994,301.37405,415.0,414.0,485.0,480.0,97.0,97.0,97.0,97.0,0.0,0.0,0.0,0.0,0.045970082,0.045617756,0.054354265,0.054000895,0.0,0.0,0.0,0.0,926.3544,943.6681,-379.93488,-318.37817,0.0,0.0,0.0,2.0,1.0,3.0947716,-0.015169407,0.0011743307,97.0,97.0,97.0,97.0,21.302864,21.302864,24.666473,24.666473,0.0167288,0.016831245,-4.3898224E-4,-4.368523E-4,1108.4353,0.0,0.0,0.0,0.0,0.0,0.0,0.0,0.0,0.0,0.0,0.0,0.0,0.0,3.8813663,-0.025463091,-83.66849,0.037484623,-0.0055593215,-5.722926E-4,545868.5,119984.9,0.005657829,0.011212257,8164.1045,8087.9863,7236.9834,7067.443,0.3006544,0.0,0.0,0.0
94.7909,94.7909,1.149,0.0,0.0,301.9974,10789.0,100.0,0.0,0.059812754,0.0,8.0,1.0,0.0,4000000.0,110.0,1.0,0.0,0.0,10.0,0.0,0.0,-391.3456,91.20086,42.67166,-0.04257692,0.26635674,0.4573642,306.73578,306.73877,301.87662,301.838,413.0,412.0,483.0,478.0,97.0,97.0,97.0,97.0,0.0,0.0,0.0,0.0,0.04970116,0.04970828,0.055002667,0.054567393,26.437862,53.267326,-15.991551,-5.988702,-7385.609,-5249.2026,-4101.7007,-2604.4915,0.0,0.0,0.0,2.0,1.0,3.094469,-0.014537594,-0.0011724234,97.0,97.0,97.0,97.0,21.302864,21.302864,24.666473,24.666473,0.01571254,0.015822267,-4.422884E-4,-4.5129962E-4,1109.3882,0.0,0.0,0.0,0.0,0.0,0.0,0.0,0.0,0.0,0.0,0.0,0.0,0.0,3.908624,0.15238184,-83.79692,0.03598982,-0.0055112406,-0.02625835,545983.3,119984.89,0.004259753,0.005497309,9002.425,8914.085,7442.7617,7300.958,0.2969761,0.0,0.0,0.0
98.98775,98.98775,1.199,0.0,0.0,302.43277,10823.0,100.0,0.0,0.06166235,0.0,8.0,1.0,0.0,4000000.0,110.0,1.0,0.0,0.0,10.0,0.0,0.0,-391.14957,91.21045,38.47861,-0.037250217,0.23664352,-0.20387803,307.72678,307.7204,302.31424,302.29968,411.0,410.0,481.0,476.0,97.0,97.0,97.0,97.0,0.0,0.0,0.0,0.0,0.046515547,0.046574976,0.053741243,0.053543113,-90.51963,-89.55851,-16.215517,-17.93459,-1809.6594,-1439.1929,588.5839,313.56363,0.0,0.0,0.0,2.0,1.0,3.0942895,-0.014020201,-2.2470951E-4,97.0,97.0,97.0,97.0,21.302864,21.302864,24.666473,24.666473,0.017442299,0.017440401,-4.223521E-4,-4.1973963E-4,1114.1005,0.0,0.0,0.0,0.0,0.0,0.0,0.0,0.0,0.0,0.0,0.0,0.0,0.0,3.9321792,0.17286526,-83.91685,-0.03395468,-0.0029224644,-0.00145184,546579.94,119984.9,0.0077591455,0.010118795,7479.6943,7502.6265,6605.7334,6506.404,0.3003397,0.0,0.0,0.0
103.19072,103.19072,1.266,0.0,0.0,302.87952,10842.0,100.0,0.0,-0.02989879,0.0,8.0,1.0,0.0,4000000.0,110.0,1.0,0.0,0.0,10.0,0.0,0.0,-390.95236,91.21533,34.27949,-0.017581824,0.2472629,-0.27100763,308.2642,308.2817,302.75494,302.75677,410.0,408.0,480.0,475.0,97.0,97.0,97.0,97.0,0.0,0.0,0.0,0.0,0.043779723,0.043588486,0.05310417,0.05295818,0.0,0.0,0.0,0.0,30.630796,423.0244,488.53748,610.2695,0.0,0.0,0.0,2.0,1.0,3.094199,-0.013946472,0.0017719269,97.0,97.0,97.0,97.0,21.302864,21.302864,24.666473,24.666473,0.017773125,0.017814787,-4.165911E-4,-4.2419726E-4,1116.7422,0.0,0.0,0.0,0.0,0.0,0.0,0.0,0.0,0.0,0.0,0.0,0.0,0.0,3.9529538,0.033377755,-84.040276,-0.042018708,1.4827099E-4,-0.006014702,546915.9,119984.9,0.011734221,0.015102374,7373.7344,7330.0444,6359.958,6305.3193,0.30476475,0.0,0.0,0.0
107.39976,107.39976,1.316,0.0,0.0,303.3085,10857.0,100.0,0.0,0.018282998,0.0,8.0,1.0,0.0,4000000.0,110.0,1.0,0.0,0.0,10.0,0.0,0.0,-390.75427,91.213486,30.074335,-0.015769633,0.23778084,-0.19383799,308.6816,308.71002,303.18307,303.18033,408.0,406.0,478.0,473.0,97.0,97.0,97.0,97.0,0.0,0.0,0.0,0.0,0.042333726,0.042005222,0.053255446,0.053215306,0.0,0.0,0.0,0.0,628.6561,422.48804,531.6137,159.10866,0.0,0.0,0.0,2.0,1.0,3.0941868,-0.01416087,0.0034155846,97.0,97.0,97.0,97.0,21.302864,21.302864,24.666473,24.666473,0.017758204,0.017867161,-4.1900502E-4,-4.200267E-4,1118.8185,0.0,0.0,0.0,0.0,0.0,0.0,0.0,0.0,0.0,0.0,0.0,0.0,0.0,3.969747,-0.08802417,-84.158745,-0.018016785,-5.911126E-4,0.005627211,547175.7,119984.9,0.013713836,0.018898793,7396.679,7301.367,6620.3584,6589.3003,0.3079853,0.0,0.0,0.0
111.61469,111.61469,1.349,0.0,0.0,303.73837,10866.0,100.0,0.0,0.063907824,0.0,8.0,1.0,0.0,4000000.0,110.0,1.0,0.0,0.0,10.0,0.0,0.0,-390.55542,91.20501,25.863314,-0.015108,0.24684587,-0.068441,308.94342,308.96747,303.6084,303.60147,406.0,405.0,476.0,471.0,97.0,97.0,97.0,97.0,0.0,0.0,0.0,0.0,0.04229876,0.04180657,0.05363269,0.053543765,47.852394,38.488358,27.257053,20.279957,2996.3623,2679.0706,680.4629,388.57153,0.0,0.0,0.0,2.0,1.0,3.0941563,-0.014863449,0.0038354397,97.0,97.0,97.0,97.0,21.302864,21.302864,24.666473,24.666473,0.017251594,0.017364679,-4.328296E-4,-4.263606E-4,1120.0767,0.0,0.0,0.0,0.0,0.0,0.0,0.0,0.0,0.0,0.0,0.0,0.0,0.0,3.9832838,-0.20446794,-84.27744,0.014405961,-0.001143033,0.012223703,547337.3,119984.9,0.010875881,0.017096797,7757.582,7656.062,7015.865,6954.6523,0.30554008,0.0,0.0,0.0
115.8356,115.8356,1.399,0.0,0.0,304.16043,10873.0,100.0,0.0,-0.012104932,0.0,8.0,1.0,0.0,4000000.0,110.0,1.0,0.0,0.0,10.0,0.0,0.0,-390.35602,91.19653,21.646336,-0.0033472162,0.23880719,0.14359714,309.12283,309.13617,304.02545,304.02533,404.0,403.0,474.0,469.0,97.0,97.0,97.0,97.0,0.0,0.0,0.0,0.0,0.04707808,0.04663172,0.05414897,0.05412682,56.97414,61.967293,-1.0413675,1.2689083,-2641.265,-2659.5037,-326.50528,-416.8152,0.0,0.0,0.0,2.0,1.0,3.094135,-0.015104133,0.002364874,97.0,97.0,97.0,97.0,21.302864,21.302864,24.666473,24.666473,0.016379623,0.016418852,-4.2720643E-4,-4.3213938E-4,1121.0236,0.0,0.0,0.0,0.0,0.0,0.0,0.0,0.0,0.0,0.0,0.0,0.0,0.0,3.9910667,-0.1362253,-84.394585,0.024522636,6.259566E-4,0.0034343803,547447.4,119984.89,0.009526224,0.012420826,8383.129,8323.725,7073.548,7069.9287,0.3030691,0.0,0.0,0.0
120.063675,120.063675,1.449,0.0,0.0,304.57602,10887.0,100.0,0.0,-0.039263032,0.0,8.0,1.0,0.0,4000000.0,110.0,1.0,0.0,0.0,10.0,0.0,0.0,-390.15628,91.191536,17.423557,0.006458575,0.23550533,0.16433346,309.53403,309.5443,304.4332,304.44656,402.0,401.0,473.0,468.0,97.0,97.0,97.0,97.0,0.0,0.0,0.0,0.0,0.048060562,0.0478721,0.054443724,0.054361023,11.142343,15.377103,10.393783,7.9471607,-326.2505,-219.04259,156.26546,221.10788,0.0,0.0,0.0,2.0,1.0,3.0942166,-0.015279098,0.0013151169,97.0,97.0,97.0,97.0,21.302864,21.302864,24.666473,24.666473,0.016355114,0.0163465,-4.3049644E-4,-4.3256732E-4,1122.9825,0.0,0.0,0.0,0.0,0.0,0.0,0.0,0.0,0.0,0.0,0.0,0.0,0.0,3.994518,-0.063981816,-84.51007,0.02770139,0.0028217272,0.0011850201,547698.8,119984.89,0.0067385384,0.010209772,8388.216,8376.897,7367.7773,7325.482,0.30259037,0.0,0.0,0.0
124.29767,124.29767,1.516,0.0,0.0,304.99936,10896.0,100.0,0.0,-0.06520987,0.0,8.0,1.0,0.0,4000000.0,110.0,1.0,0.0,0.0,10.0,0.0,0.0,-389.95654,91.191696,13.194942,0.019837867,0.24095647,0.36104506,309.77304,309.778,304.85083,304.8737,401.0,399.0,471.0,466.0,97.0,97.0,97.0,97.0,0.0,0.0,0.0,0.0,0.04922009,0.04932053,0.054760437,0.054670893,0.0,0.0,0.0,0.0,-2454.6367,-2154.7659,-1601.6676,-1202.0184,0.0,0.0,0.0,2.0,1.0,3.0944026,-0.014920578,-4.5514107E-4,97.0,97.0,97.0,97.0,21.302864,21.302864,24.666473,24.666473,0.015733516,0.015676169,-4.3537203E-4,-4.3819987E-4,1124.2147,0.0,0.0,0.0,0.0,0.0,0.0,0.0,0.0,0.0,0.0,0.0,0.0,0.0,3.9909756,0.08231416,-84.62795,0.02500209,0.0044299476,-0.011172035,547846.9,119984.89,0.0055260225,0.0067532384,8921.659,8959.457,7404.7275,7380.8457,0.30074596,0.0,0.0,0.0
128.5374,128.5374,1.549,0.0,0.0,305.40186,10922.0,100.0,0.0,0.00557927,0.0,8.0,1.0,0.0,4000000.0,110.0,1.0,0.0,0.0,10.0,0.0,0.0,-389.75714,91.19823,8.960572,0.015930371,0.22389483,-0.12142112,310.5513,310.54398,305.2662,305.27872,399.0,398.0,469.0,464.0,97.0,97.0,97.0,97.0,0.0,0.0,0.0,0.0,0.047155432,0.04727512,0.05402273,0.05399319,-65.944115,-64.775345,-21.96796,-22.579952,-1792.9089,-1622.2131,-670.7935,-772.1543,0.0,0.0,0.0,2.0,1.0,3.094564,-0.014677692,-3.5583973E-4,97.0,97.0,97.0,97.0,21.302864,21.302864,24.666473,24.666473,0.01687772,0.016808502,-4.2585412E-4,-4.195355E-4,1127.8595,0.0,0.0,0.0,0.0,0.0,0.0,0.0,0.0,0.0,0.0,0.0,0.0,0.0,3.9871175,0.1304711,-84.74,-0.01315022,0.0016711501,2.5907432E-4,548314.6,119984.9,0.0067055323,0.009162188,7819.3027,7894.148,6719.2393,6700.573,0.2996683,0.0,0.0,0.0
132.78284,132.78284,1.599,0.0,0.0,305.82248,10937.0,100.0,0.0,0.014899935,0.0,8.0,1.0,0.0,4000000.0,110.0,1.0,0.0,0.0,10.0,0.0,0.0,-389.55774,91.20312,4.72048,0.010615113,0.23763609,-0.15678543,310.95657,310.95923,305.6959,305.69427,397.0,396.0,468.0,463.0,97.0,97.0,97.0,97.0,0.0,0.0,0.0,0.0,0.04594062,0.046044122,0.053540748,0.053496722,-14.126523,-16.137957,-14.316066,-10.719448,451.5096,234.06291,-345.03928,-157.72733,0.0,0.0,0.0,2.0,1.0,3.0945792,-0.014508398,4.107952E-4,97.0,97.0,97.0,97.0,21.302864,21.302864,24.666473,24.666473,0.016815852,0.016825791,-4.2555897E-4,-4.2460844E-4,1129.9275,0.0,0.0,0.0,0.0,0.0,0.0,0.0,0.0,0.0,0.0,0.0,0.0,0.0,3.987537,0.065213725,-84.857025,-0.027394384,-6.997756E-4,-0.0049825837,548566.6,119984.9,0.008785148,0.010451895,7945.7393,7942.271,6524.263,6519.705,0.30067348,0.0,0.0,0.0
137.034,137.034,1.649,0.0,0.0,306.22464,10956.0,100.0,0.0,-0.018755617,0.0,8.0,1.0,0.0,4000000.0,110.0,1.0,0.0,0.0,10.0,0.0,0.0,-389.35834,91.204315,0.47465238,0.008124937,0.22492895,-0.2014112,311.5119,311.51987,306.09875,306.09872,396.0,394.0,466.0,461.0,97.0,97.0,97.0,97.0,0.0,0.0,0.0,0.0,0.04463894,0.0446207,0.053433515,0.053506758,-36.369858,-37.809757,-0.15065072,2.1535902,-318.28433,-285.70883,17.394125,75.598045,0.0,0.0,0.0,2.0,1.0,3.0945287,-0.0145329395,0.002128601,97.0,97.0,97.0,97.0,21.302864,21.302864,24.666473,24.666473,0.017305924,0.017321195,-4.159303E-4,-4.2061307E-4,1132.5928,0.0,0.0,0.0,0.0,0.0,0.0,0.0,0.0,0.0,0.0,0.0,0.0,0.0,3.9904618,-0.019648518,-84.96874,-0.028363358,-1.657648E-4,0.003935406,548907.0,119984.89,0.010880147,0.014324988,7590.2285,7574.13,6631.37,6672.1777,0.30412483,0.0,0.0,0.0
141.29066,141.29066,1.716,0.0,0.0,306.62317,10969.0,100.0,0.0,-0.022273768,0.0,8.0,1.0,0.0,4000000.0,110.0,1.0,0.0,0.0,10.0,0.0,0.0,-389.15894,91.19996,-3.7766893,0.009382827,0.22789069,-0.15278304,311.8587,311.88043,306.48743,306.4988,394.0,392.0,464.0,459.0,97.0,97.0,97.0,97.0,0.0,0.0,0.0,0.0,0.04352699,0.043339647,0.053579655,0.053650647,0.0,0.0,0.0,0.0,1399.4558,1542.2029,291.0599,400.561,0.0,0.0,0.0,2.0,1.0,3.0945892,-0.015043813,0.0031996965,97.0,97.0,97.0,97.0,21.302864,21.302864,24.666473,24.666473,0.01719327,0.017225372,-4.2234088E-4,-4.2367738E-4,1134.3866,0.0,0.0,0.0,0.0,0.0,0.0,0.0,0.0,0.0,0.0,0.0,0.0,0.0,3.9927893,-0.13115285,-85.07936,-0.005292009,0.0020002984,0.011108738,549124.8,119984.89,0.0101425955,0.015403442,7699.859,7660.334,6853.7046,6886.0957,0.3043909,0.0,0.0,0.0
145.55284,145.55284,1.749,0.0,0.0,307.01083,10975.0,100.0,0.0,0.026139967,0.0,8.0,1.0,0.0,4000000.0,110.0,1.0,0.0,0.0,10.0,0.0,0.0,-388.9594,91.194046,-8.033534,0.006050437,0.21670794,0.02845262,312.04385,312.05957,306.87674,306.87994,392.0,391.0,462.0,457.0,97.0,97.0,97.0,97.0,0.0,0.0,0.0,0.0,0.046135157,0.045880925,0.054015882,0.054085996,39.514523,44.777912,-5.94221,-2.02395,-819.66974,-553.0849,-560.5548,-397.70447,0.0,0.0,0.0,2.0,1.0,3.0946708,-0.015323599,0.002462387,97.0,97.0,97.0,97.0,21.302864,21.302864,24.666473,24.666473,0.016458565,0.016489422,-4.2201264E-4,-4.195314E-4,1135.2437,0.0,0.0,0.0,0.0,0.0,0.0,0.0,0.0,0.0,0.0,0.0,0.0,0.0,3.993882,-0.10920634,-85.18714,0.014134663,7.26836E-4,0.007991423,549239.25,119984.89,0.010670123,0.013548407,8215.591,8184.215,6943.957,6991.1733,0.30405807,0.0,0.0,0.0
149.82031,149.82031,1.799,0.0,0.0,307.3872,10988.0,100.0,0.0,0.048651576,0.0,8.0,1.0,0.0,4000000.0,110.0,1.0,0.0,0.0,10.0,0.0,0.0,-388.75946,91.189156,-12.295661,-7.775547E-4,0.21173906,0.07507513,312.4182,312.42578,307.2576,307.25052,390.0,389.0,461.0,456.0,97.0,97.0,97.0,97.0,0.0,0.0,0.0,0.0,0.04702915,0.046810646,0.054258272,0.0542068,9.609014,13.349354,8.462146,5.561113,-224.31311,-90.04171,127.31105,87.81552,0.0,0.0,0.0,2.0,1.0,3.0946536,-0.01565893,0.0018543005,97.0,97.0,97.0,97.0,21.302864,21.302864,24.666473,24.666473,0.016416408,0.01646126,-4.2356338E-4,-4.1867333E-4,1137.0588,0.0,0.0,0.0,0.0,0.0,0.0,0.0,0.0,0.0,0.0,0.0,0.0,0.0,3.9973412,-0.08269755,-85.29168,0.01864453,-0.0010726168,0.006349411,549466.6,119984.89,0.009893471,0.013049784,8241.689,8207.91,7226.4375,7193.165,0.30420208,0.0,0.0,0.0
154.09299,154.09299,1.849,0.0,0.0,307.7665,10999.0,100.0,0.0,0.040347517,0.0,8.0,1.0,0.0,4000000.0,110.0,1.0,0.0,0.0,10.0,0.0,0.0,-388.5595,91.18609,-16.563002,-0.0071911095,0.21881297,0.11558097,312.70676,312.70944,307.63702,307.62372,389.0,387.0,459.0,454.0,97.0,97.0,97.0,97.0,0.0,0.0,0.0,0.0,0.04790481,0.047773324,0.054434754,0.054299936,31.488688,30.84965,7.2095537,4.0744987,1943.5017,1526.6998,758.5018,469.2658,0.0,0.0,0.0,2.0,1.0,3.0945728,-0.015819041,5.502701E-4,97.0,97.0,97.0,97.0,21.302864,21.302864,24.666473,24.666473,0.016110186,0.016160935,-4.2757567E-4,-4.257675E-4,1138.564,0.0,0.0,0.0,0.0,0.0,0.0,0.0,0.0,0.0,0.0,0.0,0.0,0.0,4.0038714,-0.040090397,-85.39688,0.029300235,-0.0018606314,0.0032374363,549643.7,119984.89,0.0077410033,0.009928279,8515.2295,8468.408,7318.443,7243.374,0.3018608,0.0,0.0,0.0
158.371,158.371,1.916,0.0,0.0,308.1525,11010.0,100.0,0.0,-0.02868523,0.0,8.0,1.0,0.0,4000000.0,110.0,1.0,0.0,0.0,10.0,0.0,0.0,-388.35904,91.187,-20.835676,-4.7225226E-4,0.21722057,0.17273958,313.03336,313.02533,308.01987,308.01923,387.0,386.0,457.0,452.0,97.0,97.0,97.0,97.0,0.0,0.0,0.0,0.0,0.048694905,0.048805494,0.054544855,0.0544115,0.0,0.0,0.0,0.0,-2510.9631,-2663.1917,-1587.7067,-1165.299,0.0,0.0,0.0,2.0,1.0,3.0945144,-0.015555121,-5.8722496E-4,97.0,97.0,97.0,97.0,21.302864,21.302864,24.666473,24.666473,0.015856802,0.015826885,-4.2479872E-4,-4.3054175E-4,1139.7535,0.0,0.0,0.0,0.0,0.0,0.0,0.0,0.0,0.0,0.0,0.0,0.0,0.0,4.00926,0.067867346,-85.503944,0.0033547168,2.3548916E-4,-0.0065199696,549668.25,119984.89,0.005337035,0.007131765,8679.613,8703.656,7144.9404,7109.8096,0.29831696,0.0,0.0,0.0
162.65433,162.65433,1.966,0.0,0.0,308.53345,11028.0,100.0,0.0,0.014626835,0.0,8.0,1.0,0.0,4000000.0,110.0,1.0,0.0,0.0,10.0,0.0,0.0,-388.1585,91.191925,-25.113659,-0.004324668,0.21549052,0.04135737,313.55365,313.54657,308.4035,308.40195,385.0,384.0,456.0,451.0,97.0,97.0,97.0,97.0,0.0,0.0,0.0,0.0,0.047914557,0.047928557,0.05446643,0.054260053,0.0,0.0,0.0,0.0,-427.20877,65.96889,-182.14879,-104.75365,0.0,0.0,0.0,2.0,1.0,3.094521,-0.015366572,-2.1016598E-4,97.0,97.0,97.0,97.0,21.302864,21.302864,24.666473,24.666473,0.016274739,0.016256839,-4.2502146E-4,-4.2278785E-4,1141.6573,0.0,0.0,0.0,0.0,0.0,0.0,0.0,0.0,0.0,0.0,0.0,0.0,0.0,4.0157886,0.11520855,-85.60952,-0.0107403705,-4.8563821E-4,-0.007867574,549687.7,119984.89,0.00411321,0.0070874146,8283.818,8304.413,7226.0234,7124.7803,0.2971859,0.0,0.0,0.0
166.94296,166.94296,2.016,0.0,0.0,308.92072,11045.0,100.0,0.0,0.06448028,0.0,8.0,1.0,0.0,4000000.0,110.0,1.0,0.0,0.0,10.0,0.0,0.0,-387.95746,91.19703,-29.396948,-0.010754502,0.222088,-0.10798114,314.03162,314.03265,308.79584,308.78354,384.0,382.0,454.0,449.0,97.0,97.0,97.0,97.0,0.0,0.0,0.0,0.0,0.046794374,0.046863344,0.054092947,0.05400287,0.0,0.0,0.0,0.0,191.75113,17.863539,-46.9923,114.34255,0.0,0.0,0.0,2.0,1.0,3.094454,-0.015010603,2.7012825E-4,97.0,97.0,97.0,97.0,21.302864,21.302864,24.666473,24.666473,0.016565576,0.016598165,-4.262607E-4,-4.2276992E-4,1143.4545,0.0,0.0,0.0,0.0,0.0,0.0,0.0,0.0,0.0,0.0,0.0,0.0,0.0,4.025345,0.08058702,-85.716805,-0.009712662,-0.0023414502,-0.003529039,549705.6,119984.89,0.0033151393,0.0072294995,8031.8647,8015.542,6953.5215,6931.7534,0.29690456,0.0,0.0,0.0
171.23697,171.23697,2.049,0.0,0.0,309.29553,11057.0,100.0,0.0,0.07164051,0.0,8.0,1.0,0.0,4000000.0,110.0,1.0,0.0,0.0,10.0,0.0,0.0,-387.7559,91.20318,-33.685577,-0.01701659,0.20757782,-0.10970551,314.38504,314.38174,309.17694,309.159,382.0,381.0,452.0,448.0,97.0,97.0,97.0,97.0,0.0,0.0,0.0,0.0,0.047680806,0.047736745,0.05407333,0.0540132,-35.279987,-26.089846,-30.144674,-22.70691,-2888.1084,-2727.8867,-979.1537,-882.50024,0.0,0.0,0.0,2.0,1.0,3.0943234,-0.014524919,2.7239323E-4,97.0,97.0,97.0,97.0,21.302864,21.302864,24.666473,24.666473,0.016414665,0.016441295,-4.156232E-4,-4.141181E-4,1144.7242,0.0,0.0,0.0,0.0,0.0,0.0,0.0,0.0,0.0,0.0,0.0,0.0,0.0,4.036578,0.119129345,-85.820465,-0.017548181,-0.0032863563,-0.0046950923,549718.8,119984.89,0.0065403893,0.0087800445,8112.747,8109.267,6706.509,6705.827,0.2989874,0.0,0.0,0.0
175.53603,175.53603,2.099,0.0,0.0,309.6558,11076.0,100.0,0.0,0.09279637,0.0,8.0,1.0,0.0,4000000.0,110.0,1.0,0.0,0.0,10.0,0.0,0.0,-387.55362,91.206604,-37.979248,-0.023816308,0.19877306,-0.24895775,314.90567,314.9134,309.54196,309.5242,380.0,379.0,451.0,446.0,97.0,97.0,97.0,97.0,0.0,0.0,0.0,0.0,0.04586322,0.045715146,0.05345337,0.053394325,-38.177444,-41.222645,-12.660026,-11.969581,-589.107,-424.7813,46.42902,70.64935,0.0,0.0,0.0,2.0,1.0,3.0941632,-0.014537767,0.0015209913,97.0,97.0,97.0,97.0,21.302864,21.302864,24.666473,24.666473,0.016915014,0.016984792,-4.091157E-4,-4.0342184E-4,1146.7323,0.0,0.0,0.0,0.0,0.0,0.0,0.0,0.0,0.0,0.0,0.0,0.0,0.0,4.052409,0.0150605645,-85.91998,-0.036128882,-0.0036908956,0.0024051857,549738.44,119984.89,0.012003221,0.013412247,7730.136,7680.058,6483.732,6461.965,0.30385017,0.0,0.0,0.0
179.83995,179.83995,2.149,0.0,0.0,309.99487,11091.0,100.0,0.0,-0.008873098,0.0,8.0,1.0,0.0,4000000.0,110.0,1.0,0.0,0.0,10.0,0.0,0.0,-387.35056,91.20398,-42.27775,-0.01622188,0.18393041,-0.18379126,315.33682,315.34503,309.8762,309.86298,379.0,377.0,449.0,444.0,97.0,97.0,97.0,97.0,0.0,0.0,0.0,0.0,0.044087913,0.04372179,0.053688906,0.053569235,-34.68051,-35.73574,16.228035,14.761089,-375.41528,32.360683,512.5299,631.0164,0.0,0.0,0.0,2.0,1.0,3.0939643,-0.014867944,0.0032714605,97.0,97.0,97.0,97.0,21.302864,21.302864,24.666473,24.666473,0.017266195,0.017327523,-3.999322E-4,-4.0781577E-4,1148.3188,0.0,0.0,0.0,0.0,0.0,0.0,0.0,0.0,0.0,0.0,0.0,0.0,0.0,4.0697856,-0.10053981,-86.0134,-0.014713674,-0.00204725,0.002383255,549754.5,119984.9,0.01434088,0.01875513,7506.7144,7447.664,6942.296,6887.374,0.31019878,0.0,0.0,0.0
184.14845,184.14845,2.216,0.0,0.0,310.3342,11098.0,100.0,0.0,-0.0083788475,0.0,8.0,1.0,0.0,4000000.0,110.0,1.0,0.0,0.0,10.0,0.0,0.0,-387.14667,91.19581,-46.58081,-0.011872384,0.20852675,-0.17694017,315.52216,315.5425,310.20102,310.2037,377.0,376.0,447.0,443.0,97.0,97.0,97.0,97.0,0.0,0.0,0.0,0.0,0.043202367,0.042966086,0.053691037,0.05357536,0.0,0.0,0.0,0.0,4634.5215,4260.903,3441.7698,3002.3032,0.0,0.0,0.0,2.0,1.0,3.0939453,-0.015144767,0.0031294823,97.0,97.0,97.0,97.0,21.302864,21.302864,24.666473,24.666473,0.016887097,0.016942684,-4.1825324E-4,-4.1981458E-4,1149.0588,0.0,0.0,0.0,0.0,0.0,0.0,0.0,0.0,0.0,0.0,0.0,0.0,0.0,4.083161,-0.22270393,-86.106895,0.012590086,7.998297E-4,0.0065607326,549761.8,119984.91,0.011633449,0.0168133,7847.0835,7786.3096,6983.117,6913.8955,0.3108759,0.0,0.0,0.0
188.46178,188.46178,2.266,0.0,0.0,310.68155,11097.0,100.0,0.0,0.036180504,0.0,8.0,1.0,0.0,4000000.0,110.0,1.0,0.0,0.0,10.0,0.0,0.0,-386.94232,91.18659,-50.888695,-0.007928391,0.19921099,0.2552606,315.49857,315.5074,310.53903,310.53784,375.0,374.0,446.0,441.0,97.0,97.0,97.0,97.0,0.0,0.0,0.0,0.0,0.049176328,0.04913841,0.054931827,0.054872103,0.0,0.0,0.0,0.0,176.22069,78.58886,-1790.6827,-1472.4656,0.0,0.0,0.0,2.0,1.0,3.0940094,-0.015134087,7.007122E-4,97.0,97.0,97.0,97.0,21.302864,21.302864,24.666473,24.666473,0.015610055,0.015632983,-4.295332E-4,-4.2660005E-4,1148.9537,0.0,0.0,0.0,0.0,0.0,0.0,0.0,0.0,0.0,0.0,0.0,0.0,0.0,4.09044,-0.12804474,-86.20334,0.064122856,6.883768E-4,0.004932181,549761.06,119984.9,0.0052550063,0.0077313306,8844.088,8831.613,7614.501,7610.3213,0.3004179,0.0,0.0,0.0
192.78009,192.78009,2.299,0.0,0.0,311.04498,11103.0,100.0,0.0,0.06455413,0.0,8.0,1.0,0.0,4000000.0,110.0,1.0,0.0,0.0,10.0,0.0,0.0,-386.73788,91.18685,-55.201572,-0.008656987,0.19789231,0.5234609,315.6586,315.6631,310.9137,310.9099,374.0,372.0,444.0,439.0,97.0,97.0,97.0,97.0,0.0,0.0,0.0,0.0,0.050084297,0.050100695,0.055300992,0.055135448,-8.333846,-11.532157,-5.795359,-6.6156683,-698.2057,-1227.6067,-786.0079,-812.4142,0.0,0.0,0.0,2.0,1.0,3.094035,-0.015010722,-0.0010954142,97.0,97.0,97.0,97.0,21.302864,21.302864,24.666473,24.666473,0.0147970095,0.014821853,-4.3312713E-4,-4.2552612E-4,1149.5878,0.0,0.0,0.0,0.0,0.0,0.0,0.0,0.0,0.0,0.0,0.0,0.0,0.0,4.0932736,0.12805603,-86.304276,-0.0068078563,-0.0010125235,-0.003601144,549767.2,119984.91,0.0027015035,0.0028085832,9568.139,9551.275,7738.002,7658.06,0.29428673,0.0,0.0,0.0
197.10313,197.10313,2.366,0.0,0.0,311.36594,11135.0,100.0,0.0,0.17773692,0.0,8.0,1.0,0.0,4000000.0,110.0,1.0,0.0,0.0,10.0,0.0,0.0,-386.53284,91.19576,-59.51915,-0.03300622,0.17718138,-0.20918013,316.58258,316.58444,311.26367,311.22058,372.0,371.0,442.0,438.0,97.0,97.0,97.0,97.0,0.0,0.0,0.0,0.0,0.04704941,0.046921898,0.05435794,0.054249052,0.0,0.0,0.0,0.0,480.94708,334.18988,-226.61978,-302.70068,0.0,0.0,0.0,2.0,1.0,3.0937843,-0.014985504,6.0367584E-4,97.0,97.0,97.0,97.0,21.302864,21.302864,24.666473,24.666473,0.016628085,0.016760314,-4.086479E-4,-3.9754133E-4,1152.9723,0.0,0.0,0.0,0.0,0.0,0.0,0.0,0.0,0.0,0.0,0.0,0.0,0.0,4.108923,0.16038193,-86.39273,-0.033260673,-0.008250619,0.0019185077,549801.2,119984.91,0.0071304906,0.010046475,7844.2295,7760.6265,6924.7617,6878.7285,0.29968166,0.0,0.0,0.0
201.43066,201.43066,2.416,0.0,0.0,311.69717,11148.0,100.0,0.0,0.03943675,0.0,8.0,1.0,0.0,4000000.0,110.0,1.0,0.0,0.0,10.0,0.0,0.0,-386.3269,91.200195,-63.84119,-0.027763419,0.18974546,-0.29992932,316.96017,316.97824,311.58133,311.5593,370.0,369.0,441.0,436.0,97.0,97.0,97.0,97.0,0.0,0.0,0.0,0.0,0.044855017,0.044550136,0.05372092,0.0536527,0.0,0.0,0.0,0.0,962.4302,962.3899,400.35992,408.99655,0.0,0.0,0.0,2.0,1.0,3.0934904,-0.015294503,0.0016000271,97.0,97.0,97.0,97.0,21.302864,21.302864,24.666473,24.666473,0.016929971,0.017037747,-4.051557E-4,-4.0978153E-4,1154.3488,0.0,0.0,0.0,0.0,0.0,0.0,0.0,0.0,0.0,0.0,0.0,0.0,0.0,4.1278276,0.019448897,-86.48409,-0.013796592,-0.003640442,0.008254829,549815.6,119984.92,0.009786009,0.014189909,7690.9976,7602.7705,6696.752,6667.877,0.30357742,0.0,0.0,0.0
205.76282,205.76282,2.466,0.0,0.0,312.03195,11153.0,100.0,0.0,-0.048177794,0.0,8.0,1.0,0.0,4000000.0,110.0,1.0,0.0,0.0,10.0,0.0,0.0,-386.1201,91.19846,-68.16784,-0.009592916,0.18897246,-0.07766632,317.10144,317.12616,311.8934,311.90665,369.0,368.0,439.0,435.0,97.0,97.0,97.0,97.0,0.0,0.0,0.0,0.0,0.04531755,0.044931613,0.054120764,0.054059826,0.0,0.0,0.0,0.0,1404.7935,1664.1228,374.4766,147.41414,0.0,0.0,0.0,2.0,1.0,3.093486,-0.01557575,0.0017528534,97.0,97.0,97.0,97.0,21.302864,21.302864,24.666473,24.666473,0.016357992,0.0163897,-4.1208405E-4,-4.1749995E-4,1154.8782,0.0,0.0,0.0,0.0,0.0,0.0,0.0,0.0,0.0,0.0,0.0,0.0,0.0,4.140866,-0.062705666,-86.576546,0.0099529615,0.0027647384,0.004499801,549821.2,119984.91,0.007926056,0.012476161,8134.5635,8076.7334,7216.9194,7179.967,0.3019476,0.0,0.0,0.0
210.0996,210.0996,2.499,0.0,0.0,312.36545,11160.0,100.0,0.0,0.038408563,0.0,8.0,1.0,0.0,4000000.0,110.0,1.0,0.0,0.0,10.0,0.0,0.0,-385.91284,91.19556,-72.49909,-0.0072686654,0.18900004,0.08041858,317.2742,317.2972,312.22922,312.23398,367.0,366.0,438.0,433.0,97.0,97.0,97.0,97.0,0.0,0.0,0.0,0.0,0.048136394,0.047790967,0.054477327,0.054435305,60.869823,55.26021,3.4929066,3.6777554,65.378716,-362.11163,-124.05215,-208.20644,0.0,0.0,0.0,2.0,1.0,3.0935926,-0.015857616,8.735657E-4,97.0,97.0,97.0,97.0,21.302864,21.302864,24.666473,24.666473,0.015777847,0.015839145,-4.2143432E-4,-4.1587E-4,1155.617,0.0,0.0,0.0,0.0,0.0,0.0,0.0,0.0,0.0,0.0,0.0,0.0,0.0,4.149325,-0.044685587,-86.6689,0.014627097,8.624485E-4,0.006609473,549827.8,119984.91,0.0062621455,0.008304119,8610.535,8530.827,7326.912,7307.0996,0.29924202,0.0,0.0,0.0
214.44102,214.44102,2.549,0.0,0.0,312.69556,11172.0,100.0,0.0,0.04618325,0.0,8.0,1.0,0.0,4000000.0,110.0,1.0,0.0,0.0,10.0,0.0,0.0,-385.7052,91.19464,-76.83498,-0.0056865085,0.18327934,0.074551575,317.62732,317.63925,312.5691,312.564,366.0,364.0,436.0,431.0,97.0,97.0,97.0,97.0,0.0,0.0,0.0,0.0,0.048417006,0.048352804,0.054467775,0.05446791,-11.6837015,-15.716849,0.7861107,-1.2756138,-270.5812,-1471.7949,219.94112,-173.27068,0.0,0.0,0.0,2.0,1.0,3.0935884,-0.016058635,8.864403E-4,97.0,97.0,97.0,97.0,21.302864,21.302864,24.666473,24.666473,0.01577053,0.01583028,-4.176129E-4,-4.1316E-4,1156.8868,0.0,0.0,0.0,0.0,0.0,0.0,0.0,0.0,0.0,0.0,0.0,0.0,0.0,4.1547585,0.0015551338,-86.76045,-0.013140276,-0.001229609,0.006633659,549840.8,119984.91,0.006369643,0.007984755,8583.124,8508.605,7287.392,7274.269,0.2990551,0.0,0.0,0.0
218.78687,218.78687,2.599,0.0,0.0,313.01117,11186.0,100.0,0.0,0.06971132,0.0,8.0,1.0,0.0,4000000.0,110.0,1.0,0.0,0.0,10.0,0.0,0.0,-385.49725,91.19442,-81.1753,-0.012380964,0.1800815,-0.06181622,318.0533,318.0537,312.892,312.87408,364.0,363.0,434.0,430.0,97.0,97.0,97.0,97.0,0.0,0.0,0.0,0.0,0.04769274,0.04757925,0.054348096,0.054235026,-6.346106,-7.8874817,-3.447309,-2.7595458,704.6699,527.06744,-9.629129,224.27289,0.0,0.0,0.0,2.0,1.0,3.0934637,-0.016203867,0.0014603138,97.0,97.0,97.0,97.0,21.302864,21.302864,24.666473,24.666473,0.01610581,0.016159838,-4.1192345E-4,-4.0801978E-4,1158.3695,0.0,0.0,0.0,0.0,0.0,0.0,0.0,0.0,0.0,0.0,0.0,0.0,0.0,4.163996,-0.017793076,-86.84778,-0.009182901,-0.0033228965,9.1546733E-4,549856.44,119984.914,0.0076630567,0.010120191,8280.276,8234.842,7158.3413,7114.6436,0.30066586,0.0,0.0,0.0
223.13712,223.13712,2.666,0.0,0.0,313.32504,11198.0,100.0,0.0,0.03436929,0.0,8.0,1.0,0.0,4000000.0,110.0,1.0,0.0,0.0,10.0,0.0,0.0,-385.28876,91.19225,-85.51998,-0.016135558,0.17864823,-0.079936445,318.37708,318.3793,313.20404,313.18567,362.0,361.0,433.0,428.0,97.0,97.0,97.0,97.0,0.0,0.0,0.0,0.0,0.04721959,0.047025196,0.05433542,0.05418424,0.0,0.0,0.0,0.0,428.4024,441.39764,430.82977,295.5928,0.0,0.0,0.0,2.0,1.0,3.093295,-0.016273739,0.0017433167,97.0,97.0,97.0,97.0,21.302864,21.302864,24.666473,24.666473,0.01615488,0.016213521,-4.1115863E-4,-4.1260262E-4,1159.638,0.0,0.0,0.0,0.0,0.0,0.0,0.0,0.0,0.0,0.0,0.0,0.0,0.0,4.176551,-0.0643296,-86.93444,4.056584E-4,-0.0029961786,1.900626E-4,549868.6,119984.91,0.0070520146,0.010636625,8220.692,8169.072,7231.9834,7153.1206,0.30104256,0.0,0.0,0.0
227.49173,227.49173,2.699,0.0,0.0,313.6445,11204.0,100.0,0.0,0.03780443,0.0,8.0,1.0,0.0,4000000.0,110.0,1.0,0.0,0.0,10.0,0.0,0.0,-385.07965,91.18902,-89.86902,-0.01653102,0.18376008,0.07597722,318.55783,318.55725,313.5136,313.50278,361.0,360.0,431.0,427.0,97.0,97.0,97.0,97.0,0.0,0.0,0.0,0.0,0.048292194,0.048268076,0.054779496,0.05454868,39.268654,42.121407,5.6145334,4.9953904,1157.8289,1020.2987,-237.81805,-184.7103,0.0,0.0,0.0,2.0,1.0,3.0932052,-0.016088387,8.8751316E-4,97.0,97.0,97.0,97.0,21.302864,21.302864,24.666473,24.666473,0.015725605,0.015753362,-4.2064043E-4,-4.1953518E-4,1160.2737,0.0,0.0,0.0,0.0,0.0,0.0,0.0,0.0,0.0,0.0,0.0,0.0,0.0,4.188229,-0.053251106,-87.02273,0.02571947,-0.0014235335,-0.0046745352,549875.5,119984.9,0.003637275,0.006914422,8598.905,8577.926,7526.8477,7420.374,0.29843712,0.0,0.0,0.0
231.85083,231.85083,2.749,0.0,0.0,313.9627,11212.0,100.0,0.0,0.016390424,0.0,8.0,1.0,0.0,4000000.0,110.0,1.0,0.0,0.0,10.0,0.0,0.0,-384.86993,91.19082,-94.22253,-0.010370173,0.1701569,0.18957236,318.77963,318.7761,313.83514,313.83374,359.0,358.0,430.0,425.0,97.0,97.0,97.0,97.0,0.0,0.0,0.0,0.0,0.049024746,0.04918328,0.054859817,0.054814626,-44.894142,-32.120567,-23.01715,-6.703287,-1806.6285,-2343.3918,-716.7532,-515.7351,0.0,0.0,0.0,2.0,1.0,3.0931613,-0.0151134385,1.3613701E-4,97.0,97.0,97.0,97.0,21.302864,21.302864,24.666473,24.666473,0.015298668,0.015279855,-4.1078977E-4,-4.1433185E-4,1161.1198,0.0,0.0,0.0,0.0,0.0,0.0,0.0,0.0,0.0,0.0,0.0,0.0,0.0,4.196328,0.09565606,-87.110794,-0.016783835,-2.4127749E-4,-0.014795826,549883.8,119984.9,0.0046316595,0.00595019,8941.497,8951.971,7329.3154,7364.1875,0.29894733,0.0,0.0,0.0
236.21414,236.21414,2.799,0.0,0.0,314.27423,11233.0,100.0,0.0,0.041465733,0.0,8.0,1.0,0.0,4000000.0,110.0,1.0,0.0,0.0,10.0,0.0,0.0,-384.6598,91.19245,-98.58025,-0.01338719,0.18742411,-0.12907344,319.3624,319.38452,314.14532,314.13794,358.0,357.0,428.0,423.0,97.0,97.0,97.0,97.0,0.0,0.0,0.0,0.0,0.04615008,0.04603131,0.054351956,0.054296944,-4.985109,-16.511677,8.300319,4.230514,2432.9646,2281.7952,297.72516,436.94522,0.0,0.0,0.0,2.0,1.0,3.0931177,-0.015516427,0.0010333061,97.0,97.0,97.0,97.0,21.302864,21.302864,24.666473,24.666473,0.016278466,0.016368128,-4.1769224E-4,-4.1564935E-4,1163.3412,0.0,0.0,0.0,0.0,0.0,0.0,0.0,0.0,0.0,0.0,0.0,0.0,0.0,4.2085714,-0.007882548,-87.19689,0.0026310207,-0.0012135073,0.010757538,549905.9,119984.91,0.0041832505,0.007533585,8094.982,8008.228,7285.0605,7256.9023,0.29711914,0.0,0.0,0.0
240.58199,240.58199,2.849,0.0,0.0,314.59506,11245.0,100.0,0.0,-0.0070317658,0.0,8.0,1.0,0.0,4000000.0,110.0,1.0,0.0,0.0,10.0,0.0,0.0,-384.44907,91.19021,-102.94248,-0.00540065,0.17284806,-0.20260952,319.70544,319.74228,314.47925,314.478,356.0,355.0,426.0,422.0,97.0,97.0,97.0,97.0,0.0,0.0,0.0,0.0,0.047187515,0.046682883,0.053320523,0.05347223,-4.7425923,-8.736848,-24.461521,-17.414242,-2568.0002,-2341.6487,-98.51749,67.457535,0.0,0.0,0.0,2.0,1.0,3.0930514,-0.016087571,0.0024924278,97.0,97.0,97.0,97.0,21.302864,21.302864,24.666473,24.666473,0.016173419,0.016273974,-3.9488173E-4,-4.0204555E-4,1164.6117,0.0,0.0,0.0,0.0,0.0,0.0,0.0,0.0,0.0,0.0,0.0,0.0,0.0,4.2181673,-0.08627749,-87.28561,-0.072192095,-8.8660175E-4,0.012686261,549918.94,119984.91,0.012016426,0.010055512,8105.075,7997.2515,6291.521,6388.9863,0.29515553,0.0,0.0,0.0
244.9538,244.9538,2.916,0.0,0.0,314.86884,11280.0,100.0,0.0,0.17141974,0.0,8.0,1.0,0.0,4000000.0,110.0,1.0,0.0,0.0,10.0,0.0,0.0,-384.2378,91.178,-107.30867,-0.028042123,0.17131038,-0.79834634,320.69965,320.78107,314.76663,314.74615,355.0,354.0,425.0,420.0,97.0,97.0,97.0,97.0,0.0,0.0,0.0,0.0,0.04083545,0.040000606,0.05208363,0.05242269,0.0,0.0,0.0,0.0,2694.0105,1849.8385,5656.5635,4462.042,0.0,0.0,0.0,2.0,1.0,3.0929258,-0.017832447,0.007303834,97.0,97.0,97.0,97.0,21.302864,21.302864,24.666473,24.666473,0.018572154,0.018887745,-3.9779706E-4,-3.8355376E-4,1168.3164,0.0,0.0,0.0,0.0,0.0,0.0,0.0,0.0,0.0,0.0,0.0,0.0,0.0,4.236241,-0.4327253,-87.35984,-0.09591238,-0.005377049,0.047594115,549956.56,119984.92,0.015495845,0.021414809,6538.931,6308.257,5925.417,6045.7705,0.30389977,0.0,0.0,0.0
249.32922,249.32922,2.966,0.0,0.0,315.16516,11263.0,100.0,0.0,-0.04437857,0.0,8.0,1.0,0.0,4000000.0,110.0,1.0,0.0,0.0,10.0,0.0,0.0,-384.02573,91.15181,-111.678825,-8.7761413E-4,0.16146915,0.009686097,320.21075,320.2718,315.02606,315.03,353.0,352.0,423.0,419.0,97.0,97.0,97.0,97.0,0.0,0.0,0.0,0.0,0.04357481,0.04206126,0.054608792,0.054522052,0.0,0.0,0.0,0.0,8315.545,8332.254,-2800.9902,-715.667,0.0,0.0,0.0,2.0,1.0,3.092806,-0.019800989,0.0077518225,97.0,97.0,97.0,97.0,21.302864,21.302864,24.666473,24.666473,0.016133092,0.016321314,-4.0108644E-4,-4.1172816E-4,1166.5172,0.0,0.0,0.0,0.0,0.0,0.0,0.0,0.0,0.0,0.0,0.0,0.0,0.0,4.2462897,-0.54803807,-87.44112,0.05315871,0.0024771502,0.0257832,549938.44,119984.9,0.010470209,0.017921032,8372.327,8125.4727,7681.8486,7718.1045,0.30447674,0.0,0.0,0.0
253.70811,253.70811,2.999,0.0,0.0,314.97504,11261.0,100.0,0.0,0.037066147,0.0,8.0,1.0,0.0,4000000.0,110.0,1.0,0.0,0.0,10.0,0.0,0.0,-383.81314,91.12665,-116.052986,-0.0014799908,0.1677505,0.3830464,320.11768,320.22757,315.2994,315.30807,352.0,350.0,422.0,417.0,97.0,97.0,97.0,97.0,0.0,0.0,0.0,0.0,0.050369434,0.0504245,0.055417575,0.055677604,93.235146,154.92303,11.653527,18.603577,-3405.4397,-932.98,-1229.377,-1192.215,0.0,0.0,0.0,2.0,1.0,3.0929747,-0.02051267,0.0038659573,97.0,97.0,97.0,97.0,21.302864,21.302864,24.666473,24.666473,0.014958606,0.015234331,-4.228745E-4,-4.2309368E-4,1166.3054,0.0,0.0,0.0,0.0,0.0,0.0,0.0,0.0,0.0,0.0,0.0,0.0,0.0,4.1171465,-0.17466712,-87.395966,0.16363586,0.0032925108,-0.20041907,549936.25,119984.914,0.0035961242,0.0070045837,9283.767,8984.867,8083.0117,8229.582,0.29541397,0.0,0.0,0.0
258.08282,258.08282,3.049,0.0,0.0,315.03104,11267.0,100.0,0.0,0.25531772,0.0,8.0,1.0,0.0,4000000.0,110.0,1.0,0.0,0.0,10.0,0.0,0.0,-383.608,91.12151,-120.423256,-0.06535961,0.029731633,-0.19127092,320.3416,320.34348,314.92007,314.8966,350.0,349.0,420.0,416.0,97.0,97.0,97.0,97.0,0.0,0.0,0.0,0.0,0.04629595,0.04661884,0.052717805,0.05382691,-72.66908,-160.55904,24.191511,-51.20359,645.3932,-3739.8306,5357.2026,-489.78467,0.0,0.0,0.0,2.0,1.0,3.092955,-0.020692052,0.0030002594,97.0,97.0,97.0,97.0,21.302864,21.302864,24.666473,24.666473,0.016849382,0.01676744,-4.10427E-4,-3.86262E-4,1166.9391,0.0,0.0,0.0,0.0,0.0,0.0,0.0,0.0,0.0,0.0,0.0,0.0,0.0,4.1106606,-0.112281606,-87.41195,-0.067543894,-0.005718059,0.13911752,549942.0,119984.91,0.008547375,0.0111855315,7571.732,7689.3193,6218.914,6438.09,0.29738808,0.0,0.0,0.0
262.45996,262.45996,3.099,0.0,0.0,315.32086,11269.0,100.0,0.0,-0.2570582,0.0,8.0,1.0,0.0,4000000.0,110.0,1.0,0.0,0.0,10.0,0.0,0.0,-383.40036,91.1134,-124.79587,-0.0640909,0.16813555,-0.14612438,320.37213,320.43967,315.1815,315.19598,349.0,347.0,419.0,414.0,97.0,97.0,97.0,97.0,0.0,0.0,0.0,0.0,0.046667777,0.04442829,0.05506527,0.05359456,18.047018,13.844892,-4.4122334,6.45563,314.24753,4070.909,-2397.5994,837.4392,0.0,0.0,0.0,2.0,1.0,3.0927427,-0.023968467,0.0036057234,97.0,97.0,97.0,97.0,21.302864,21.302864,24.666473,24.666473,0.016150326,0.016327022,-3.9103144E-4,-4.270123E-4,1167.1517,0.0,0.0,0.0,0.0,0.0,0.0,0.0,0.0,0.0,0.0,0.0,0.0,0.0,4.1768804,-0.19880338,-87.48925,0.01606007,0.0045584277,-0.032124575,549944.6,119984.91,0.0076546483,0.012497867,8248.454,7968.664,7512.885,6902.29,0.30124283,0.0,0.0,0.0
266.84113,266.84113,3.166,0.0,0.0,315.60715,11273.0,100.0,0.0,-0.31814167,0.0,8.0,1.0,0.0,4000000.0,110.0,1.0,0.0,0.0,10.0,0.0,0.0,-383.19122,91.10409,-129.17244,0.030698542,0.16265902,0.06607547,320.4635,320.53876,315.40805,315.53998,347.0,346.0,417.0,413.0,97.0,97.0,97.0,97.0,0.0,0.0,0.0,0.0,0.048646424,0.0491819,0.054430053,0.05473271,0.0,0.0,0.0,0.0,-2.3872373,-2931.2651,189.98083,-807.0901,0.0,0.0,0.0,2.0,1.0,3.0935843,-0.022033563,0.002240777,97.0,97.0,97.0,97.0,21.302864,21.302864,24.666473,24.666473,0.015652081,0.015487012,-4.0097276E-4,-4.1874908E-4,1167.574,0.0,0.0,0.0,0.0,0.0,0.0,0.0,0.0,0.0,0.0,0.0,0.0,0.0,4.178412,-0.17255262,-87.56885,0.020338062,0.02384041,-0.011168922,549948.4,119984.9,0.008135721,0.009028773,8644.997,8671.896,7205.101,7396.333,0.30060673,0.0,0.0,0.0
271.22623,271.22623,3.199,0.0,0.0,315.88345,11283.0,100.0,0.0,-0.14117587,0.0,8.0,1.0,0.0,4000000.0,110.0,1.0,0.0,0.0,10.0,0.0,0.0,-382.98303,91.09699,-133.553,0.07874672,0.14969587,0.07797082,320.7657,320.81833,315.69855,315.8118,346.0,344.0,416.0,411.0,97.0,97.0,97.0,97.0,0.0,0.0,0.0,0.0,0.048449434,0.048606683,0.05462194,0.054662213,-14.16251,-14.905705,2.1741538,1.0809301,-248.50667,-38.154427,-274.72522,218.70728,0.0,0.0,0.0,2.0,1.0,3.094692,-0.022074245,0.0022585392,97.0,97.0,97.0,97.0,21.302864,21.302864,24.666473,24.666473,0.015634347,0.015476526,-4.1408133E-4,-3.9746083E-4,1168.6328,0.0,0.0,0.0,0.0,0.0,0.0,0.0,0.0,0.0,0.0,0.0,0.0,0.0,4.1474032,-0.12044993,-87.64725,-0.006997312,0.018373491,-0.0027876173,549959.25,119984.91,0.008884804,0.010158603,8587.218,8709.226,7399.892,7418.1987,0.30179405,0.0,0.0,0.0
275.615,275.615,3.249,0.0,0.0,316.14923,11295.0,100.0,0.0,0.020484792,0.0,8.0,1.0,0.0,4000000.0,110.0,1.0,0.0,0.0,10.0,0.0,0.0,-382.77658,91.09065,-137.93729,0.07670922,0.1596913,-0.06959985,321.14664,321.14584,315.99875,316.0351,344.0,343.0,414.0,410.0,97.0,97.0,97.0,97.0,0.0,0.0,0.0,0.0,0.04740585,0.047640193,0.054371443,0.054647487,-6.7464256,4.7345457,-3.9386,12.314021,2508.2002,3293.256,833.8316,1932.2229,0.0,0.0,0.0,2.0,1.0,3.0952644,-0.021341993,0.002092123,97.0,97.0,97.0,97.0,21.302864,21.302864,24.666473,24.666473,0.015958143,0.015845822,-4.1590558E-4,-4.0281404E-4,1169.9038,0.0,0.0,0.0,0.0,0.0,0.0,0.0,0.0,0.0,0.0,0.0,0.0,0.0,4.112577,-0.14662872,-87.722755,0.014959394,0.0058423127,-0.013060859,549972.44,119984.9,0.007858414,0.010509901,8294.686,8417.367,7250.2144,7439.685,0.3017416,0.0,0.0,0.0
280.00763,280.00763,3.299,0.0,0.0,316.43118,11296.0,100.0,0.0,0.051617775,0.0,8.0,1.0,0.0,4000000.0,110.0,1.0,0.0,0.0,10.0,0.0,0.0,-382.57172,91.08502,-142.32552,0.046069633,0.1638282,0.2928771,321.15433,321.15872,316.29608,316.29425,343.0,341.0,413.0,408.0,97.0,97.0,97.0,97.0,0.0,0.0,0.0,0.0,0.0498523,0.049603492,0.0549182,0.055297602,50.348637,33.51867,8.804127,1.69605,-455.828,-537.20624,-458.09448,-783.3525,0.0,0.0,0.0,2.0,1.0,3.0954037,-0.021909425,6.3061714E-4,97.0,97.0,97.0,97.0,21.302864,21.302864,24.666473,24.666473,0.014988224,0.015009983,-4.203847E-4,-4.1393348E-4,1170.0088,0.0,0.0,0.0,0.0,0.0,0.0,0.0,0.0,0.0,0.0,0.0,0.0,0.0,4.0852256,-0.057753205,-87.80254,0.024373867,-1.9234518E-5,0.024865609,549973.1,119984.914,0.004926917,0.006392792,9203.852,9177.02,7675.9546,7830.1143,0.29793072,0.0,0.0,0.0
284.40414,284.40414,3.366,0.0,0.0,316.69803,11309.0,100.0,0.0,0.015971063,0.0,8.0,1.0,0.0,4000000.0,110.0,1.0,0.0,0.0,10.0,0.0,0.0,-382.36786,91.086,-146.71765,0.027680915,0.14580101,0.17988369,321.52838,321.55045,316.5713,316.5637,341.0,340.0,411.0,407.0,97.0,97.0,97.0,97.0,0.0,0.0,0.0,0.0,0.048992977,0.048817683,0.054910917,0.055441737,0.0,0.0,0.0,0.0,-915.9206,98.47732,-743.26685,-521.64935,0.0,0.0,0.0,2.0,1.0,3.095347,-0.023136435,3.2508373E-4,97.0,97.0,97.0,97.0,21.302864,21.302864,24.666473,24.666473,0.01522918,0.015311568,-4.0605688E-4,-4.106802E-4,1171.3856,0.0,0.0,0.0,0.0,0.0,0.0,0.0,0.0,0.0,0.0,0.0,0.0,0.0,4.0701,0.07252484,-87.87744,-0.0025217896,-0.001067296,0.03178615,549987.3,119984.92,0.0041956217,0.006657777,8916.316,8813.559,7554.554,7809.5312,0.29707146,0.0,0.0,0.0
288.8043,288.8043,3.399,0.0,0.0,316.96204,11325.0,100.0,0.0,0.01009859,0.0,8.0,1.0,0.0,4000000.0,110.0,1.0,0.0,0.0,10.0,0.0,0.0,-382.1646,91.08999,-151.11346,0.017199524,0.15053305,-0.07543522,321.96252,321.99484,316.83148,316.83212,340.0,338.0,409.0,405.0,97.0,97.0,97.0,97.0,0.0,0.0,0.0,0.0,0.047993425,0.047811583,0.054682035,0.05474645,-24.03304,-14.306679,-2.2626667,-13.671219,-340.54663,219.57904,119.49239,-23.107279,0.0,0.0,0.0,2.0,1.0,3.095335,-0.0244689,4.4572353E-4,97.0,97.0,97.0,97.0,21.302864,21.302864,24.666473,24.666473,0.01580937,0.015906146,-4.0597614E-4,-4.0429473E-4,1173.0776,0.0,0.0,0.0,0.0,0.0,0.0,0.0,0.0,0.0,0.0,0.0,0.0,0.0,4.0634613,0.07048222,-87.951164,8.9548365E-4,1.2204E-4,0.015066256,550003.6,119984.9,0.004613419,0.008039825,8362.637,8249.477,7356.3154,7340.6577,0.29811287,0.0,0.0,0.0
293.20816,293.20816,3.449,0.0,0.0,317.23178,11331.0,100.0,0.0,-0.01948829,0.0,8.0,1.0,0.0,4000000.0,110.0,1.0,0.0,0.0,10.0,0.0,0.0,-381.9615,91.09419,-155.51302,0.017145922,0.1514043,-0.006269838,322.17078,322.15848,317.1006,317.1038,338.0,337.0,408.0,404.0,97.0,97.0,97.0,97.0,0.0,0.0,0.0,0.0,0.04835499,0.048495483,0.054727033,0.054545823,-13.34466,-3.864169,-10.180994,-7.59758,-836.4602,-1394.1986,-215.24724,7.8320494,0.0,0.0,0.0,2.0,1.0,3.095358,-0.02407539,-1.847744E-5,97.0,97.0,97.0,97.0,21.302864,21.302864,24.666473,24.666473,0.015595182,0.015557813,-4.0457532E-4,-4.064701E-4,1173.7142,0.0,0.0,0.0,0.0,0.0,0.0,0.0,0.0,0.0,0.0,0.0,0.0,0.0,4.0583615,0.08745012,-88.02639,-4.157392E-4,6.147275E-4,-0.016902959,550010.7,119984.9,0.005619115,0.0078088366,8549.006,8578.135,7322.5386,7249.9023,0.29856586,0.0,0.0,0.0
297.61578,297.61578,3.499,0.0,0.0,317.50073,11343.0,100.0,0.0,-0.083258346,0.0,8.0,1.0,0.0,4000000.0,110.0,1.0,0.0,0.0,10.0,0.0,0.0,-381.7588,91.09671,-159.91629,0.023204107,0.15492243,-0.098610915,322.50787,322.5141,317.36288,317.38272,337.0,336.0,406.0,402.0,97.0,97.0,97.0,97.0,0.0,0.0,0.0,0.0,0.047624145,0.04781726,0.05435076,0.05433242,2.4046001,-0.7347017,-0.20250677,4.5812125,608.2981,490.7771,371.16406,541.4977,0.0,0.0,0.0,2.0,1.0,3.0954437,-0.023625096,5.3071976E-4,97.0,97.0,97.0,97.0,21.302864,21.302864,24.666473,24.666473,0.015846875,0.015801175,-4.024262E-4,-4.09793E-4,1174.9847,0.0,0.0,0.0,0.0,0.0,0.0,0.0,0.0,0.0,0.0,0.0,0.0,0.0,4.0535383,0.023070406,-88.10144,-0.014812711,0.0033918836,-0.007050694,550023.56,119984.91,0.00571332,0.0079047335,8317.033,8339.075,7220.782,7226.7593,0.29865265,0.0,0.0,0.0
