LapDistance [m],TotalDistance [m],LapTime [s],Sector1Time [s],Sector2Time [s],Speed [km/h],EngineRevs [rpm],ThrottlePercentage [%],BrakePercentage [%],Steer [%],Clutch [%],Gear [int],DRS [0/1],CanUseDRS [0/1],KERSLevel [J],EngineTemperature [C],RacePosition [int],Sector [int],InPits [int],FuelRemaining [kg],CurrentFlag [int],CurrentLapInvalid [int],X [m],Y [m],Z [m],GForceLatitudinal [G],GForceLongitudinal [G],GForceVertical [G],WheelSpeedRearLeft [km/h],WheelSpeedRearRight [km/h],WheelSpeedFrontLeft [km/h],WheelSpeedFrontRight [km/h],BrakeTemperatureRearLeft [C],BrakeTemperatureRearRight [C],BrakeTemperatureFrontLeft [C],BrakeTemperatureFrontRight [C],TyreTemperatureRearLeft [C],TyreTemperatureRearRight [C],TyreTemperatureFrontLeft [C],TyreTemperatureFrontRight [C],TyreWearRearLeft [%],TyreWearRearRight [%],TyreWearFrontLeft [%],TyreWearFrontRight [%],SuspensionPositionRearLeft [m],SuspensionPositionRearRight [m],SuspensionPositionFrontLeft [m],SuspensionPositionFrontRight [m],SuspensionVelocityRearLeft [m/s],SuspensionVelocityRearRight [m/s],SuspensionVelocityFrontLeft [m/s],SuspensionVelocityFrontRight [m/s],SuspensionAccelerationRearLeft [m/s^2],SuspensionAccelerationRearRight [m/s^2],SuspensionAccelerationFrontLeft [m/s^2],SuspensionAccelerationFrontRight [m/s^2],MGUKHarvested [J],MGUHHarvested [J],ERSSpent [J],ERSMode [int],FuelMixMode [int],Yaw [rad],Roll [rad],Pitch [rad],TyreCarcassTemperatureRearLeft [C],TyreCarcassTemperatureRearRight [C],TyreCarcassTemperatureFrontLeft [C],TyreCarcassTemperatureFrontRight [C],TyrePressureRearLeft [PSI],TyrePressureRearRight [PSI],TyrePressureFrontLeft [PSI],TyrePressureFrontRight [PSI],WheelSlipRearLeft [%],WheelSlipRearRight [%],WheelSlipFrontLeft [%],WheelSlipFrontRight [%],Torque [Nm],Handbrake [%],RearLeftInside [C],RearLeftMiddle [C],RearLeftOutside [C],RearRightInside [C],RearRightMiddle [C],RearRightOutside [C],FrontLeftInside [C],FrontLeftMiddle [C],FrontLeftOutside [C],FrontRightInside [C],FrontRightMiddle [C],FrontRightOutside [C],WoldSpeedX [km/h],WoldSpeedY [km/h],WoldSpeedZ [km/h],LocalAngularVelocityX [rad/s],LocalAngularVelocityY [rad/s],LocalAngularVelocityZ [rad/s],IcePower [W],MgukPower [W],FrontRideHeight [m],RearRideHeight [m],LoadRearLeft [N],LoadRearRight [N],LoadFrontLeft [N],LoadFrontRight [N],Extra1 [m],Extra2 [],Extra3 [],Extra4 []
5.2512693,5.2512693,0.066,0.0,0.0,343.11722,12310.0,100.0,0.0,-0.062297855,0.0,8.0,1.0,0.0,4000000.0,110.0,1.0,0.0,0.0,10.0,0.0,0.0,600.4896,0.8593306,-447.98633,0.008041889,0.04234757,0.00414671,348.19788,348.20834,342.9659,342.9862,119.0,119.0,167.0,168.0,89.0,89.0,89.0,89.0,0.0,0.0,0.0,0.0,0.050526086,0.050558627,0.05415689,0.054186698,0.0,0.0,0.0,0.0,-94.252815,-102.63471,-39.495525,-36.89378,0.0,0.0,0.0,2.0,1.0,1.9403545,4.5057597E-5,-2.7418137E-5,89.0,89.0,89.0,89.0,22.047926,22.047926,24.919281,24.919281,0.014870682,0.014842972,-4.057209E-4,-4.0971598E-4,1224.6464,0.0,0.0,0.0,0.0,0.0,0.0,0.0,0.0,0.0,0.0,0.0,0.0,0.0,88.87599,0.0024361974,-34.425556,5.7909836E-4,0.0036599247,-0.0017455679,528238.0,119984.9,0.00669825,0.0066433377,8502.408,8517.709,7188.2227,7205.279,0.30262947,0.0,0.0,0.0
10.016005,10.016005,0.116,0.0,0.0,343.18973,12314.0,100.0,0.0,-0.13690914,0.0,8.0,1.0,0.0,4000000.0,110.0,1.0,0.0,0.0,10.0,0.0,0.0,604.93365,0.85938615,-449.70807,0.030910864,0.040512513,-0.013992474,348.28668,348.30292,343.02615,343.0707,119.0,119.0,166.0,167.0,89.0,89.0,89.0,89.0,0.0,0.0,0.0,0.0,0.050366286,0.050452784,0.05412922,0.054226976,0.0,0.0,0.0,0.0,-5.511946,19.12415,-10.608134,18.0915,0.0,0.0,0.0,2.0,1.0,1.9406465,1.4817416E-4,7.4744225E-5,89.0,89.0,89.0,89.0,22.047926,22.047926,24.919281,24.919281,0.014949691,0.014873768,-4.032615E-4,-4.1134245E-4,1224.812,0.0,0.0,0.0,0.0,0.0,0.0,0.0,0.0,0.0,0.0,0.0,0.0,0.0,88.89062,-0.0013361253,-34.44356,0.0026487117,0.007951397,-6.164772E-4,528137.9,119984.91,0.006742748,0.0070031285,8416.643,8471.406,7196.156,7245.0073,0.3028698,0.0,0.0,0.0
14.782162,14.782162,0.166,0.0,0.0,343.26288,12315.0,100.0,0.0,-0.14003284,0.0,8.0,1.0,0.0,4000000.0,110.0,1.0,0.0,0.0,10.0,0.0,0.0,609.3787,0.8592278,-451.43094,0.051523704,0.041928165,0.0022626934,348.33615,348.3537,343.09085,343.15143,118.0,118.0,165.0,167.0,89.0,89.0,89.0,89.0,0.0,0.0,0.0,0.0,0.05049048,0.05062886,0.054085754,0.05426262,0.0,0.0,0.0,0.0,65.16425,8.422135,36.987656,-0.26822087,0.0,0.0,0.0,2.0,1.0,1.9411253,2.5744087E-4,-3.3974648E-5,89.0,89.0,89.0,89.0,22.047926,22.047926,24.919281,24.919281,0.014899262,0.014791094,-4.0601857E-4,-4.1018336E-4,1224.7817,0.0,0.0,0.0,0.0,0.0,0.0,0.0,0.0,0.0,0.0,0.0,0.0,0.0,88.90156,-0.003486184,-34.471546,0.0017731711,0.010412996,2.418916E-4,528081.94,119984.914,0.006635301,0.0066082277,8471.371,8565.139,7163.379,7246.1055,0.3026352,0.0,0.0,0.0
19.548906,19.548906,0.216,0.0,0.0,343.33438,12318.0,100.0,0.0,-0.14205833,0.0,8.0,1.0,0.0,4000000.0,110.0,1.0,0.0,0.0,10.0,0.0,0.0,613.8238,0.85920817,-453.15546,0.06937245,0.039841574,0.005507672,348.41547,348.42535,343.16177,343.2241,118.0,118.0,165.0,166.0,89.0,89.0,89.0,89.0,0.0,0.0,0.0,0.0,0.05043567,0.050612047,0.05409161,0.054325186,0.0,0.0,0.0,0.0,5.6728787,14.698504,-37.41681,-35.981827,0.0,0.0,0.0,2.0,1.0,1.9416517,3.3846972E-4,1.6093254E-5,89.0,89.0,89.0,89.0,22.047926,22.047926,24.919281,24.919281,0.014912275,0.014782077,-4.0601005E-4,-4.096183E-4,1224.8882,0.0,0.0,0.0,0.0,0.0,0.0,0.0,0.0,0.0,0.0,0.0,0.0,0.0,88.90883,0.0015009764,-34.507725,0.001294309,0.010619674,-0.0016686919,527999.2,119984.9,0.0065672374,0.006677881,8442.877,8567.586,7182.663,7291.037,0.30263042,0.0,0.0,0.0
24.31669,24.31669,0.266,0.0,0.0,343.40424,12321.0,100.0,0.0,-0.14647979,0.0,8.0,1.0,0.0,4000000.0,110.0,1.0,0.0,0.0,10.0,0.0,0.0,618.2691,0.859295,-454.88196,0.08230557,0.03971746,-0.0031985657,348.49026,348.49432,343.23062,343.29456,117.0,118.0,164.0,165.0,89.0,89.0,89.0,89.0,0.0,0.0,0.0,0.0,0.050394446,0.050612297,0.05405807,0.054345056,0.0,0.0,0.0,0.0,55.360786,54.126972,-23.536379,-30.73811,0.0,0.0,0.0,2.0,1.0,1.9421878,4.13089E-4,8.583069E-6,89.0,89.0,89.0,89.0,22.047926,22.047926,24.919281,24.919281,0.014928352,0.014778868,-4.0555265E-4,-4.0902323E-4,1225.0033,0.0,0.0,0.0,0.0,0.0,0.0,0.0,0.0,0.0,0.0,0.0,0.0,0.0,88.913,0.0013067819,-34.550587,0.0012708264,0.010840325,4.0915358E-5,527920.25,119984.91,0.0066038677,0.006713107,8421.17,8571.217,7154.3047,7286.463,0.30265617,0.0,0.0,0.0
29.086185,29.086185,0.316,0.0,0.0,343.4736,12323.0,100.0,0.0,-0.15159331,0.0,8.0,1.0,0.0,4000000.0,110.0,1.0,0.0,0.0,10.0,0.0,0.0,622.7153,0.8593489,-456.6107,0.089371786,0.039118323,-0.004132633,348.56332,348.56107,343.30185,343.3621,117.0,117.0,164.0,165.0,89.0,89.0,89.0,89.0,0.0,0.0,0.0,0.0,0.050392106,0.050605334,0.05405033,0.05434415,0.0,0.0,0.0,0.0,15.355645,-193.3336,-37.121765,-15.704332,0.0,0.0,0.0,2.0,1.0,1.9427023,4.2344313E-4,8.46386E-6,89.0,89.0,89.0,89.0,22.047926,22.047926,24.919281,24.919281,0.0149297295,0.014774878,-4.048536E-4,-4.096171E-4,1225.024,0.0,0.0,0.0,0.0,0.0,0.0,0.0,0.0,0.0,0.0,0.0,0.0,0.0,88.915695,5.39347E-4,-34.59683,9.243721E-4,0.010224625,-2.4497206E-4,527843.5,119984.9,0.0066012293,0.006730234,8413.249,8571.784,7156.6113,7289.761,0.3026495,0.0,0.0,0.0
33.85659,33.85659,0.366,0.0,0.0,343.542,12325.0,100.0,0.0,-0.12308846,0.0,8.0,1.0,0.0,4000000.0,110.0,1.0,0.0,0.0,10.0,0.0,0.0,627.16144,0.8593084,-458.3418,0.089280404,0.038383484,-0.0054728356,348.6356,348.62967,343.37268,343.42874,116.0,117.0,163.0,164.0,89.0,89.0,89.0,89.0,0.0,0.0,0.0,0.0,0.05037459,0.050608944,0.054026637,0.05434562,0.0,0.0,0.0,0.0,-34.78825,-95.3391,69.61672,26.379522,0.0,0.0,0.0,2.0,1.0,1.9431969,4.5271913E-4,5.7458878E-5,89.0,89.0,89.0,89.0,22.047926,22.047926,24.919281,24.919281,0.014928667,0.014775001,-4.0608854E-4,-4.0783585E-4,1225.0436,0.0,0.0,0.0,0.0,0.0,0.0,0.0,0.0,0.0,0.0,0.0,0.0,0.0,88.91748,-0.0020541917,-34.644604,-7.9901365E-4,0.009376677,-0.001058917,527766.25,119984.91,0.0066709346,0.006800013,8404.137,8568.876,7150.892,7293.703,0.30276203,0.0,0.0,0.0
38.627842,38.627842,0.416,0.0,0.0,343.60922,12328.0,100.0,0.0,-0.0986399,0.0,8.0,1.0,0.0,4000000.0,110.0,1.0,0.0,0.0,10.0,0.0,0.0,631.6076,0.8591656,-460.0753,0.08611323,0.038291007,0.0058458014,348.6941,348.6859,343.44217,343.492,116.0,116.0,163.0,164.0,89.0,89.0,89.0,89.0,0.0,0.0,0.0,0.0,0.05043472,0.050657634,0.054078482,0.054385867,0.0,0.0,0.0,0.0,112.88076,115.72389,-35.51244,-31.194086,0.0,0.0,0.0,2.0,1.0,1.9436415,4.370862E-4,-3.9339066E-6,89.0,89.0,89.0,89.0,22.047926,22.047926,24.919281,24.919281,0.01489831,0.014755418,-4.07509E-4,-4.0742947E-4,1225.1943,0.0,0.0,0.0,0.0,0.0,0.0,0.0,0.0,0.0,0.0,0.0,0.0,0.0,88.91914,-0.0022378084,-34.69173,5.31928E-4,0.008219846,0.0030221376,527702.75,119984.91,0.0064713117,0.0066393563,8435.731,8594.857,7186.9175,7324.873,0.3025484,0.0,0.0,0.0
43.400078,43.400078,0.466,0.0,0.0,343.6766,12330.0,100.0,0.0,-0.0672304,0.0,8.0,1.0,0.0,4000000.0,110.0,1.0,0.0,0.0,10.0,0.0,0.0,636.0538,0.85921574,-461.81104,0.07660819,0.037610188,0.011364695,348.75772,348.74445,343.51782,343.55298,115.0,116.0,162.0,163.0,89.0,89.0,89.0,89.0,0.0,0.0,0.0,0.0,0.05049484,0.050685037,0.05408028,0.05435148,0.0,0.0,0.0,0.0,-208.32715,-187.64732,44.256443,41.225544,0.0,0.0,0.0,2.0,1.0,1.9439826,3.8343237E-4,-1.4901161E-5,89.0,89.0,89.0,89.0,22.047926,22.047926,24.919281,24.919281,0.014855414,0.01473795,-4.0767668E-4,-4.067839E-4,1225.2369,0.0,0.0,0.0,0.0,0.0,0.0,0.0,0.0,0.0,0.0,0.0,0.0,0.0,88.922325,0.003817814,-34.73507,-0.0019679328,0.005704769,-0.0020137895,527635.5,119984.91,0.0065384675,0.0065310425,8465.933,8604.994,7176.548,7296.1714,0.30257797,0.0,0.0,0.0
48.173,48.173,0.516,0.0,0.0,343.74112,12333.0,100.0,0.0,-0.074797586,0.0,8.0,1.0,0.0,4000000.0,110.0,1.0,0.0,0.0,10.0,0.0,0.0,640.49994,0.85935295,-463.5488,0.06852473,0.036725335,-0.012535808,348.8393,348.825,343.585,343.6145,115.0,115.0,161.0,163.0,89.0,89.0,89.0,89.0,0.0,0.0,0.0,0.0,0.05037442,0.0505522,0.054086704,0.054332636,0.0,0.0,0.0,0.0,158.30397,162.55527,-7.3492513,-1.4886241,0.0,0.0,0.0,2.0,1.0,1.9442388,3.4772194E-4,4.863739E-5,89.0,89.0,89.0,89.0,22.047926,22.047926,24.919281,24.919281,0.014902339,0.014792809,-4.056075E-4,-4.073896E-4,1225.3295,0.0,0.0,0.0,0.0,0.0,0.0,0.0,0.0,0.0,0.0,0.0,0.0,0.0,88.92623,3.1580016E-4,-34.7743,-5.485746E-4,0.004898626,6.56359E-4,527547.0,119984.91,0.0066184867,0.0068126046,8415.803,8541.464,7174.4937,7283.8584,0.30271435,0.0,0.0,0.0
52.94674,52.94674,0.566,0.0,0.0,343.80634,12334.0,100.0,0.0,-0.04038699,0.0,8.0,1.0,0.0,4000000.0,110.0,1.0,0.0,0.0,10.0,0.0,0.0,644.9461,0.8592631,-465.28845,0.056636978,0.036943227,-0.0016265301,348.89215,348.88065,343.65247,343.67728,115.0,115.0,161.0,162.0,89.0,89.0,89.0,89.0,0.0,0.0,0.0,0.0,0.05047001,0.05061283,0.054101292,0.054310154,0.0,0.0,0.0,0.0,-16.254179,-47.729904,20.465252,-3.7819145,0.0,0.0,0.0,2.0,1.0,1.9444723,2.919839E-4,8.225441E-6,89.0,89.0,89.0,89.0,22.047926,22.047926,24.919281,24.919281,0.01485795,0.014769478,-4.077222E-4,-4.059383E-4,1225.2893,0.0,0.0,0.0,0.0,0.0,0.0,0.0,0.0,0.0,0.0,0.0,0.0,0.0,88.93205,-0.00266666,-34.809128,-0.0015501986,0.003948172,0.0010082386,527486.94,119984.9,0.0065690107,0.006659793,8458.997,8565.428,7185.9155,7276.56,0.3026247,0.0,0.0,0.0
57.721577,57.721577,0.616,0.0,0.0,343.87054,12337.0,100.0,0.0,-0.036295608,0.0,8.0,1.0,0.0,4000000.0,110.0,1.0,0.0,0.0,10.0,0.0,0.0,649.39307,0.85918695,-467.02975,0.047087476,0.03611432,0.007544373,348.95288,348.94022,343.72134,343.7367,114.0,114.0,160.0,161.0,89.0,89.0,89.0,89.0,0.0,0.0,0.0,0.0,0.050499205,0.050614603,0.054157015,0.05432145,0.0,0.0,0.0,0.0,-26.379522,-16.951557,4.7072763,17.836685,0.0,0.0,0.0,2.0,1.0,1.9446248,2.335378E-4,1.41859055E-5,89.0,89.0,89.0,89.0,22.047926,22.047926,24.919281,24.919281,0.0148312375,0.014763049,-4.0705554E-4,-4.071849E-4,1225.4336,0.0,0.0,0.0,0.0,0.0,0.0,0.0,0.0,0.0,0.0,0.0,0.0,0.0,88.93965,2.3832545E-6,-34.838654,-6.512238E-4,0.002460103,3.0684922E-4,527420.75,119984.91,0.0064405915,0.006583914,8482.329,8566.273,7225.5073,7298.0615,0.30253983,0.0,0.0,0.0
62.497276,62.497276,0.666,0.0,0.0,343.93375,12339.0,100.0,0.0,-0.029672278,0.0,8.0,1.0,0.0,4000000.0,110.0,1.0,0.0,0.0,10.0,0.0,0.0,653.84033,0.85927314,-468.77237,0.03720241,0.035751075,0.0066164876,349.01318,349.00183,343.78683,343.7978,114.0,114.0,160.0,161.0,89.0,89.0,89.0,89.0,0.0,0.0,0.0,0.0,0.050525166,0.050615907,0.0541768,0.054311905,0.0,0.0,0.0,0.0,38.637215,20.492073,-4.2647114,-18.976625,0.0,0.0,0.0,2.0,1.0,1.9447284,1.8890914E-4,-1.335144E-5,89.0,89.0,89.0,89.0,22.047926,22.047926,24.919281,24.919281,0.0148152495,0.014760068,-4.0661357E-4,-4.071955E-4,1225.4763,0.0,0.0,0.0,0.0,0.0,0.0,0.0,0.0,0.0,0.0,0.0,0.0,0.0,88.94874,0.0031830382,-34.863583,-9.7183505E-4,0.0017542271,7.406125E-4,527353.7,119984.91,0.00644246,0.006535232,8496.836,8565.416,7225.013,7283.122,0.30248165,0.0,0.0,0.0
67.273735,67.273735,0.716,0.0,0.0,343.99582,12341.0,100.0,0.0,-0.0354355,0.0,8.0,1.0,0.0,4000000.0,110.0,1.0,0.0,0.0,10.0,0.0,0.0,658.2879,0.8594222,-470.5161,0.0307733,0.034686983,-0.007829127,349.08456,349.0765,343.8495,343.8601,113.0,113.0,159.0,160.0,89.0,89.0,89.0,89.0,0.0,0.0,0.0,0.0,0.050463416,0.050541714,0.054166656,0.05427601,0.0,0.0,0.0,0.0,-54.74388,-51.270424,-11.761485,0.65714115,0.0,0.0,0.0,2.0,1.0,1.944814,1.542937E-4,3.4570694E-5,89.0,89.0,89.0,89.0,22.047926,22.047926,24.919281,24.919281,0.014838401,0.014790963,-4.0487223E-4,-4.0658447E-4,1225.4895,0.0,0.0,0.0,0.0,0.0,0.0,0.0,0.0,0.0,0.0,0.0,0.0,0.0,88.95892,0.00179501,-34.884842,-7.441313E-4,0.0018004028,-6.135802E-4,527273.9,119984.91,0.0065582213,0.0067252344,8464.702,8520.045,7214.5547,7262.7905,0.30260658,0.0,0.0,0.0
72.05134,72.05134,0.766,0.0,0.0,344.0572,12343.0,100.0,0.0,-0.038317118,0.0,8.0,1.0,0.0,4000000.0,110.0,1.0,0.0,0.0,10.0,0.0,0.0,662.73627,0.8593799,-472.26086,0.026996434,0.03466214,-0.005383141,349.1417,349.13702,343.90945,343.92215,113.0,113.0,159.0,160.0,89.0,89.0,89.0,89.0,0.0,0.0,0.0,0.0,0.05047513,0.0505434,0.05417752,0.054272424,0.0,0.0,0.0,0.0,-48.065178,-43.907757,57.58702,60.282635,0.0,0.0,0.0,2.0,1.0,1.9449126,1.3478358E-4,4.851818E-5,89.0,89.0,89.0,89.0,22.047926,22.047926,24.919281,24.919281,0.014830655,0.014786474,-4.0542992E-4,-4.072279E-4,1225.5377,0.0,0.0,0.0,0.0,0.0,0.0,0.0,0.0,0.0,0.0,0.0,0.0,0.0,88.969765,-0.0025201414,-34.903896,-6.7874935E-5,0.0021644079,6.7107123E-4,527209.2,119984.914,0.0065261065,0.0067281923,8474.377,8523.209,7231.042,7273.0854,0.3026619,0.0,0.0,0.0
76.829506,76.829506,0.816,0.0,0.0,344.11832,12345.0,100.0,0.0,-0.028708024,0.0,8.0,1.0,0.0,4000000.0,110.0,1.0,0.0,0.0,10.0,0.0,0.0,667.18494,0.859221,-474.00653,0.02487012,0.03458305,0.005319682,349.19113,349.18948,343.96924,343.98474,112.0,113.0,158.0,159.0,89.0,89.0,89.0,89.0,0.0,0.0,0.0,0.0,0.050546423,0.050616488,0.054186717,0.054279454,0.0,0.0,0.0,0.0,-112.5723,-96.7875,38.167828,44.806293,0.0,0.0,0.0,2.0,1.0,1.9450362,1.312603E-4,2.5868416E-5,89.0,89.0,89.0,89.0,22.047926,22.047926,24.919281,24.919281,0.0147959385,0.014753219,-4.0663942E-4,-4.0648607E-4,1225.6052,0.0,0.0,0.0,0.0,0.0,0.0,0.0,0.0,0.0,0.0,0.0,0.0,0.0,88.98087,-0.002636834,-34.92206,-3.9533907E-4,0.0025550069,-3.7851924E-4,527152.8,119984.9,0.0064733536,0.0065699765,8508.053,8555.616,7232.5146,7274.376,0.30256653,0.0,0.0,0.0
81.60883,81.60883,0.866,0.0,0.0,344.17804,12347.0,100.0,0.0,-0.019176874,0.0,8.0,1.0,0.0,4000000.0,110.0,1.0,0.0,0.0,10.0,0.0,0.0,671.6344,0.8591838,-475.75308,0.021781644,0.03382466,0.007127019,349.2489,349.24493,344.03192,344.04126,112.0,112.0,158.0,159.0,89.0,89.0,89.0,89.0,0.0,0.0,0.0,0.0,0.050564162,0.050612338,0.05422233,0.054295138,0.0,0.0,0.0,0.0,52.37012,80.050514,-58.270985,-43.21038,0.0,0.0,0.0,2.0,1.0,1.9451314,1.0360574E-4,9.775162E-6,89.0,89.0,89.0,89.0,22.047926,22.047926,24.919281,24.919281,0.014779612,0.014747357,-4.063374E-4,-4.0620653E-4,1225.6589,0.0,0.0,0.0,0.0,0.0,0.0,0.0,0.0,0.0,0.0,0.0,0.0,0.0,88.99232,9.2117913E-4,-34.9383,-2.5390182E-5,0.0015125899,4.3890305E-4,527090.5,119984.914,0.006426282,0.0065213093,8521.816,8560.344,7246.65,7278.74,0.30248547,0.0,0.0,0.0
86.38876,86.38876,0.916,0.0,0.0,344.23682,12350.0,100.0,0.0,-0.038307644,0.0,8.0,1.0,0.0,4000000.0,110.0,1.0,0.0,0.0,10.0,0.0,0.0,676.0842,0.8592647,-477.50037,0.020703796,0.033052802,-0.0017017242,349.315,349.3105,344.0914,344.09964,112.0,112.0,157.0,158.0,89.0,89.0,89.0,89.0,0.0,0.0,0.0,0.0,0.050513417,0.05056347,0.054216053,0.05428371,0.0,0.0,0.0,0.0,-5.485117,11.466443,25.70897,38.248295,0.0,0.0,0.0,2.0,1.0,1.9451928,9.857135E-5,2.6106834E-5,89.0,89.0,89.0,89.0,22.047926,22.047926,24.919281,24.919281,0.014796886,0.014763861,-4.04819E-4,-4.0764414E-4,1225.7891,0.0,0.0,0.0,0.0,0.0,0.0,0.0,0.0,0.0,0.0,0.0,0.0,0.0,89.00394,0.0015125129,-34.953396,2.7865474E-4,0.0014750924,-1.8918695E-4,527018.44,119984.91,0.0064405585,0.0066173472,8497.266,8532.986,7245.45,7275.87,0.30256462,0.0,0.0,0.0
91.16968,91.16968,0.966,0.0,0.0,344.29526,12352.0,100.0,0.0,-0.007986301,0.0,8.0,1.0,0.0,4000000.0,110.0,1.0,0.0,0.0,10.0,0.0,0.0,680.5348,0.8593231,-479.24844,0.016786404,0.03332067,0.002942267,349.37756,349.3616,344.14972,344.15952,111.0,111.0,156.0,158.0,89.0,89.0,89.0,89.0,0.0,0.0,0.0,0.0,0.050636802,0.050583,0.05418243,0.054262668,0.0,0.0,0.0,0.0,352.4422,1.528859,-30.899042,17.568468,0.0,0.0,0.0,2.0,1.0,1.9452778,1.1792428E-4,2.3245811E-5,89.0,89.0,89.0,89.0,22.047926,22.047926,24.919281,24.919281,0.014789807,0.014735955,-4.062112E-4,-4.0390127E-4,1225.8425,0.0,0.0,0.0,0.0,0.0,0.0,0.0,0.0,0.0,0.0,0.0,0.0,0.0,89.01576,0.0010254238,-34.96769,2.445915E-4,0.0015064855,-0.0024049222,526956.06,119984.91,0.0065863654,0.0065937587,8534.82,8551.665,7208.5483,7248.7104,0.30258942,0.0,0.0,0.0
95.951294,95.951294,1.016,0.0,0.0,344.35217,12354.0,100.0,0.0,-0.0390039,0.0,8.0,1.0,0.0,4000000.0,110.0,1.0,0.0,0.0,10.0,0.0,0.0,684.98584,0.85929644,-480.9972,0.019124394,0.032338265,-0.011732687,349.42883,349.42752,344.20493,344.2168,111.0,111.0,156.0,157.0,89.0,89.0,89.0,89.0,0.0,0.0,0.0,0.0,0.050500784,0.050536275,0.0542071,0.054270167,0.0,0.0,0.0,0.0,247.33987,139.26027,-61.50304,-87.11813,0.0,0.0,0.0,2.0,1.0,1.9453697,8.7587774E-5,3.33786E-5,89.0,89.0,89.0,89.0,22.047926,22.047926,24.919281,24.919281,0.01479709,0.014764474,-4.046891E-4,-4.066724E-4,1225.8907,0.0,0.0,0.0,0.0,0.0,0.0,0.0,0.0,0.0,0.0,0.0,0.0,0.0,89.02715,-0.0027257905,-34.981922,-3.396786E-4,0.0020575237,0.0015031481,526891.5,119984.91,0.0065136338,0.0066588074,8493.533,8525.953,7230.9097,7255.804,0.3025818,0.0,0.0,0.0
100.73377,100.73377,1.066,0.0,0.0,344.40945,12355.0,100.0,0.0,-0.03704956,0.0,8.0,1.0,0.0,4000000.0,110.0,1.0,0.0,0.0,10.0,0.0,0.0,689.4375,0.8591725,-482.74664,0.020316826,0.032107756,0.0063100928,349.4756,349.4759,344.26068,344.27542,110.0,110.0,155.0,156.0,89.0,89.0,89.0,89.0,0.0,0.0,0.0,0.0,0.050562594,0.050619673,0.054221813,0.05429355,0.0,0.0,0.0,0.0,17.072258,-7.4431295,3.5941598,8.207559,0.0,0.0,0.0,2.0,1.0,1.9454845,1.0329796E-4,1.0371208E-5,89.0,89.0,89.0,89.0,22.047926,22.047926,24.919281,24.919281,0.0147644775,0.014728452,-4.0536345E-4,-4.0666247E-4,1225.8677,0.0,0.0,0.0,0.0,0.0,0.0,0.0,0.0,0.0,0.0,0.0,0.0,0.0,89.03838,-0.0013834434,-34.996853,4.246709E-4,0.00252209,-1.2450744E-4,526838.94,119984.9,0.0064149816,0.0065109557,8525.332,8562.053,7254.31,7287.675,0.30247307,0.0,0.0,0.0
105.517166,105.517166,1.116,0.0,0.0,344.46515,12357.0,100.0,0.0,-0.03607239,0.0,8.0,1.0,0.0,4000000.0,110.0,1.0,0.0,0.0,10.0,0.0,0.0,693.8897,0.8591887,-484.49692,0.021642309,0.031279556,0.0047000055,349.53336,349.53357,344.31613,344.33157,110.0,110.0,155.0,156.0,89.0,89.0,89.0,89.0,0.0,0.0,0.0,0.0,0.05054818,0.050603032,0.054236136,0.054311253,0.0,0.0,0.0,0.0,-11.801717,-9.173154,1.810491,0.8448958,0.0,0.0,0.0,2.0,1.0,1.9456117,1.07589236E-4,1.8954277E-5,89.0,89.0,89.0,89.0,22.047926,22.047926,24.919281,24.919281,0.0147675965,0.0147297885,-4.053227E-4,-4.0612498E-4,1225.9188,0.0,0.0,0.0,0.0,0.0,0.0,0.0,0.0,0.0,0.0,0.0,0.0,0.0,89.04898,0.0015576484,-35.01219,8.442462E-5,0.0026049984,1.2960944E-4,526775.6,119984.9,0.006369191,0.00653063,8515.691,8554.984,7261.2827,7295.049,0.30246544,0.0,0.0,0.0
110.30143,110.30143,1.166,0.0,0.0,344.52026,12359.0,100.0,0.0,-0.03675273,0.0,8.0,1.0,0.0,4000000.0,110.0,1.0,0.0,0.0,10.0,0.0,0.0,698.34247,0.8592579,-486.24792,0.02229078,0.031088078,-0.0037020184,349.59164,349.59042,344.37238,344.38605,109.0,110.0,154.0,155.0,89.0,89.0,89.0,89.0,0.0,0.0,0.0,0.0,0.05053371,0.050587308,0.054212,0.054286562,0.0,0.0,0.0,0.0,-37.389988,-42.834873,30.241905,20.867582,0.0,0.0,0.0,2.0,1.0,1.9457315,1.0725412E-4,2.9802322E-5,89.0,89.0,89.0,89.0,22.047926,22.047926,24.919281,24.919281,0.0147709595,0.014734214,-4.0477214E-4,-4.0605306E-4,1225.9703,0.0,0.0,0.0,0.0,0.0,0.0,0.0,0.0,0.0,0.0,0.0,0.0,0.0,89.05932,7.2650524E-4,-35.02772,-2.4464814E-4,0.0023226184,-9.636692E-4,526712.5,119984.91,0.0064522494,0.0065721795,8506.608,8545.48,7237.118,7270.156,0.30253983,0.0,0.0,0.0
115.086365,115.086365,1.216,0.0,0.0,344.57452,12361.0,100.0,0.0,0.0015031986,0.0,8.0,1.0,0.0,4000000.0,110.0,1.0,0.0,0.0,10.0,0.0,0.0,702.7956,0.859255,-487.9997,0.017698579,0.030837938,-1.0569268E-4,349.6437,349.64066,344.42883,344.43753,109.0,109.0,154.0,155.0,89.0,89.0,89.0,89.0,0.0,0.0,0.0,0.0,0.05055124,0.05059808,0.05423186,0.054300856,0.0,0.0,0.0,0.0,122.268486,108.83062,-5.444884,-18.346306,0.0,0.0,0.0,2.0,1.0,1.9458268,9.588475E-5,1.7762184E-5,89.0,89.0,89.0,89.0,22.047926,22.047926,24.919281,24.919281,0.014758181,0.0147308465,-4.0721672E-4,-4.0448975E-4,1226.0376,0.0,0.0,0.0,0.0,0.0,0.0,0.0,0.0,0.0,0.0,0.0,0.0,0.0,89.069786,-3.8560352E-4,-35.042286,-3.4830646E-4,0.0012851337,0.0012511977,526656.2,119984.91,0.0063902345,0.0065381527,8517.432,8552.883,7256.629,7286.782,0.3024912,0.0,0.0,0.0
119.87218,119.87218,1.266,0.0,0.0,344.62845,12363.0,100.0,0.0,0.1372428,0.0,8.0,1.0,0.0,4000000.0,110.0,1.0,0.0,0.0,10.0,0.0,0.0,707.24945,0.8592658,-489.752,-0.0041055516,0.030177541,0.00640462,349.6998,349.68765,344.49655,344.4778,109.0,109.0,153.0,154.0,89.0,89.0,89.0,89.0,0.0,0.0,0.0,0.0,0.050595142,0.05058673,0.0542701,0.054280806,0.0,0.0,0.0,0.0,9.039043,-39.254128,97.29712,45.7853,0.0,0.0,0.0,2.0,1.0,1.9457896,3.4038417E-6,1.2516975E-5,89.0,89.0,89.0,89.0,22.047926,22.047926,24.919281,24.919281,0.014719577,0.0147450445,-4.1309602E-4,-3.981198E-4,1226.104,0.0,0.0,0.0,0.0,0.0,0.0,0.0,0.0,0.0,0.0,0.0,0.0,0.0,89.0826,0.00119628,-35.050617,-0.0034127692,-0.0039526196,0.0012657946,526599.5,119984.91,0.0063422965,0.006493417,8541.379,8543.619,7286.6206,7286.8047,0.30246067,0.0,0.0,0.0
124.65872,124.65872,1.316,0.0,0.0,344.68115,12365.0,100.0,0.0,0.25494984,0.0,8.0,1.0,0.0,4000000.0,110.0,1.0,0.0,0.0,10.0,0.0,0.0,711.7041,0.8593029,-491.50433,-0.043136302,0.02957223,-0.001577114,349.76746,349.73538,344.5778,344.50247,108.0,108.0,153.0,154.0,89.0,89.0,89.0,89.0,0.0,0.0,0.0,0.0,0.05062927,0.05050151,0.05433148,0.05419447,0.0,0.0,0.0,0.0,-147.84334,-72.08436,35.874542,45.69143,0.0,0.0,0.0,2.0,1.0,1.9453305,-2.0941364E-4,4.36306E-5,89.0,89.0,89.0,89.0,22.047926,22.047926,24.919281,24.919281,0.014683943,0.014801748,-4.1389125E-4,-3.9633093E-4,1226.155,0.0,0.0,0.0,0.0,0.0,0.0,0.0,0.0,0.0,0.0,0.0,0.0,0.0,89.101494,2.9302324E-4,-35.042606,-0.004324616,-0.01364641,7.528294E-4,526536.25,119984.91,0.0064461515,0.0065992824,8561.896,8487.166,7304.4023,7235.3413,0.30254173,0.0,0.0,0.0
129.44597,129.44597,1.366,0.0,0.0,344.73297,12367.0,100.0,0.0,0.22467159,0.0,8.0,1.0,0.0,4000000.0,110.0,1.0,0.0,0.0,10.0,0.0,0.0,716.1598,0.85925263,-493.25583,-0.079596594,0.029535202,-0.0033863855,349.8178,349.7821,344.64365,344.53943,108.0,108.0,152.0,153.0,89.0,89.0,89.0,89.0,0.0,0.0,0.0,0.0,0.05068401,0.050462894,0.054399908,0.05413013,0.0,0.0,0.0,0.0,1.6227363,1.7970797,-16.683338,-23.844837,0.0,0.0,0.0,2.0,1.0,1.9445052,-3.959454E-4,2.3841858E-5,89.0,89.0,89.0,89.0,22.047926,22.047926,24.919281,24.919281,0.014650503,0.01482122,-4.0772778E-4,-4.0219584E-4,1226.2288,0.0,0.0,0.0,0.0,0.0,0.0,0.0,0.0,0.0,0.0,0.0,0.0,0.0,89.12703,-0.0018751632,-35.016983,-0.0030164814,-0.017875494,0.0019083561,526482.75,119984.914,0.0064208326,0.006551241,8605.076,8460.724,7329.742,7200.2925,0.30249214,0.0,0.0,0.0
134.23395,134.23395,1.416,0.0,0.0,344.78445,12368.0,100.0,0.0,0.18251579,0.0,8.0,1.0,0.0,4000000.0,110.0,1.0,0.0,0.0,10.0,0.0,0.0,720.61694,0.859187,-495.00568,-0.10597012,0.028999917,0.005193183,349.85455,349.8379,344.69098,344.59476,107.0,108.0,152.0,153.0,89.0,89.0,89.0,89.0,0.0,0.0,0.0,0.0,0.05074095,0.050467294,0.054461237,0.054097556,0.0,0.0,0.0,0.0,-34.76142,-24.904306,-9.347498,10.702011,0.0,0.0,0.0,2.0,1.0,1.9436436,-5.2404596E-4,1.4901161E-5,89.0,89.0,89.0,89.0,22.047926,22.047926,24.919281,24.919281,0.014620721,0.014813532,-4.0570673E-4,-4.0499162E-4,1226.2091,0.0,0.0,0.0,0.0,0.0,0.0,0.0,0.0,0.0,0.0,0.0,0.0,0.0,89.15788,-2.9220147E-4,-34.97752,-0.002001676,-0.01615168,6.271132E-4,526431.75,119984.9,0.0063644326,0.006472225,8647.148,8454.127,7366.1343,7197.9746,0.30242634,0.0,0.0,0.0
139.02258,139.02258,1.466,0.0,0.0,344.83456,12370.0,100.0,0.0,0.12564376,0.0,8.0,1.0,0.0,4000000.0,110.0,1.0,0.0,0.0,10.0,0.0,0.0,725.07574,0.8592179,-496.75336,-0.11288965,0.028319065,-4.282844E-5,349.89743,349.90103,344.73022,344.656,107.0,107.0,151.0,152.0,89.0,89.0,89.0,89.0,0.0,0.0,0.0,0.0,0.050727468,0.05043722,0.054480977,0.054080427,0.0,0.0,0.0,0.0,-17.23319,13.706087,-27.841326,11.868773,0.0,0.0,0.0,2.0,1.0,1.9429308,-5.6910195E-4,2.861023E-5,89.0,89.0,89.0,89.0,22.047926,22.047926,24.919281,24.919281,0.014629212,0.014816533,-4.036556E-4,-4.0607562E-4,1226.2721,0.0,0.0,0.0,0.0,0.0,0.0,0.0,0.0,0.0,0.0,0.0,0.0,0.0,89.1909,8.997008E-4,-34.93144,9.109238E-5,-0.012188499,-2.7539767E-4,526373.7,119984.89,0.006381565,0.0065246,8644.367,8435.888,7367.92,7187.316,0.3024559,0.0,0.0,0.0
143.81186,143.81186,1.516,0.0,0.0,344.88416,12372.0,100.0,0.0,0.07286769,0.0,8.0,1.0,0.0,4000000.0,110.0,1.0,0.0,0.0,10.0,0.0,0.0,729.53613,0.8592475,-498.49878,-0.10200999,0.028249966,-0.0019953707,349.938,349.9574,344.765,344.72037,106.0,107.0,151.0,152.0,89.0,89.0,89.0,89.0,0.0,0.0,0.0,0.0,0.050709028,0.05045826,0.05445874,0.05409736,0.0,0.0,0.0,0.0,32.41449,19.727646,-25.440748,-22.65125,0.0,0.0,0.0,2.0,1.0,1.9424617,-5.096942E-4,1.3589859E-5,89.0,89.0,89.0,89.0,22.047926,22.047926,24.919281,24.919281,0.014642725,0.014796236,-4.033655E-4,-4.0623572E-4,1226.3462,0.0,0.0,0.0,0.0,0.0,0.0,0.0,0.0,0.0,0.0,0.0,0.0,0.0,89.22266,2.4218208E-4,-34.888096,0.0015500665,-0.0071194954,-1.05991785E-4,526320.4,119984.914,0.006370254,0.0065045557,8634.879,8447.784,7353.5483,7193.8203,0.30242538,0.0,0.0,0.0
148.60185,148.60185,1.566,0.0,0.0,344.9334,12374.0,100.0,0.0,0.070846505,0.0,8.0,1.0,0.0,4000000.0,110.0,1.0,0.0,0.0,10.0,0.0,0.0,733.9981,0.85927004,-500.24216,-0.086571135,0.027678965,4.7478036E-4,349.98444,350.00757,344.80652,344.77768,106.0,106.0,150.0,151.0,89.0,89.0,89.0,89.0,0.0,0.0,0.0,0.0,0.05069972,0.050480552,0.05443635,0.05412577,0.0,0.0,0.0,0.0,-47.394623,-34.70778,-12.566148,-2.3201106,0.0,0.0,0.0,2.0,1.0,1.9421769,-4.3720924E-4,2.5868416E-5,89.0,89.0,89.0,89.0,22.047926,22.047926,24.919281,24.919281,0.014649004,0.014776423,-4.051595E-4,-4.0431906E-4,1226.4205,0.0,0.0,0.0,0.0,0.0,0.0,0.0,0.0,0.0,0.0,0.0,0.0,0.0,89.25184,6.907746E-4,-34.850994,0.0013730535,-0.004660001,-0.001011746,526267.2,119984.91,0.006374823,0.0065112314,8622.365,8464.908,7348.839,7212.5527,0.30244732,0.0,0.0,0.0
153.39243,153.39243,1.616,0.0,0.0,344.98187,12375.0,100.0,0.0,0.09373225,0.0,8.0,1.0,0.0,4000000.0,110.0,1.0,0.0,0.0,10.0,0.0,0.0,738.46136,0.8592929,-501.9839,-0.07425423,0.027583126,0.0054589617,350.03186,350.05978,344.8545,344.82684,106.0,106.0,150.0,151.0,89.0,89.0,89.0,89.0,0.0,0.0,0.0,0.0,0.050658766,0.0505868,0.05442407,0.054156605,0.0,0.0,0.0,0.0,-23.938713,366.85907,39.200478,1.9446014,0.0,0.0,0.0,2.0,1.0,1.9419512,-3.869515E-4,3.361702E-5,89.0,89.0,89.0,89.0,22.047926,22.047926,24.919281,24.919281,0.014652159,0.014740945,-4.077258E-4,-4.02643E-4,1226.3933,0.0,0.0,0.0,0.0,0.0,0.0,0.0,0.0,0.0,0.0,0.0,0.0,0.0,89.27823,0.0010051931,-34.82041,-0.0012661539,-0.0046431716,3.4490036E-4,526213.0,119984.9,0.006328583,0.0065339133,8605.809,8501.182,7349.9453,7229.5176,0.30244732,0.0,0.0,0.0
158.18362,158.18362,1.666,0.0,0.0,345.03,12377.0,100.0,0.0,0.07310489,0.0,8.0,1.0,0.0,4000000.0,110.0,1.0,0.0,0.0,10.0,0.0,0.0,742.9259,0.8593243,-503.72418,-0.062505655,0.027410202,-3.0792577E-4,350.0821,350.0947,344.90256,344.87524,105.0,105.0,149.0,150.0,89.0,89.0,89.0,89.0,0.0,0.0,0.0,0.0,0.0506862,0.050545495,0.054388724,0.054165527,0.0,0.0,0.0,0.0,-61.10071,91.597435,-25.092064,36.209816,0.0,0.0,0.0,2.0,1.0,1.9417174,-3.0987198E-4,6.3180923E-6,89.0,89.0,89.0,89.0,22.047926,22.047926,24.919281,24.919281,0.014646933,0.014746187,-4.05587E-4,-4.0391547E-4,1226.481,0.0,0.0,0.0,0.0,0.0,0.0,0.0,0.0,0.0,0.0,0.0,0.0,0.0,89.30239,4.0189354E-4,-34.79523,0.0024012392,-0.0045366944,-0.0013965459,526165.56,119984.89,0.0063825157,0.0064361193,8613.304,8497.025,7315.76,7223.1753,0.30242825,0.0,0.0,0.0
162.97545,162.97545,1.716,0.0,0.0,345.07712,12379.0,100.0,0.0,0.025908533,0.0,8.0,1.0,0.0,4000000.0,110.0,1.0,0.0,0.0,10.0,0.0,0.0,747.3916,0.8593377,-505.46338,-0.049778152,0.026509572,-0.0061724237,350.13547,350.1468,344.94568,344.9264,105.0,105.0,149.0,150.0,89.0,89.0,89.0,89.0,0.0,0.0,0.0,0.0,0.05063221,0.05050438,0.054372698,0.05419233,0.0,0.0,0.0,0.0,32.106037,46.348564,-29.920038,-42.459362,0.0,0.0,0.0,2.0,1.0,1.941523,-2.539411E-4,3.5762787E-5,89.0,89.0,89.0,89.0,22.047926,22.047926,24.919281,24.919281,0.014674596,0.014747677,-4.0322496E-4,-4.0545617E-4,1226.5444,0.0,0.0,0.0,0.0,0.0,0.0,0.0,0.0,0.0,0.0,0.0,0.0,0.0,89.32427,-6.4926746E-4,-34.77511,8.46956E-4,-0.0030074846,-4.145635E-4,526107.8,119984.91,0.006371983,0.0065330067,8579.635,8488.1875,7316.967,7236.957,0.3024559,0.0,0.0,0.0
167.76787,167.76787,1.766,0.0,0.0,345.1241,12380.0,100.0,0.0,-0.024744924,0.0,8.0,1.0,0.0,4000000.0,110.0,1.0,0.0,0.0,10.0,0.0,0.0,751.8584,0.8592809,-507.20172,-0.033579655,0.026700359,-0.0010108006,350.17358,350.1886,344.98474,344.98148,104.0,105.0,148.0,149.0,89.0,89.0,89.0,89.0,0.0,0.0,0.0,0.0,0.050658,0.05057489,0.05434539,0.05421569,0.0,0.0,0.0,0.0,-6.960332,-15.342235,-53.48324,-49.808613,0.0,0.0,0.0,2.0,1.0,1.9414403,-1.7821442E-4,1.5735626E-5,89.0,89.0,89.0,89.0,22.047926,22.047926,24.919281,24.919281,0.014668664,0.01471055,-4.016721E-4,-4.0690525E-4,1226.5406,0.0,0.0,0.0,0.0,0.0,0.0,0.0,0.0,0.0,0.0,0.0,0.0,0.0,89.34357,-0.0013200081,-34.76154,0.0018346189,-1.7208315E-4,-0.0010770119,526063.7,119984.91,0.0063930647,0.006438648,8589.472,8523.803,7298.1934,7243.4795,0.30238628,0.0,0.0,0.0
172.56091,172.56091,1.816,0.0,0.0,345.1699,12382.0,100.0,0.0,-0.05614295,0.0,8.0,1.0,0.0,4000000.0,110.0,1.0,0.0,0.0,10.0,0.0,0.0,756.326,0.85922885,-508.93976,-0.012398283,0.025519673,-0.0025679392,350.2226,350.2434,345.0183,345.03925,104.0,104.0,148.0,149.0,89.0,89.0,89.0,89.0,0.0,0.0,0.0,0.0,0.050578542,0.050560135,0.054324843,0.05428144,0.0,0.0,0.0,0.0,60.76544,37.121765,18.601116,-3.6880372,0.0,0.0,0.0,2.0,1.0,1.9415507,-5.713566E-5,6.401539E-5,89.0,89.0,89.0,89.0,22.047926,22.047926,24.919281,24.919281,0.014706036,0.014702702,-4.0280665E-4,-4.0637373E-4,1226.6063,0.0,0.0,0.0,0.0,0.0,0.0,0.0,0.0,0.0,0.0,0.0,0.0,0.0,89.35869,-0.0013315129,-34.757744,0.0018721984,0.0038123268,-2.7239716E-4,526006.9,119984.91,0.0063279686,0.006570595,8545.305,8525.799,7309.8623,7293.9194,0.3024683,0.0,0.0,0.0
177.35193,177.35193,1.866,0.0,0.0,344.56592,12267.0,93.19601,19.77442,-0.11332906,0.0,8.0,0.0,1.0,4000000.0,110.0,1.0,0.0,0.0,10.0,0.0,0.0,760.79175,0.85890174,-510.67682,0.015286922,-0.6867701,-0.039469637,346.96368,346.9892,342.64743,342.6913,113.0,113.0,156.0,157.0,89.0,89.0,89.0,89.0,0.0,0.0,0.0,0.0,0.050904945,0.05095412,0.054123037,0.054164566,0.0,0.0,0.0,0.0,-482.78415,-483.629,233.92882,257.5993,0.0,0.0,0.0,2.0,1.0,1.9418329,6.898607E-5,4.0888786E-5,89.0,89.0,89.0,89.0,22.047926,22.047926,24.919281,24.919281,0.0072326697,0.0071941405,-0.005567718,-0.005564284,1223.4812,0.0,0.0,0.0,0.0,0.0,0.0,0.0,0.0,0.0,0.0,0.0,0.0,0.0,89.2012,-0.014406594,-34.699814,3.5139266E-4,0.007156325,-0.0073334742,529585.3,0.0,0.005931849,0.006146498,8531.273,8555.506,7481.271,7506.363,0.30196953,0.0,0.0,0.0
182.1203,182.1203,1.916,0.0,0.0,341.9938,12075.0,50.2266,40.457035,-0.14256153,0.0,8.0,0.0,1.0,4000000.0,110.0,1.0,0.0,0.0,10.0,0.0,0.0,765.2362,0.85795873,-512.4061,0.04216802,-1.7852576,0.0035848785,340.45657,340.5004,338.3915,338.46576,141.0,141.0,181.0,182.0,89.0,89.0,89.0,89.0,0.0,0.0,0.0,0.0,0.050815225,0.050931938,0.054381073,0.05452461,0.0,0.0,0.0,0.0,-38.0203,-38.999317,309.433,300.00504,0.0,0.0,0.0,2.0,1.0,1.9422724,2.10657E-4,7.0118904E-4,89.0,89.0,89.0,89.0,22.047926,22.047926,24.919281,24.919281,-0.00421334,-0.0042398134,-0.010488674,-0.010444525,1217.8889,0.0,0.0,0.0,0.0,0.0,0.0,0.0,0.0,0.0,0.0,0.0,0.0,0.0,88.52936,-0.018034851,-34.456127,-0.0028130393,0.010000135,-0.013813594,535546.94,0.0,0.0043615904,0.0061979145,8491.947,8571.002,8150.373,8219.68,0.30111122,0.0,0.0,0.0
186.84146,186.84146,1.966,0.0,0.0,337.90994,11813.0,19.160753,60.394024,-0.13159478,0.0,8.0,0.0,1.0,4000000.0,110.0,1.0,0.0,0.0,10.0,0.0,0.0,769.6362,0.85717314,-514.1194,0.061782718,-2.6078904,0.014646806,333.4472,333.5095,332.4775,332.57935,181.0,181.0,218.0,218.0,89.0,89.0,89.0,89.0,0.0,0.0,0.0,0.0,0.051130164,0.05129939,0.054487985,0.054706346,0.0,0.0,0.0,0.0,463.02966,466.85184,-450.03436,-450.3026,0.0,0.0,0.0,2.0,1.0,1.9428043,3.141569E-4,8.6426735E-4,89.0,89.0,89.0,89.0,22.047926,22.047926,24.919281,24.919281,-0.012780429,-0.01276069,-0.016053854,-0.015941074,1204.6676,0.0,0.0,0.0,0.0,0.0,0.0,0.0,0.0,0.0,0.0,0.0,0.0,0.0,87.46238,-0.011522936,-34.0699,0.0010310712,0.010693694,-0.0012767736,541482.0,0.0,0.003339901,0.0056592547,8546.636,8662.988,8440.664,8543.239,0.3002901,0.0,0.0,0.0
191.49356,191.49356,2.016,0.0,0.0,331.9789,11468.0,1.0193026,100.0,-0.1503229,0.0,8.0,0.0,1.0,4000000.0,110.0,1.0,0.0,0.0,10.0,0.0,0.0,773.97125,0.85710895,-515.80896,0.07556319,-3.873084,0.071953595,323.71918,323.8109,321.56497,321.7291,235.0,235.0,273.0,274.0,89.0,89.0,89.0,89.0,0.0,0.0,0.0,0.0,0.051316246,0.051502265,0.05406448,0.054321103,0.0,0.0,0.0,0.0,311.47147,359.22818,-796.6026,-769.1232,0.0,0.0,0.0,2.0,1.0,1.9433153,3.67968E-4,0.0011256933,89.0,89.0,89.0,89.0,22.047926,22.047926,24.919281,24.919281,-0.024272146,-0.024153657,-0.031035272,-0.030748082,1184.1296,0.0,0.0,0.0,0.0,0.0,0.0,0.0,0.0,0.0,0.0,0.0,0.0,0.0,85.91508,0.0129133295,-33.503094,-0.004461565,0.00992045,-0.014837515,548262.56,0.0,0.0029102054,0.0059119933,8339.133,8476.491,8815.447,8933.742,0.3001032,0.0,0.0,0.0
196.04973,196.04973,2.066,0.0,0.0,324.59735,11172.0,0.0,100.0,-0.18954423,0.0,8.0,0.0,1.0,4000000.0,110.0,1.0,0.0,0.0,10.0,0.0,0.0,778.21625,0.85879093,-517.46533,0.08466995,-4.181483,0.0075719883,315.5674,315.6472,314.33597,314.37466,294.0,294.0,336.0,337.0,89.0,89.0,89.0,89.0,0.0,0.0,0.0,0.0,0.049980447,0.050186437,0.05391409,0.054195687,0.0,0.0,0.0,0.0,233.28505,210.84845,-363.17105,-386.1978,0.0,0.0,0.0,2.0,1.0,1.9438059,4.0838466E-4,0.0019903183,89.0,89.0,89.0,89.0,22.047926,22.047926,24.919281,24.919281,-0.027631052,-0.027541162,-0.031426772,-0.031474326,1156.8871,0.0,0.0,0.0,0.0,0.0,0.0,0.0,0.0,0.0,0.0,0.0,0.0,0.0,83.99106,0.04339768,-32.793232,-0.0023483657,0.010144249,-0.008332059,549840.94,0.0,0.0037809971,0.0088728415,7697.8906,7848.745,8792.624,8924.555,0.30182076,0.0,0.0,0.0
200.50356,200.50356,2.116,0.0,0.0,317.21826,10904.0,0.0,100.0,-0.18913138,0.0,8.0,0.0,1.0,4000000.0,110.0,1.0,0.0,0.0,10.0,0.0,0.0,782.36505,0.8604739,-519.08636,0.08937526,-4.17489,-0.0604554,308.01913,308.11102,306.74084,306.8059,347.0,348.0,392.0,393.0,89.0,89.0,89.0,89.0,0.0,0.0,0.0,0.0,0.049255528,0.049485557,0.05334859,0.053664,0.0,0.0,0.0,0.0,312.24933,278.98996,55.72288,24.247168,0.0,0.0,0.0,2.0,1.0,1.9443291,4.445552E-4,0.0020130873,89.0,89.0,89.0,89.0,22.047926,22.047926,24.919281,24.919281,-0.028849825,-0.02872331,-0.032870233,-0.032860458,1125.3484,0.0,0.0,0.0,0.0,0.0,0.0,0.0,0.0,0.0,0.0,0.0,0.0,0.0,82.0667,0.022474686,-32.086086,0.0010713558,0.010509931,0.0022844723,547997.0,0.0,0.0054292786,0.010667744,7352.7207,7515.5186,8383.963,8527.246,0.30358982,0.0,0.0,0.0
204.85504,204.85504,2.166,0.0,0.0,309.86633,10643.0,0.0,100.0,-0.17960893,0.0,8.0,0.0,1.0,4000000.0,110.0,1.0,0.0,0.0,10.0,0.0,0.0,786.4177,0.8616374,-520.67206,0.090993166,-4.153013,0.023687653,300.69382,300.7039,299.4228,299.58112,395.0,396.0,443.0,443.0,89.0,89.0,89.0,89.0,0.0,0.0,0.0,0.0,0.049139258,0.049196422,0.052981943,0.053446427,0.0,0.0,0.0,0.0,-216.26648,-168.52316,51.283833,-57.037178,0.0,0.0,0.0,2.0,1.0,1.9449058,-1.9004915E-4,0.0018633604,89.0,89.0,89.0,89.0,22.047926,22.047926,24.919281,24.919281,-0.029423574,-0.029585749,-0.033530444,-0.03325944,1089.2986,0.0,0.0,0.0,0.0,0.0,0.0,0.0,0.0,0.0,0.0,0.0,0.0,0.0,80.14955,0.028757745,-31.38119,-0.013516725,0.012428753,0.0059258942,543450.4,0.0,0.0066767926,0.011569637,7277.5913,7362.0146,8223.455,8436.576,0.3047104,0.0,0.0,0.0
209.10509,209.10509,2.216,0.0,0.0,302.60477,10382.0,0.0,100.0,-0.15131418,0.0,8.0,0.0,1.0,4000000.0,110.0,1.0,0.0,0.0,10.0,0.0,0.0,790.3751,0.8635353,-522.2228,0.09704387,-4.1110663,0.01584147,293.30078,293.3141,292.0528,290.44116,439.0,439.0,488.0,489.0,89.0,89.0,89.0,89.0,0.0,0.0,0.0,0.0,0.048498344,0.0485742,0.052601974,0.05306532,0.0,0.0,0.0,0.0,-229.03374,-155.95705,-129.65797,91.677895,0.0,0.0,0.0,2.0,1.0,1.9455975,-7.973361E-4,0.0019711256,89.0,89.0,89.0,89.0,22.047926,22.047926,24.919281,24.919281,-0.030532317,-0.030711357,-0.034653496,-0.040155005,1046.3223,0.0,0.0,0.0,0.0,0.0,0.0,0.0,0.0,0.0,0.0,0.0,0.0,0.0,78.255325,0.044838246,-30.686485,-0.012282982,0.013724021,-7.5193495E-4,535132.6,0.0,0.008639643,0.0136052165,6947.617,7042.589,7946.167,8189.181,0.30653572,0.0,0.0,0.0
213.25497,213.25497,2.266,0.0,0.0,295.41483,10101.0,0.0,100.0,-0.12576587,0.0,8.0,0.0,1.0,4000000.0,110.0,1.0,0.0,0.0,10.0,0.0,0.0,794.2384,0.86505663,-523.7389,0.08898389,-4.0667486,-0.100215465,285.53082,285.1217,284.5865,282.72934,478.0,479.0,529.0,529.0,89.0,89.0,89.0,89.0,0.0,0.0,0.0,0.0,0.047016785,0.04705797,0.052096374,0.052341208,0.0,0.0,0.0,0.0,-1189.573,2620.88,-1149.2863,3735.5925,0.0,0.0,0.0,2.0,1.0,1.9463125,4.1294371E-4,0.0024302006,89.0,89.0,89.0,89.0,22.047926,22.047926,24.919281,24.919281,-0.033094954,-0.03473002,-0.03650061,-0.043486062,991.64386,0.0,0.0,0.0,0.0,0.0,0.0,0.0,0.0,0.0,0.0,0.0,0.0,0.0,76.380226,0.008038085,-29.997513,0.042772654,0.016619889,-0.027663343,521276.75,0.0,0.009863567,0.016044294,6292.6694,6541.41,7567.004,7836.499,0.30805206,0.0,0.0,0.0
217.30478,217.30478,2.316,0.0,0.0,288.2075,9846.0,0.0,100.0,-0.16856867,0.0,8.0,0.0,1.0,4000000.0,110.0,1.0,0.0,0.0,10.0,0.0,0.0,798.00775,0.8657177,-525.2205,0.11303651,-4.0658197,0.053529896,278.43814,277.9061,277.60776,276.1364,514.0,514.0,565.0,565.0,89.0,89.0,89.0,89.0,0.0,0.0,0.0,0.0,0.04602352,0.046811767,0.051859487,0.052623913,0.0,0.0,0.0,0.0,736.38696,-1041.0725,163.29286,-449.40405,0.0,0.0,0.0,2.0,1.0,1.9473991,4.8880343E-4,0.0026093721,89.0,89.0,89.0,89.0,22.047926,22.047926,24.919281,24.919281,-0.033630908,-0.035861354,-0.036439836,-0.041987658,935.0507,0.0,0.0,0.0,0.0,0.0,0.0,0.0,0.0,0.0,0.0,0.0,0.0,0.0,74.49962,0.025867846,-29.309244,-0.015987959,0.02683466,0.004395632,504257.47,0.0,0.009761622,0.01672329,6489.615,6491.3213,7587.7695,7918.05,0.30865192,0.0,0.0,0.0
221.25471,221.25471,2.366,0.0,0.0,281.02924,9591.0,0.0,100.0,-0.19229613,0.0,8.0,0.0,1.0,4000000.0,110.0,1.0,0.0,0.0,10.0,0.0,0.0,801.6829,0.8677299,-526.66833,0.1498636,-4.017508,0.13366833,271.286,270.62128,270.30414,271.72638,546.0,546.0,598.0,598.0,89.0,89.0,89.0,89.0,0.0,0.0,0.0,0.0,0.04511388,0.04560181,0.051246013,0.053860523,0.0,0.0,0.0,0.0,2813.2612,-1675.4954,2277.9597,-9180.73,0.0,0.0,0.0,2.0,1.0,1.9487367,-6.9998595E-4,0.0025494099,89.0,89.0,89.0,89.0,22.047926,22.047926,24.919281,24.919281,-0.034309775,-0.037172068,-0.037346166,-0.03309721,874.91455,0.0,0.0,0.0,0.0,0.0,0.0,0.0,0.0,0.0,0.0,0.0,0.0,0.0,72.61926,0.07243101,-28.642199,-0.07678028,0.033773456,0.061295927,484371.7,0.0,0.007206689,0.017531127,6467.033,6133.628,7405.507,8364.115,0.31071472,0.0,0.0,0.0
225.10567,225.10567,2.416,0.0,0.0,273.9498,11155.0,0.0,100.0,-0.14951068,0.0,8.0,0.0,1.0,4000000.0,110.0,1.0,0.0,0.0,10.0,0.0,0.0,805.26465,0.8720542,-528.0836,0.1935184,-3.9696617,0.05010601,264.59708,264.4669,262.53983,263.69687,576.0,576.0,628.0,628.0,89.0,89.0,89.0,89.0,0.0,0.0,0.0,0.0,0.045291983,0.044217844,0.050763514,0.052284986,0.0,0.0,0.0,0.0,-1121.029,-4855.6694,1168.4104,-362.74197,0.0,0.0,0.0,2.0,1.0,1.9501569,-0.00466811,0.00204885,89.0,89.0,89.0,89.0,22.047926,22.047926,24.919281,24.919281,-0.033560198,-0.03446207,-0.041491352,-0.03748992,1155.0885,0.0,0.0,0.0,0.0,0.0,0.0,0.0,0.0,0.0,0.0,0.0,0.0,0.0,70.756355,0.1033371,-28.005472,-0.08564663,0.023659857,0.011160361,549822.75,0.0,0.010192429,0.017108046,6198.9316,5952.597,6834.0645,7395.418,0.31504822,0.0,0.0,0.0
228.86009,228.86009,2.466,0.0,0.0,267.07156,10370.0,0.0,100.0,-0.14332859,0.0,7.0,0.0,1.0,4000000.0,110.0,1.0,0.0,0.0,10.0,0.0,0.0,808.7548,0.8765743,-529.46747,0.18666089,-3.9179242,-0.09686679,257.23785,257.21066,255.46266,256.71338,603.0,603.0,655.0,655.0,89.0,89.0,89.0,89.0,0.0,0.0,0.0,0.0,0.042277828,0.040785424,0.050440267,0.051588476,0.0,0.0,0.0,0.0,-589.5364,534.8325,-227.26352,542.3158,0.0,0.0,0.0,2.0,1.0,1.9511393,-0.0062905606,0.003186345,89.0,89.0,89.0,89.0,22.047926,22.047926,24.919281,24.919281,-0.03635318,-0.036800597,-0.043122716,-0.038982578,1043.9054,0.0,0.0,0.0,0.0,0.0,0.0,0.0,0.0,0.0,0.0,0.0,0.0,0.0,68.94798,0.07230507,-27.382723,-0.015284656,0.016581642,-0.016578846,534514.4,0.0,0.011989471,0.021781327,5414.228,5376.7144,6605.5327,7146.322,0.31956863,0.0,0.0,0.0
232.51831,232.51831,2.516,0.0,0.0,260.11703,10076.0,0.0,100.0,-0.16765662,0.0,7.0,0.0,1.0,4000000.0,110.0,1.0,0.0,0.0,10.0,0.0,0.0,812.15405,0.87937033,-530.81976,0.16500139,-3.9381974,-0.045548145,249.99875,249.9961,248.67056,249.99002,627.0,627.0,679.0,679.0,89.0,89.0,89.0,89.0,0.0,0.0,0.0,0.0,0.039346095,0.038351472,0.050203137,0.05151453,0.0,0.0,0.0,0.0,699.1312,337.58282,174.71909,-138.2008,0.0,0.0,0.0,2.0,1.0,1.9519457,-0.0071286433,0.0040183067,89.0,89.0,89.0,89.0,22.047926,22.047926,24.919281,24.919281,-0.03862914,-0.038936254,-0.04379102,-0.039021723,986.7905,0.0,0.0,0.0,0.0,0.0,0.0,0.0,0.0,0.0,0.0,0.0,0.0,0.0,67.123436,0.046346627,-26.743017,-0.027267225,0.01633493,-0.002217371,520012.53,0.0,0.012566323,0.024417346,5284.993,5230.2837,6560.0977,7126.5967,0.32238007,0.0,0.0,0.0
236.08017,236.08017,2.566,0.0,0.0,253.18874,9796.0,0.0,100.0,-0.2402334,0.0,7.0,0.0,1.0,4000000.0,110.0,1.0,0.0,0.0,10.0,0.0,0.0,815.4622,0.88164896,-532.1399,0.15856946,-3.9120657,-0.003651332,243.05937,243.04114,241.80594,243.11021,649.0,649.0,701.0,701.0,89.0,89.0,89.0,89.0,0.0,0.0,0.0,0.0,0.037669126,0.036664553,0.050116267,0.051312614,0.0,0.0,0.0,0.0,102.98343,92.87143,-109.12566,28.17661,0.0,0.0,0.0,2.0,1.0,1.9527931,-0.008397896,0.004479289,89.0,89.0,89.0,89.0,22.047926,22.047926,24.919281,24.919281,-0.03970891,-0.040123876,-0.04459808,-0.039935213,923.13654,0.0,0.0,0.0,0.0,0.0,0.0,0.0,0.0,0.0,0.0,0.0,0.0,0.0,65.30846,0.047556624,-26.098671,-0.025317308,0.018371534,0.0021919473,500373.34,0.0,0.013123014,0.02614285,5176.579,5093.023,6470.271,6989.9004,0.32464314,0.0,0.0,0.0
239.54633,239.54633,2.616,0.0,0.0,246.32231,9515.0,0.0,100.0,-0.54470813,0.0,7.0,0.0,1.0,4000000.0,110.0,1.0,0.0,0.0,10.0,0.0,0.0,818.68005,0.88419014,-533.4281,0.18642926,-3.8761992,-0.013045009,236.03046,236.08559,234.57137,236.12569,669.0,669.0,720.0,721.0,89.0,89.0,89.0,89.0,0.0,0.0,0.0,0.0,0.03607119,0.03514693,0.049820334,0.05104593,0.0,0.0,0.0,0.0,-167.85254,33.165546,-72.79515,-30.57718,0.0,0.0,0.0,2.0,1.0,1.953963,-0.009443601,0.004834175,89.0,89.0,89.0,89.0,22.047926,22.047926,24.919281,24.919281,-0.0413031,-0.041698642,-0.047098365,-0.041575648,857.3749,0.0,0.0,0.0,0.0,0.0,0.0,0.0,0.0,0.0,0.0,0.0,0.0,0.0,63.506954,0.052496772,-25.46669,-0.018661736,0.028965374,-0.00141493,478452.66,0.0,0.014180249,0.028052287,4934.1387,4913.1914,6247.964,6776.165,0.3271675,0.0,0.0,0.0
242.91759,242.91759,2.666,0.0,0.0,239.50558,11055.0,0.0,100.0,-0.85513496,0.0,7.0,0.0,1.0,4000000.0,110.0,1.0,0.0,0.0,10.0,0.0,0.0,821.8081,0.88671076,-534.6852,0.2360363,-3.8567717,-0.031260163,228.70749,228.88235,227.24326,229.34668,687.0,687.0,738.0,739.0,89.0,89.0,89.0,89.0,0.0,0.0,0.0,0.0,0.034069847,0.033624224,0.049457457,0.050811484,0.0,0.0,0.0,0.0,-96.86805,-91.98646,-90.96708,306.97876,0.0,0.0,0.0,2.0,1.0,1.9558161,-0.009966478,0.005383134,89.0,89.0,89.0,89.0,22.047926,22.047926,24.919281,24.919281,-0.044346116,-0.044557568,-0.050387777,-0.04295527,1144.5125,0.0,0.0,0.0,0.0,0.0,0.0,0.0,0.0,0.0,0.0,0.0,0.0,0.0,61.711308,0.047617186,-24.856863,-0.0114675,0.04405184,-0.007769896,549716.5,0.0,0.015211574,0.030309627,4607.9067,4704.7466,6033.5913,6640.284,0.32964516,0.0,0.0,0.0
246.19568,246.19568,2.716,0.0,0.0,232.88573,10196.0,0.0,100.0,-1.0835698,0.0,6.0,0.0,1.0,4000000.0,110.0,1.0,0.0,0.0,10.0,0.0,0.0,824.8475,0.8888015,-535.91296,0.29600286,-3.7675712,-0.035732545,222.46182,222.9537,219.63359,222.5742,704.0,704.0,754.0,755.0,89.0,89.0,89.0,89.0,0.0,0.0,0.0,0.0,0.03238877,0.032375317,0.049004525,0.050618812,0.0,0.0,0.0,0.0,-67.36369,253.61627,56.38,140.69525,0.0,0.0,0.0,2.0,1.0,1.9583713,-0.010264067,0.0056928396,89.0,89.0,89.0,89.0,22.047926,22.047926,24.919281,24.919281,-0.04358077,-0.04281991,-0.05581179,-0.044880465,1009.94946,0.0,0.0,0.0,0.0,0.0,0.0,0.0,0.0,0.0,0.0,0.0,0.0,0.0,59.957195,0.036897466,-24.289745,-0.008701397,0.056061164,-0.0042808624,525952.9,0.0,0.016317058,0.032067645,4400.2188,4629.8604,5750.785,6459.5444,0.33179665,0.0,0.0,0.0
249.38138,249.38138,2.766,0.0,0.0,226.20662,9854.0,0.0,100.0,-1.3953797,0.0,6.0,0.0,1.0,4000000.0,110.0,1.0,0.0,0.0,10.0,0.0,0.0,827.7984,0.89057314,-537.1128,0.35957837,-3.7768562,-0.0289866,214.89699,215.65343,212.632,216.0232,719.0,719.0,769.0,770.0,89.0,89.0,89.0,89.0,0.0,0.0,0.0,0.0,0.030653013,0.031161899,0.04879781,0.050438836,0.0,0.0,0.0,0.0,-139.93742,-93.73649,-113.80611,114.731476,0.0,0.0,0.0,2.0,1.0,1.9614892,-0.010482997,0.006224513,89.0,89.0,89.0,89.0,22.047926,22.047926,24.919281,24.919281,-0.04877938,-0.04716659,-0.058791205,-0.0457937,936.97217,0.0,0.0,0.0,0.0,0.0,0.0,0.0,0.0,0.0,0.0,0.0,0.0,0.0,58.179043,0.033616446,-23.737246,3.1797914E-5,0.06890309,-0.011651709,504883.47,0.0,0.017046696,0.03392132,4130.4707,4453.374,5655.325,6368.3467,0.33356857,0.0,0.0,0.0
252.47455,252.47455,2.816,0.0,0.0,219.56868,9525.0,0.0,100.0,-1.8205079,0.0,6.0,0.0,1.0,4000000.0,110.0,1.0,0.0,0.0,10.0,0.0,0.0,830.66034,0.8921505,-538.2858,0.4355191,-3.7432606,-0.03450045,207.48334,208.71521,204.85828,209.3869,733.0,733.0,782.0,783.0,89.0,89.0,89.0,89.0,0.0,0.0,0.0,0.0,0.028786682,0.030029925,0.04844233,0.050307684,0.0,0.0,0.0,0.0,85.39489,88.04351,-44.994045,-74.2033,0.0,0.0,0.0,2.0,1.0,1.9652995,-0.01000096,0.0067005157,89.0,89.0,89.0,89.0,22.047926,22.047926,24.919281,24.919281,-0.053617574,-0.05013549,-0.06501749,-0.047235597,859.772,0.0,0.0,0.0,0.0,0.0,0.0,0.0,0.0,0.0,0.0,0.0,0.0,0.0,56.40006,0.028874023,-23.215754,0.009831439,0.08329448,-0.014201616,479286.62,0.0,0.017990103,0.035759162,3857.4148,4383.167,5434.3467,6237.2,0.3350935,0.0,0.0,0.0
255.47604,255.47604,2.866,0.0,0.0,213.03731,9276.0,0.0,100.0,-2.8078709,0.0,6.0,0.0,1.0,4000000.0,110.0,1.0,0.0,0.0,10.0,0.0,0.0,833.43335,0.8933691,-539.43384,0.563718,-3.6352403,-0.04076696,203.0902,203.98654,204.01071,207.67632,746.0,746.0,794.0,796.0,89.0,89.0,89.0,89.0,0.0,0.0,0.0,0.0,0.02699492,0.02912814,0.048006557,0.05018746,0.0,0.0,0.0,0.0,46.502834,59.001842,-84.27503,-71.81613,0.0,0.0,0.0,2.0,1.0,1.9701103,-0.008977792,0.0071617365,89.0,89.0,89.0,89.0,22.047926,22.047926,24.919281,24.919281,-0.04879767,-0.045923587,-0.057054542,-0.03544443,793.7741,0.0,0.0,0.0,0.0,0.0,0.0,0.0,0.0,0.0,0.0,0.0,0.0,0.0,54.630688,0.02008932,-22.746616,0.023745079,0.11264461,-0.015713025,454373.72,0.0,0.018863058,0.037502863,3535.476,4312.2627,5206.8076,6163.753,0.33634567,0.0,0.0,0.0
258.3936,258.3936,2.916,0.0,0.0,207.23901,8993.0,0.0,100.0,-4.007594,0.0,6.0,0.0,1.0,4000000.0,110.0,1.0,0.0,0.0,10.0,0.0,0.0,836.1232,0.8939614,-540.5635,0.7317816,-3.4969637,-0.04686801,195.17615,197.45206,189.5563,196.81743,757.0,758.0,805.0,807.0,89.0,89.0,89.0,89.0,0.0,0.0,0.0,0.0,0.025803156,0.029854711,0.046789754,0.050008252,0.0,0.0,0.0,0.0,-125.27927,-755.8598,1170.2878,64.70828,0.0,0.0,0.0,2.0,1.0,1.9770485,-0.0069075692,0.006883502,89.0,89.0,89.0,89.0,22.047926,22.047926,24.919281,24.919281,-0.055220805,-0.048179295,-0.07768339,-0.05132512,720.69147,0.0,0.0,0.0,0.0,0.0,0.0,0.0,0.0,0.0,0.0,0.0,0.0,0.0,53.011967,0.00441043,-22.441504,0.018890379,0.14954318,-0.018828511,425521.78,0.0,0.020514563,0.037982915,3366.0623,4597.3516,4608.129,5939.7344,0.33689404,0.0,0.0,0.0
261.23068,261.23068,2.966,0.0,0.0,201.62642,10338.0,0.0,100.0,-5.011412,0.0,5.0,0.0,1.0,4000000.0,110.0,1.0,0.0,0.0,10.0,0.0,0.0,838.7317,0.89378786,-541.6795,0.93432,-3.2592945,-0.054833494,191.167,193.68367,184.74533,191.58649,768.0,769.0,815.0,817.0,89.0,89.0,89.0,89.0,0.0,0.0,0.0,0.0,0.024614569,0.030078355,0.0463234,0.049823258,0.0,0.0,0.0,0.0,-594.46466,624.036,-39.25409,812.2533,0.0,0.0,0.0,2.0,1.0,1.9858583,-0.0044284533,0.007200718,89.0,89.0,89.0,89.0,22.047926,22.047926,24.919281,24.919281,-0.047240514,-0.040264152,-0.07282767,-0.050138712,1037.6499,0.0,0.0,0.0,0.0,0.0,0.0,0.0,0.0,0.0,0.0,0.0,0.0,0.0,51.41006,-0.011656403,-22.222225,0.05188354,0.18899715,-0.032768622,532955.94,0.0,0.021453224,0.038951192,2976.9636,4703.5156,4393.799,5882.4565,0.3366108,0.0,0.0,0.0
263.98996,263.98996,3.016,0.0,0.0,196.09369,9986.0,0.0,100.0,-5.758854,0.0,5.0,0.0,1.0,4000000.0,110.0,1.0,0.0,0.0,10.0,0.0,0.0,841.2599,0.8929076,-542.7861,1.0624409,-3.2046692,-0.0486005,184.27553,187.57477,178.8474,186.40268,778.0,779.0,825.0,827.0,89.0,89.0,89.0,89.0,0.0,0.0,0.0,0.0,0.023238288,0.030181002,0.045883074,0.04981392,0.0,0.0,0.0,0.0,-433.98132,243.75241,-90.36363,662.4117,0.0,0.0,0.0,2.0,1.0,1.9962319,-0.0011451817,0.007573724,89.0,89.0,89.0,89.0,22.047926,22.047926,24.919281,24.919281,-0.05503019,-0.044903863,-0.0748792,-0.049403068,968.8604,0.0,0.0,0.0,0.0,0.0,0.0,0.0,0.0,0.0,0.0,0.0,0.0,0.0,49.803867,-0.023392076,-22.059153,0.056754112,0.22020504,-0.037255876,515165.38,0.0,0.022227213,0.04001992,2713.5312,4739.2295,4196.535,5854.412,0.33581638,0.0,0.0,0.0
266.67184,266.67184,3.066,0.0,0.0,190.56898,9650.0,0.0,100.0,-6.4814262,0.0,5.0,0.0,1.0,4000000.0,110.0,1.0,0.0,0.0,10.0,0.0,0.0,843.7074,0.8914249,-543.8854,1.1609504,-3.1708343,-0.059305027,177.42361,181.80997,172.1834,180.7143,787.0,788.0,833.0,836.0,89.0,89.0,89.0,89.0,0.0,0.0,0.0,0.0,0.021692853,0.029900199,0.045655794,0.04962216,0.0,0.0,0.0,0.0,-533.0622,439.54694,-219.12302,667.7895,0.0,0.0,0.0,2.0,1.0,2.0080242,0.0026542526,0.008129358,89.0,89.0,89.0,89.0,22.047926,22.047926,24.919281,24.919281,-0.062789865,-0.047759388,-0.081793964,-0.051560126,888.7505,0.0,0.0,0.0,0.0,0.0,0.0,0.0,0.0,0.0,0.0,0.0,0.0,0.0,48.179985,-0.036270663,-21.929201,0.0683382,0.24532193,-0.047658633,489023.28,0.0,0.02301679,0.041318983,2384.394,4770.0557,4074.4336,5721.504,0.33435917,0.0,0.0,0.0
269.27646,269.27646,3.116,0.0,0.0,185.10603,9336.0,0.0,100.0,-7.2930427,0.0,5.0,0.0,1.0,4000000.0,110.0,1.0,0.0,0.0,10.0,0.0,0.0,846.0736,0.88920337,-544.97925,1.2172707,-3.150286,-0.07244239,173.26382,176.8002,167.38744,176.80322,796.0,797.0,841.0,844.0,89.0,89.0,89.0,89.0,0.0,0.0,0.0,0.0,0.019959467,0.029574914,0.045468286,0.049418576,0.0,0.0,0.0,0.0,-411.55148,213.06795,57.385853,406.3412,0.0,0.0,0.0,2.0,1.0,2.0210207,0.0074111884,0.008758426,89.0,89.0,89.0,89.0,22.047926,22.047926,24.919281,24.919281,-0.07328072,-0.051605497,-0.09583354,-0.056342468,809.70734,0.0,0.0,0.0,0.0,0.0,0.0,0.0,0.0,0.0,0.0,0.0,0.0,0.0,46.55607,-0.052407254,-21.826035,0.07889118,0.2645769,-0.05431014,460515.5,0.0,0.0237753,0.042731885,2058.9387,4763.6494,3982.9043,5581.521,0.33215427,0.0,0.0,0.0
271.81375,271.81375,3.166,0.0,0.0,181.11504,9372.0,0.0,100.0,-8.589752,0.0,5.0,0.0,1.0,4000000.0,110.0,1.0,0.0,0.0,10.0,0.0,0.0,848.366,0.88715917,-546.0755,1.6340797,-2.319917,0.07283822,173.89761,175.98639,172.00978,176.7987,804.0,805.0,849.0,851.0,89.0,89.0,89.0,89.0,0.0,0.0,0.0,0.0,0.020424234,0.031771295,0.042523388,0.051468477,0.0,0.0,0.0,0.0,3453.6187,707.0707,2237.2703,-5910.4883,0.0,0.0,0.0,2.0,1.0,2.0360675,0.0123991575,0.006689191,89.0,89.0,89.0,89.0,22.047926,22.047926,24.919281,24.919281,-0.03202593,-0.033352897,-0.03635436,-0.025911033,819.3685,0.0,0.0,0.0,0.0,0.0,0.0,0.0,0.0,0.0,0.0,0.0,0.0,0.0,45.225315,-0.017025778,-22.039507,0.03354855,0.31630585,0.06290208,464220.2,0.0,0.025337268,0.04095524,2543.2576,5317.204,2847.085,6477.9805,0.3301201,0.0,0.0,0.0
274.29196,274.29196,3.216,0.0,0.0,177.17651,9249.0,0.0,100.0,-9.899949,0.0,5.0,0.0,1.0,4000000.0,110.0,1.0,0.0,0.0,10.0,0.0,0.0,850.5906,0.88655204,-547.1814,1.8330593,-1.7905452,0.0013822336,172.16322,173.60576,172.1426,174.28854,811.0,812.0,856.0,858.0,89.0,89.0,89.0,89.0,0.0,0.0,0.0,0.0,0.023958191,0.03156398,0.042103406,0.04985153,0.0,0.0,0.0,0.0,-1837.9904,5022.06,-2448.6956,2073.0522,0.0,0.0,0.0,2.0,1.0,2.0520647,0.01145188,0.005014062,89.0,89.0,89.0,89.0,22.047926,22.047926,24.919281,24.919281,-0.022092298,-0.024418058,-0.015973443,-0.01941944,786.7452,0.0,0.0,0.0,0.0,0.0,0.0,0.0,0.0,0.0,0.0,0.0,0.0,0.0,43.89127,-0.0077360254,-22.265253,0.04389313,0.33577934,-0.0017728973,451664.88,0.0,0.027067406,0.040100805,2596.3633,5471.618,2455.9622,5927.9434,0.32943726,0.0,0.0,0.0
276.7133,276.7133,3.266,0.0,0.0,172.88533,8934.0,0.0,100.0,-12.130831,0.0,5.0,0.0,1.0,4000000.0,110.0,1.0,0.0,0.0,10.0,0.0,0.0,852.74817,0.88714355,-548.3005,1.7001903,-2.57372,0.031239137,166.21616,167.68536,160.60884,170.00182,818.0,819.0,862.0,865.0,89.0,89.0,89.0,89.0,0.0,0.0,0.0,0.0,0.022650616,0.032692645,0.04256281,0.05024197,0.0,0.0,0.0,0.0,-383.3949,-3447.9927,1175.0085,-668.5405,0.0,0.0,0.0,2.0,1.0,2.0698698,0.011500117,0.0060555935,89.0,89.0,89.0,89.0,22.047926,22.047926,24.919281,24.919281,-0.03265237,-0.034752097,-0.072041474,-0.020245425,706.7338,0.0,0.0,0.0,0.0,0.0,0.0,0.0,0.0,0.0,0.0,0.0,0.0,0.0,42.452663,0.028158603,-22.450983,-0.032203466,0.38060394,-0.021684878,420036.4,0.0,0.026276782,0.04197854,2222.3325,4795.3394,2918.834,6203.659,0.32995987,0.0,0.0,0.0
279.06854,279.06854,3.316,0.0,0.0,168.62799,8755.0,0.0,100.0,-15.875403,0.0,5.0,0.0,1.0,4000000.0,110.0,1.0,0.0,0.0,10.0,0.0,0.0,854.8308,0.88910156,-549.42816,2.1298919,-1.9613817,-0.031877458,163.10576,164.73358,164.7244,166.55421,825.0,826.0,868.0,871.0,89.0,89.0,89.0,89.0,0.0,0.0,0.0,0.0,0.020336544,0.030476905,0.042300273,0.050455347,0.0,0.0,0.0,0.0,1079.3142,762.04224,-655.8403,-2582.1624,0.0,0.0,0.0,2.0,1.0,2.0915177,0.012416297,0.00675869,89.0,89.0,89.0,89.0,22.047926,22.047926,24.919281,24.919281,-0.025267355,-0.030682478,-0.020146193,-0.015515279,664.8876,0.0,0.0,0.0,0.0,0.0,0.0,0.0,0.0,0.0,0.0,0.0,0.0,0.0,40.972015,0.044525318,-22.702017,0.058426574,0.49812803,-0.016408535,403245.1,0.0,0.02725575,0.04480162,1742.974,4898.717,2525.361,6333.5737,0.33197498,0.0,0.0,0.0
281.36536,281.36536,3.366,0.0,0.0,165.01306,9302.0,0.0,100.0,-19.948282,0.0,5.0,0.0,1.0,4000000.0,110.0,1.0,0.0,0.0,10.0,0.0,0.0,856.8427,0.89052784,-550.5743,2.231945,-1.943498,-0.112456135,161.14955,162.8127,156.24586,163.4978,831.0,832.0,873.0,877.0,89.0,89.0,89.0,89.0,0.0,0.0,0.0,0.0,0.018606793,0.030854018,0.040519267,0.050437167,0.0,0.0,0.0,0.0,907.20355,-1379.3125,1888.6907,-1106.2501,0.0,0.0,0.0,2.0,1.0,2.1179843,0.014524969,0.006259918,89.0,89.0,89.0,89.0,22.047926,22.047926,24.919281,24.919281,-0.019332634,-0.021989338,-0.05321054,-0.011436153,800.7414,0.0,0.0,0.0,0.0,0.0,0.0,0.0,0.0,0.0,0.0,0.0,0.0,0.0,39.577496,0.0119233085,-23.122477,0.013449408,0.56030446,-0.0068938746,457080.78,0.0,0.029259112,0.0455832,1586.5013,5128.4966,1747.0525,6099.089,0.33340073,0.0,0.0,0.0
283.6067,283.6067,3.416,0.0,0.0,161.62619,9868.0,0.0,100.0,-24.77805,0.0,4.0,0.0,1.0,4000000.0,110.0,1.0,0.0,0.0,10.0,0.0,0.0,858.7848,0.8905114,-551.7444,2.4874046,-1.867493,-0.052406788,156.94023,158.73076,150.78128,159.93074,836.0,838.0,878.0,882.0,89.0,89.0,89.0,89.0,0.0,0.0,0.0,0.0,0.017807027,0.03153496,0.03984871,0.05087179,0.0,0.0,0.0,0.0,199.91843,-575.14606,887.82446,-789.13257,0.0,0.0,0.0,2.0,1.0,2.1476493,0.01625589,0.0062351227,89.0,89.0,89.0,89.0,22.047926,22.047926,24.919281,24.919281,-0.018426443,-0.026869643,-0.06205899,-0.012634454,940.41693,0.0,0.0,0.0,0.0,0.0,0.0,0.0,0.0,0.0,0.0,0.0,0.0,0.0,38.165386,-0.0042674076,-23.64464,0.021713281,0.62219054,-0.014570948,506020.72,0.0,0.029210377,0.045528095,1402.0164,5411.6133,1562.1903,6441.6094,0.3333845,0.0,0.0,0.0
285.79013,285.79013,3.466,0.0,0.0,158.152,9634.0,0.0,100.0,-30.378983,0.0,4.0,0.0,1.0,4000000.0,110.0,1.0,0.0,0.0,10.0,0.0,0.0,860.6538,0.89058995,-552.9409,2.6912446,-1.792196,-0.020752963,152.93985,154.99425,146.41191,155.16573,842.0,843.0,882.0,887.0,89.0,89.0,89.0,89.0,0.0,0.0,0.0,0.0,0.017007861,0.031852737,0.03946504,0.05129542,0.0,0.0,0.0,0.0,484.29962,-794.3227,371.83456,-1117.1666,0.0,0.0,0.0,2.0,1.0,2.1803865,0.017554043,0.006315589,89.0,89.0,89.0,89.0,22.047926,22.047926,24.919281,24.919281,-0.020127283,-0.0299786,-0.057098195,-0.019451346,885.03845,0.0,0.0,0.0,0.0,0.0,0.0,0.0,0.0,0.0,0.0,0.0,0.0,0.0,36.673965,0.009162706,-24.185999,0.01679165,0.6861025,-0.011218928,487789.56,0.0,0.0291125,0.045706797,1251.114,5574.577,1412.3943,6670.0684,0.33349037,0.0,0.0,0.0
287.91306,287.91306,3.516,0.0,0.0,154.62422,9391.0,0.0,100.0,-34.963463,0.0,4.0,0.0,1.0,4000000.0,110.0,1.0,0.0,0.0,10.0,0.0,0.0,862.447,0.8913446,-554.16364,2.7129333,-1.839565,-0.05273016,147.54391,151.99849,139.13298,149.83316,847.0,848.0,887.0,891.0,89.0,89.0,89.0,89.0,0.0,0.0,0.0,0.0,0.016111018,0.031333458,0.039191447,0.051325344,0.0,0.0,0.0,0.0,355.2183,-381.39664,-133.69469,-282.63773,0.0,0.0,0.0,2.0,1.0,2.2154768,0.01800765,0.0064435005,89.0,89.0,89.0,89.0,22.047926,22.047926,24.919281,24.919281,-0.025622908,-0.031317372,-0.07109427,-0.029309684,824.5275,0.0,0.0,0.0,0.0,0.0,0.0,0.0,0.0,0.0,0.0,0.0,0.0,0.0,35.141594,0.01819846,-24.695576,0.0034123976,0.71667784,-0.0049771084,466197.9,0.0,0.029579448,0.046630926,1085.2369,5533.87,1250.781,6581.911,0.33424568,0.0,0.0,0.0
289.9742,289.9742,3.566,0.0,0.0,151.09871,9180.0,0.0,100.0,-38.092278,0.0,4.0,0.0,0.0,4000000.0,110.0,1.0,0.0,0.0,10.0,0.0,0.0,864.16345,0.8921988,-555.4106,2.6903949,-1.8895861,-0.06827043,145.70758,147.83324,136.35588,147.49979,852.0,853.0,891.0,895.0,89.0,89.0,89.0,89.0,0.0,0.0,0.0,0.0,0.0152019765,0.030467292,0.0390364,0.05119495,0.0,0.0,0.0,0.0,-134.17075,166.67242,18.292664,264.03665,0.0,0.0,0.0,2.0,1.0,2.251385,0.018061643,0.0066432953,89.0,89.0,89.0,89.0,22.047926,22.047926,24.919281,24.919281,-0.02295023,-0.031917054,-0.07804742,-0.024491278,768.6458,0.0,0.0,0.0,0.0,0.0,0.0,0.0,0.0,0.0,0.0,0.0,0.0,0.0,33.596966,0.015599859,-25.157127,-0.0016484903,0.7178257,-0.0039972113,444590.94,0.0,0.030077787,0.047693014,984.83606,5440.4756,1199.4407,6456.6133,0.33507252,0.0,0.0,0.0
291.97214,291.97214,3.616,0.0,0.0,147.58875,8922.0,0.0,100.0,-39.79371,0.0,4.0,0.0,0.0,4000000.0,110.0,1.0,0.0,0.0,10.0,0.0,0.0,865.8022,0.8928952,-556.6795,2.6918123,-1.8585724,-0.0701072,139.25217,144.82826,128.96451,140.71306,856.0,858.0,894.0,899.0,89.0,89.0,89.0,89.0,0.0,0.0,0.0,0.0,0.014426519,0.02966081,0.03893401,0.05109677,0.0,0.0,0.0,0.0,108.53891,68.470055,-168.10744,72.50011,0.0,0.0,0.0,2.0,1.0,2.28694,0.018132221,0.006831646,89.0,89.0,89.0,89.0,22.047926,22.047926,24.919281,24.919281,-0.035831336,-0.030401336,-0.088842206,-0.038813025,703.85724,0.0,0.0,0.0,0.0,0.0,0.0,0.0,0.0,0.0,0.0,0.0,0.0,0.0,32.04365,0.012209626,-25.572405,-0.0014559424,0.7019347,-0.0035398586,418889.4,0.0,0.030483093,0.048585724,896.7101,5417.476,1128.3978,6413.347,0.33573437,0.0,0.0,0.0
