LapDistance [m],TotalDistance [m],LapTime [s],Sector1Time [s],Sector2Time [s],Speed [km/h],EngineRevs [rpm],ThrottlePercentage [%],BrakePercentage [%],Steer [%],Clutch [%],Gear [int],DRS [0/1],CanUseDRS [0/1],KERSLevel [J],EngineTemperature [C],RacePosition [int],Sector [int],InPits [int],FuelRemaining [kg],CurrentFlag [int],CurrentLapInvalid [int],X [m],Y [m],Z [m],GForceLatitudinal [G],GForceLongitudinal [G],GForceVertical [G],WheelSpeedRearLeft [km/h],WheelSpeedRearRight [km/h],WheelSpeedFrontLeft [km/h],WheelSpeedFrontRight [km/h],BrakeTemperatureRearLeft [C],BrakeTemperatureRearRight [C],BrakeTemperatureFrontLeft [C],BrakeTemperatureFrontRight [C],TyreTemperatureRearLeft [C],TyreTemperatureRearRight [C],TyreTemperatureFrontLeft [C],TyreTemperatureFrontRight [C],TyreWearRearLeft [%],TyreWearRearRight [%],TyreWearFrontLeft [%],TyreWearFrontRight [%],SuspensionPositionRearLeft [m],SuspensionPositionRearRight [m],SuspensionPositionFrontLeft [m],SuspensionPositionFrontRight [m],SuspensionVelocityRearLeft [m/s],SuspensionVelocityRearRight [m/s],SuspensionVelocityFrontLeft [m/s],SuspensionVelocityFrontRight [m/s],SuspensionAccelerationRearLeft [m/s^2],SuspensionAccelerationRearRight [m/s^2],SuspensionAccelerationFrontLeft [m/s^2],SuspensionAccelerationFrontRight [m/s^2],MGUKHarvested [J],MGUHHarvested [J],ERSSpent [J],ERSMode [int],FuelMixMode [int],Yaw [rad],Roll [rad],Pitch [rad],TyreCarcassTemperatureRearLeft [C],TyreCarcassTemperatureRearRight [C],TyreCarcassTemperatureFrontLeft [C],TyreCarcassTemperatureFrontRight [C],TyrePressureRearLeft [PSI],TyrePressureRearRight [PSI],TyrePressureFrontLeft [PSI],TyrePressureFrontRight [PSI],WheelSlipRearLeft [%],WheelSlipRearRight [%],WheelSlipFrontLeft [%],WheelSlipFrontRight [%],Torque [Nm],Handbrake [%],RearLeftInside [C],RearLeftMiddle [C],RearLeftOutside [C],RearRightInside [C],RearRightMiddle [C],RearRightOutside [C],FrontLeftInside [C],FrontLeftMiddle [C],FrontLeftOutside [C],FrontRightInside [C],FrontRightMiddle [C],FrontRightOutside [C],WoldSpeedX [km/h],WoldSpeedY [km/h],WoldSpeedZ [km/h],LocalAngularVelocityX [rad/s],LocalAngularVelocityY [rad/s],LocalAngularVelocityZ [rad/s],IcePower [W],MgukPower [W],FrontRideHeight [m],RearRideHeight [m],LoadRearLeft [N],LoadRearRight [N],LoadFrontLeft [N],LoadFrontRight [N],Extra1 [m],Extra2 [],Extra3 [],Extra4 []
2.3558524,2.3558524,0.016,0.0,0.0,341.35193,12182.0,100.0,0.0,0.039088324,0.0,8.0,1.0,0.0,4000000.0,110.0,1.0,0.0,0.0,10.0,0.0,0.0,597.9253,0.8534028,-446.61356,-0.024602637,0.047347933,0.0063670985,346.35117,346.35315,341.21524,341.1998,124.0,125.0,172.0,173.0,89.0,89.0,89.0,89.0,0.0,0.0,0.0,0.0,0.05133771,0.05128103,0.054988578,0.05490947,1.5925615,1.3089179,0.24095176,0.21144746,56.91647,15.208124,-25.628502,-45.11475,0.0,0.0,0.0,2.0,1.0,1.9435456,-1.132811E-4,-3.3974648E-5,89.0,89.0,89.0,89.0,22.047926,22.047926,24.919281,24.919281,0.01466536,0.01470932,-4.1856154E-4,-4.1766302E-4,1221.0466,0.0,0.0,0.0,0.0,0.0,0.0,0.0,0.0,0.0,0.0,0.0,0.0,0.0,88.30097,8.6281635E-4,-34.550938,3.254204E-4,-0.0025905024,0.0015963775,532219.4,119984.89,0.0046877624,0.00478296,8895.355,8853.187,7618.2437,7582.4116,0.2967472,0.0,0.0,0.0
7.096808,7.096808,0.066,0.0,0.0,341.43472,12185.0,100.0,0.0,0.029515967,0.0,8.0,1.0,0.0,4000000.0,110.0,1.0,0.0,0.0,10.0,0.0,0.0,602.34106,0.8535155,-448.34116,-0.023300825,0.04615349,-0.00478856,346.43964,346.44287,341.29813,341.28455,124.0,124.0,171.0,172.0,89.0,89.0,89.0,89.0,0.0,0.0,0.0,0.0,0.051311515,0.051253814,0.05494921,0.054868218,-2.85767,-2.6053188,-0.6913393,-0.59187406,-129.89937,-116.75654,33.42032,40.66228,0.0,0.0,0.0,2.0,1.0,1.9434217,-1.150409E-4,2.4199486E-5,89.0,89.0,89.0,89.0,22.047926,22.047926,24.919281,24.919281,0.014672628,0.0147146825,-4.1678027E-4,-4.1685376E-4,1221.1245,0.0,0.0,0.0,0.0,0.0,0.0,0.0,0.0,0.0,0.0,0.0,0.0,0.0,88.326645,0.002045057,-34.548424,-0.0010166683,-0.0022438026,-0.0033661544,532122.25,119984.89,0.0048812535,0.0048850724,8877.555,8835.319,7580.316,7544.31,0.29695415,0.0,0.0,0.0
11.838864,11.838864,0.116,0.0,0.0,341.5149,12188.0,100.0,0.0,0.0020645813,0.0,8.0,1.0,0.0,4000000.0,110.0,1.0,0.0,0.0,10.0,0.0,0.0,606.75806,0.85347694,-450.06876,-0.018944912,0.045852315,-0.0030516821,346.5192,346.53894,341.3755,341.36612,123.0,124.0,171.0,171.0,89.0,89.0,89.0,89.0,0.0,0.0,0.0,0.0,0.05124653,0.05129262,0.054989327,0.05490522,1.8846987,7.572546,1.2331455,0.5433708,261.50195,590.1664,44.699005,-12.136995,0.0,0.0,0.0,2.0,1.0,1.9433318,-1.236889E-4,4.8995018E-5,89.0,89.0,89.0,89.0,22.047926,22.047926,24.919281,24.919281,0.01468454,0.014733747,-4.1522688E-4,-4.1855965E-4,1221.2057,0.0,0.0,0.0,0.0,0.0,0.0,0.0,0.0,0.0,0.0,0.0,0.0,0.0,88.35113,-0.0026973484,-34.54698,-4.687216E-4,-0.0013356998,0.0027440167,532026.6,119984.89,0.004738887,0.0050156713,8859.924,8843.559,7626.841,7585.337,0.29693604,0.0,0.0,0.0
15.000835,15.000835,0.166,0.0,0.0,341.56943,12190.0,100.0,0.0,0.020034848,0.0,8.0,1.0,0.0,4000000.0,110.0,1.0,0.0,0.0,10.0,0.0,0.0,609.70337,0.85336554,-451.2205,-0.018284988,0.046410948,0.0021320684,346.55908,346.56512,341.4289,341.42145,123.0,123.0,170.0,171.0,89.0,89.0,89.0,89.0,0.0,0.0,0.0,0.0,0.05137989,0.051311795,0.05497386,0.054889496,0.0,0.0,0.0,0.0,-135.15651,429.81055,-45.24886,33.72877,0.0,0.0,0.0,2.0,1.0,1.9432914,-1.12430585E-4,-2.6106834E-5,89.0,89.0,89.0,89.0,22.047926,22.047926,24.919281,24.919281,0.014641261,0.01467211,-4.1796154E-4,-4.17537E-4,1221.3213,0.0,0.0,0.0,0.0,0.0,0.0,0.0,0.0,0.0,0.0,0.0,0.0,0.0,88.36746,-0.003222219,-34.546803,0.0022264763,-0.0012098466,1.1224055E-4,531989.7,119984.9,0.004739765,0.0047244257,8907.801,8878.81,7596.4414,7562.174,0.29677773,0.0,0.0,0.0
19.744816,19.744816,0.216,0.0,0.0,341.6491,12192.0,100.0,0.0,0.006640062,0.0,8.0,1.0,0.0,4000000.0,110.0,1.0,0.0,0.0,10.0,0.0,0.0,614.1224,0.85333145,-452.9481,-0.014515726,0.04452694,0.011281479,346.64267,346.64575,341.50803,341.50214,123.0,123.0,170.0,170.0,89.0,89.0,89.0,89.0,0.0,0.0,0.0,0.0,0.051338874,0.05130689,0.054994673,0.054947954,0.0,0.0,0.0,0.0,119.358284,96.68021,59.92054,15.623866,0.0,0.0,0.0,2.0,1.0,1.9432373,-6.694689E-5,1.7166138E-5,89.0,89.0,89.0,89.0,22.047926,22.047926,24.919281,24.919281,0.014644178,0.014665678,-4.1685166E-4,-4.1788846E-4,1221.3157,0.0,0.0,0.0,0.0,0.0,0.0,0.0,0.0,0.0,0.0,0.0,0.0,0.0,88.391,0.0015955319,-34.547382,-1.2786695E-4,-9.0827816E-4,-4.9890706E-4,531900.0,119984.9,0.0046604434,0.004778055,8899.637,8875.787,7638.62,7617.1577,0.29675388,0.0,0.0,0.0
26.071714,26.071714,0.266,0.0,0.0,341.75284,12196.0,100.0,0.0,0.0093123205,0.0,8.0,1.0,0.0,4000000.0,110.0,1.0,0.0,0.0,10.0,0.0,0.0,620.0162,0.8534751,-455.25156,-0.011484304,0.04395737,-0.003149977,346.7517,346.7545,341.61166,341.60617,122.0,122.0,169.0,170.0,89.0,89.0,89.0,89.0,0.0,0.0,0.0,0.0,0.051309377,0.051274743,0.05497172,0.054925624,0.022798775,-0.0013411044,-0.08448958,-0.13299285,5.699693,22.128222,48.266346,54.328133,0.0,0.0,0.0,2.0,1.0,1.9431877,-6.3627056E-5,4.6491623E-6,89.0,89.0,89.0,89.0,22.047926,22.047926,24.919281,24.919281,0.014656227,0.014677275,-4.164538E-4,-4.1692992E-4,1221.4434,0.0,0.0,0.0,0.0,0.0,0.0,0.0,0.0,0.0,0.0,0.0,0.0,0.0,88.42091,0.0012654283,-34.549988,3.2427895E-4,-8.751484E-4,-2.034406E-4,531781.1,119984.9,0.004737871,0.0048376746,8878.676,8856.012,7605.823,7585.1406,0.2968359,0.0,0.0,0.0
30.81811,30.81811,0.316,0.0,0.0,341.82983,12199.0,100.0,0.0,0.012301901,0.0,8.0,1.0,0.0,4000000.0,110.0,1.0,0.0,0.0,10.0,0.0,0.0,624.4378,0.853498,-456.97916,-0.009675058,0.043561704,-0.0042413864,346.82483,346.82758,341.68753,341.68454,122.0,122.0,168.0,169.0,89.0,89.0,89.0,89.0,0.0,0.0,0.0,0.0,0.05132032,0.051302906,0.054952558,0.05492483,1.0538845,1.1786072,-0.8757412,-0.56326383,60.242405,41.560818,-34.05064,-40.36724,0.0,0.0,0.0,2.0,1.0,1.9431542,-4.1028125E-5,-1.7881393E-6,89.0,89.0,89.0,89.0,22.047926,22.047926,24.919281,24.919281,0.014645626,0.014660025,-4.169805E-4,-4.164093E-4,1221.5599,0.0,0.0,0.0,0.0,0.0,0.0,0.0,0.0,0.0,0.0,0.0,0.0,0.0,88.4426,-4.4152682E-4,-34.55326,-2.2411281E-4,-5.1193987E-4,-6.648883E-4,531701.1,119984.9,0.0048083216,0.0048095235,8884.863,8869.531,7587.8027,7576.343,0.29680634,0.0,0.0,0.0
35.56546,35.56546,0.366,0.0,0.0,341.90515,12202.0,100.0,0.0,0.0031364337,0.0,8.0,1.0,0.0,4000000.0,110.0,1.0,0.0,0.0,10.0,0.0,0.0,628.8605,0.85341454,-458.70676,-0.0074876174,0.042262077,-0.0076657874,346.9079,346.91,341.76285,341.75958,121.0,121.0,168.0,168.0,89.0,89.0,89.0,89.0,0.0,0.0,0.0,0.0,0.051273186,0.051251326,0.054972056,0.05494109,-1.3435631,-1.278296,0.71592623,0.73403114,-1.4752148,8.690356,4.573166,13.880431,0.0,0.0,0.0,2.0,1.0,1.9431262,-4.2456177E-5,5.6743622E-5,89.0,89.0,89.0,89.0,22.047926,22.047926,24.919281,24.919281,0.014665833,0.01467933,-4.1606056E-4,-4.1658818E-4,1221.6532,0.0,0.0,0.0,0.0,0.0,0.0,0.0,0.0,0.0,0.0,0.0,0.0,0.0,88.463615,-0.0031475725,-34.55695,4.111547E-4,-5.029984E-4,9.728463E-5,531610.94,119984.89,0.0047584134,0.004946351,8859.147,8844.049,7617.0273,7603.284,0.2968979,0.0,0.0,0.0
38.730946,38.730946,0.416,0.0,0.0,341.9552,12203.0,100.0,0.0,0.004799007,0.0,8.0,1.0,0.0,4000000.0,110.0,1.0,0.0,0.0,10.0,0.0,0.0,631.80945,0.85330856,-459.8588,-0.0065700347,0.042670254,0.005883457,346.94498,346.9469,341.81165,341.8097,121.0,121.0,167.0,168.0,89.0,89.0,89.0,89.0,0.0,0.0,0.0,0.0,0.051345468,0.051333964,0.054998077,0.054976944,0.0,0.0,0.0,0.0,120.7128,109.50117,-36.250046,-34.654133,0.0,0.0,0.0,2.0,1.0,1.9431136,-2.8925284E-5,-1.4543533E-5,89.0,89.0,89.0,89.0,22.047926,22.047926,24.919281,24.919281,0.014630889,0.014640534,-4.1681735E-4,-4.169443E-4,1221.6592,0.0,0.0,0.0,0.0,0.0,0.0,0.0,0.0,0.0,0.0,0.0,0.0,0.0,88.47737,-0.0024807,-34.559956,0.001357789,-3.1301935E-4,0.0027608152,531570.0,119984.89,0.004597176,0.0047400943,8895.368,8884.332,7634.092,7625.42,0.29668713,0.0,0.0,0.0
43.48013,43.48013,0.466,0.0,0.0,342.03018,12206.0,100.0,0.0,0.0073831296,0.0,8.0,1.0,0.0,4000000.0,110.0,1.0,0.0,0.0,10.0,0.0,0.0,636.2338,0.8533604,-461.58694,-0.005031633,0.041618004,0.0118174525,347.01364,347.01602,341.88678,341.88657,120.0,120.0,167.0,167.0,89.0,89.0,89.0,89.0,0.0,0.0,0.0,0.0,0.05138204,0.051373087,0.054979034,0.054964684,0.0,0.0,0.0,0.0,-207.49565,-194.6747,36.545094,43.62612,0.0,0.0,0.0,2.0,1.0,1.9431064,-2.057646E-5,-2.0384789E-5,89.0,89.0,89.0,89.0,22.047926,22.047926,24.919281,24.919281,0.014600386,0.014606869,-4.1692803E-4,-4.161965E-4,1221.7864,0.0,0.0,0.0,0.0,0.0,0.0,0.0,0.0,0.0,0.0,0.0,0.0,0.0,88.49769,0.0040435055,-34.565193,-9.2462986E-4,-4.5029075E-5,-0.002530722,531494.7,119984.9,0.0046642823,0.004644794,8912.717,8905.363,7614.1895,7608.452,0.2967205,0.0,0.0,0.0
49.814056,49.814056,0.516,0.0,0.0,342.12598,12209.0,100.0,0.0,-0.020942315,0.0,8.0,1.0,0.0,4000000.0,110.0,1.0,0.0,0.0,10.0,0.0,0.0,642.13464,0.8534921,-463.89154,-1.4491659E-4,0.04097141,-0.011048313,347.12384,347.12573,341.9811,341.983,120.0,120.0,166.0,167.0,89.0,89.0,89.0,89.0,0.0,0.0,0.0,0.0,0.051282927,0.051283002,0.054965083,0.05495838,1.0292976,1.6410648,-0.57511026,-0.120922916,81.41844,110.68134,-9.039042,12.324748,0.0,0.0,0.0,2.0,1.0,1.9431038,-6.550351E-6,2.515316E-5,89.0,89.0,89.0,89.0,22.047926,22.047926,24.919281,24.919281,0.014650322,0.014648825,-4.146303E-4,-4.1706854E-4,1221.8109,0.0,0.0,0.0,0.0,0.0,0.0,0.0,0.0,0.0,0.0,0.0,0.0,0.0,88.52318,-0.0013676562,-34.57307,0.0012003207,4.5351352E-4,6.293212E-4,531374.75,119984.89,0.0047561647,0.0048905835,8864.307,8861.416,7601.847,7600.5015,0.2968521,0.0,0.0,0.0
52.981537,52.981537,0.566,0.0,0.0,342.17426,12211.0,100.0,0.0,-0.018314214,0.0,8.0,1.0,0.0,4000000.0,110.0,1.0,0.0,0.0,10.0,0.0,0.0,645.0856,0.8534161,-465.044,9.8495E-4,0.040961877,-0.0015456773,347.16315,347.1653,342.0282,342.03235,119.0,119.0,166.0,166.0,89.0,89.0,89.0,89.0,0.0,0.0,0.0,0.0,0.05133135,0.051334903,0.054961983,0.0549654,0.0,0.0,0.0,0.0,-14.483928,-55.87041,26.822084,1.0728835,0.0,0.0,0.0,2.0,1.0,1.943123,5.142503E-6,-8.34465E-7,89.0,89.0,89.0,89.0,22.047926,22.047926,24.919281,24.919281,0.014624332,0.014618675,-4.1543608E-4,-4.1703368E-4,1221.9113,0.0,0.0,0.0,0.0,0.0,0.0,0.0,0.0,0.0,0.0,0.0,0.0,0.0,88.53567,-0.0026244058,-34.577957,2.954145E-4,7.876905E-4,3.1177688E-4,531331.4,119984.89,0.004705943,0.004774876,8886.335,8888.197,7607.583,7608.9346,0.29677868,0.0,0.0,0.0
57.733692,57.733692,0.616,0.0,0.0,342.24542,12213.0,100.0,0.0,-0.013879164,0.0,8.0,1.0,0.0,4000000.0,110.0,1.0,0.0,0.0,10.0,0.0,0.0,649.5129,0.8533482,-466.77316,0.004006914,0.039888855,0.00826047,347.22894,347.232,342.09778,342.10522,119.0,119.0,165.0,166.0,89.0,89.0,89.0,89.0,0.0,0.0,0.0,0.0,0.05134682,0.051358603,0.05499088,0.055004936,0.0,0.0,0.0,0.0,-14.604626,-37.389988,15.650688,4.62681,0.0,0.0,0.0,2.0,1.0,1.9431814,2.0780764E-5,1.1920929E-6,89.0,89.0,89.0,89.0,22.047926,22.047926,24.919281,24.919281,0.014606926,0.014596343,-4.1630067E-4,-4.163531E-4,1221.9446,0.0,0.0,0.0,0.0,0.0,0.0,0.0,0.0,0.0,0.0,0.0,0.0,0.0,88.553474,3.1748612E-4,-34.586704,1.706584E-4,0.0012587564,3.752933E-5,531258.8,119984.89,0.0045896196,0.00470038,8897.897,8905.43,7634.8584,7641.4043,0.29669952,0.0,0.0,0.0
62.486767,62.486767,0.666,0.0,0.0,342.31543,12216.0,100.0,0.0,-0.0115008745,0.0,8.0,1.0,0.0,4000000.0,110.0,1.0,0.0,0.0,10.0,0.0,0.0,653.94104,0.8534349,-468.50275,0.0067664636,0.039615665,0.004741147,347.29852,347.30038,342.1676,342.17532,118.0,119.0,165.0,165.0,89.0,89.0,89.0,89.0,0.0,0.0,0.0,0.0,0.051345192,0.05136559,0.054986663,0.0550111,0.0,0.0,0.0,0.0,6.021558,15.516577,-25.092062,-16.388294,0.0,0.0,0.0,2.0,1.0,1.9432437,3.5759396E-5,-2.4437904E-5,89.0,89.0,89.0,89.0,22.047926,22.047926,24.919281,24.919281,0.01460308,0.014588801,-4.1618693E-4,-4.1573838E-4,1222.0713,0.0,0.0,0.0,0.0,0.0,0.0,0.0,0.0,0.0,0.0,0.0,0.0,0.0,88.57047,0.0028661015,-34.59663,3.4650322E-4,0.0012723377,1.838639E-4,531183.44,119984.89,0.004589938,0.004655488,8896.5,8909.211,7620.1772,7632.4233,0.29664326,0.0,0.0,0.0
68.825714,68.825714,0.716,0.0,0.0,342.40686,12219.0,100.0,0.0,-0.02088743,0.0,8.0,1.0,0.0,4000000.0,110.0,1.0,0.0,0.0,10.0,0.0,0.0,659.8465,0.85358095,-470.80963,0.009328029,0.03856479,-0.014826308,347.4019,347.40155,342.26016,342.2664,118.0,118.0,164.0,164.0,89.0,89.0,89.0,89.0,0.0,0.0,0.0,0.0,0.051276073,0.05129585,0.05495369,0.054981925,-1.2034177,-1.1627375,-1.0120867,-0.9170919,37.08154,36.384163,-56.1118,-53.523476,0.0,0.0,0.0,2.0,1.0,1.9433167,4.0768857E-5,2.7298927E-5,89.0,89.0,89.0,89.0,22.047926,22.047926,24.919281,24.919281,0.014633132,0.014616587,-4.145388E-4,-4.1552112E-4,1222.115,0.0,0.0,0.0,0.0,0.0,0.0,0.0,0.0,0.0,0.0,0.0,0.0,0.0,88.59221,-4.7590982E-4,-34.610775,3.592504E-5,0.0010872538,-7.1790116E-4,531072.0,119984.89,0.00473802,0.0048347064,8859.41,8874.135,7590.72,7603.7163,0.29679966,0.0,0.0,0.0
73.5809,73.5809,0.766,0.0,0.0,342.4748,12221.0,100.0,0.0,-0.01883605,0.0,8.0,1.0,0.0,4000000.0,110.0,1.0,0.0,0.0,10.0,0.0,0.0,664.2764,0.8534597,-472.54047,0.010148216,0.03838506,0.00328662,347.472,347.45822,342.32697,342.33527,117.0,117.0,163.0,164.0,89.0,89.0,89.0,89.0,0.0,0.0,0.0,0.0,0.05139754,0.05132607,0.054970168,0.05501494,6.3735986,0.40680167,0.16070901,0.7691234,362.31274,-4.7072763,-51.95438,-25.48098,0.0,0.0,0.0,2.0,1.0,1.9433798,7.031596E-5,2.9087067E-5,89.0,89.0,89.0,89.0,22.047926,22.047926,24.919281,24.919281,0.014605282,0.014582321,-4.1551157E-4,-4.1552918E-4,1222.1556,0.0,0.0,0.0,0.0,0.0,0.0,0.0,0.0,0.0,0.0,0.0,0.0,0.0,88.60802,-0.002620506,-34.622173,0.0019451075,0.0013308001,-2.1361795E-4,531002.75,119984.89,0.0046480787,0.0048007094,8899.474,8898.306,7619.1426,7642.2266,0.29670334,0.0,0.0,0.0
76.75179,76.75179,0.816,0.0,0.0,342.51974,12223.0,100.0,0.0,-0.032898415,0.0,8.0,1.0,0.0,4000000.0,110.0,1.0,0.0,0.0,10.0,0.0,0.0,667.2303,0.8533728,-473.69473,0.012135704,0.037910633,0.003382814,347.50165,347.50116,342.3712,342.38068,117.0,117.0,163.0,163.0,89.0,89.0,89.0,89.0,0.0,0.0,0.0,0.0,0.05133785,0.051391993,0.054967273,0.05502607,0.0,0.0,0.0,0.0,294.19806,-214.0939,68.67795,-18.198788,0.0,0.0,0.0,2.0,1.0,1.9434278,7.906356E-5,2.4795532E-5,89.0,89.0,89.0,89.0,22.047926,22.047926,24.919281,24.919281,0.014591022,0.014567914,-4.145109E-4,-4.1670052E-4,1222.2633,0.0,0.0,0.0,0.0,0.0,0.0,0.0,0.0,0.0,0.0,0.0,0.0,0.0,88.61829,-0.002197499,-34.630184,-0.0011947135,0.0016710421,1.5735306E-4,530962.6,119984.89,0.0046039345,0.0046949834,8899.406,8915.561,7618.8984,7642.7437,0.29671478,0.0,0.0,0.0
81.50867,81.50867,0.866,0.0,0.0,342.58582,12225.0,100.0,0.0,-0.052952673,0.0,8.0,1.0,0.0,4000000.0,110.0,1.0,0.0,0.0,10.0,0.0,0.0,671.66156,0.8533192,-475.42657,0.01764366,0.037461907,0.004045352,347.56308,347.56592,342.43405,342.44974,117.0,117.0,162.0,163.0,89.0,89.0,89.0,89.0,0.0,0.0,0.0,0.0,0.051352873,0.051393196,0.05498736,0.055036083,0.0,0.0,0.0,0.0,62.01266,129.52385,-48.05177,2.9906626,0.0,0.0,0.0,2.0,1.0,1.9435345,7.447515E-5,4.053116E-6,89.0,89.0,89.0,89.0,22.047926,22.047926,24.919281,24.919281,0.0145859,0.014552684,-4.1413523E-4,-4.1729314E-4,1222.3041,0.0,0.0,0.0,0.0,0.0,0.0,0.0,0.0,0.0,0.0,0.0,0.0,0.0,88.632645,-1.9507948E-4,-34.643894,0.0012761315,0.0027715021,-1.1437677E-4,530893.5,119984.9,0.0045439675,0.004624389,8900.859,8927.209,7623.449,7647.5566,0.29661942,0.0,0.0,0.0
87.85252,87.85252,0.916,0.0,0.0,342.6724,12228.0,100.0,0.0,-0.061303265,0.0,8.0,1.0,0.0,4000000.0,110.0,1.0,0.0,0.0,10.0,0.0,0.0,677.5709,0.8533832,-477.7369,0.02446849,0.036330864,0.0036390817,347.6533,347.65527,342.5181,342.5388,116.0,116.0,161.0,162.0,89.0,89.0,89.0,89.0,0.0,0.0,0.0,0.0,0.05132263,0.05137822,0.054988857,0.05506478,-0.3417581,-0.1618266,0.2852082,0.54828817,-17.890331,3.0040739,-25.57486,-12.472271,0.0,0.0,0.0,2.0,1.0,1.9437481,1.1083984E-4,8.821487E-6,89.0,89.0,89.0,89.0,22.047926,22.047926,24.919281,24.919281,0.01459868,0.014550759,-4.1402897E-4,-4.1663955E-4,1222.3784,0.0,0.0,0.0,0.0,0.0,0.0,0.0,0.0,0.0,0.0,0.0,0.0,0.0,88.65004,0.0020111855,-34.665447,9.621995E-4,0.0035980707,6.393853E-4,530795.5,119984.89,0.004508816,0.004677765,8881.041,8922.334,7635.486,7670.4336,0.29662418,0.0,0.0,0.0
92.61182,92.61182,0.966,0.0,0.0,342.7365,12230.0,100.0,0.0,-0.057925347,0.0,8.0,1.0,0.0,4000000.0,110.0,1.0,0.0,0.0,10.0,0.0,0.0,682.0039,0.8534352,-479.4707,0.027833048,0.035851125,-0.0018698301,347.7215,347.72186,342.58234,342.60355,116.0,116.0,161.0,162.0,89.0,89.0,89.0,89.0,0.0,0.0,0.0,0.0,0.05130803,0.051372673,0.05495611,0.055044603,-1.6419588,-1.548305,0.8634477,0.9465962,-157.19084,-152.80542,142.51917,135.07602,0.0,0.0,0.0,2.0,1.0,1.9439235,1.284862E-4,3.9219856E-5,89.0,89.0,89.0,89.0,22.047926,22.047926,24.919281,24.919281,0.014605023,0.014552449,-4.1391817E-4,-4.158827E-4,1222.4087,0.0,0.0,0.0,0.0,0.0,0.0,0.0,0.0,0.0,0.0,0.0,0.0,0.0,88.66202,3.047787E-4,-34.683712,-4.249526E-5,0.0036352752,-0.0015052491,530721.9,119984.9,0.0045887837,0.004731064,8866.68,8914.309,7619.613,7659.334,0.29679394,0.0,0.0,0.0
97.37156,97.37156,1.016,0.0,0.0,342.7995,12232.0,100.0,0.0,-0.039318223,0.0,8.0,1.0,0.0,4000000.0,110.0,1.0,0.0,0.0,10.0,0.0,0.0,686.43713,0.8533741,-481.20538,0.029058427,0.03603801,2.3181249E-4,347.77805,347.7776,342.6447,342.66638,115.0,115.0,160.0,161.0,89.0,89.0,89.0,89.0,0.0,0.0,0.0,0.0,0.05134232,0.051417626,0.054956645,0.0550601,3.325939,3.3655016,-0.10326504,0.038221475,152.7652,143.82004,18.815693,8.261203,0.0,0.0,0.0,2.0,1.0,1.94411,1.461999E-4,1.0251999E-5,89.0,89.0,89.0,89.0,22.047926,22.047926,24.919281,24.919281,0.01458678,0.014531962,-4.1540503E-4,-4.1470752E-4,1222.4669,0.0,0.0,0.0,0.0,0.0,0.0,0.0,0.0,0.0,0.0,0.0,0.0,0.0,88.67307,-0.0019576284,-34.703476,1.3089637E-4,0.0035694286,7.00465E-4,530660.4,119984.89,0.0045876876,0.0046566203,8885.263,8939.287,7611.4033,7658.1616,0.29667568,0.0,0.0,0.0
100.54551,100.54551,1.066,0.0,0.0,342.84125,12234.0,100.0,0.0,-0.04001408,0.0,8.0,1.0,0.0,4000000.0,110.0,1.0,0.0,0.0,10.0,0.0,0.0,689.3932,0.8533314,-482.3624,0.029760154,0.035264958,0.004450708,347.8175,347.81516,342.68808,342.70676,115.0,115.0,160.0,161.0,89.0,89.0,89.0,89.0,0.0,0.0,0.0,0.0,0.051345874,0.051414322,0.054970093,0.055068716,0.0,0.0,0.0,0.0,-2.6285641,7.3894844,3.9428468,6.8530426,0.0,0.0,0.0,2.0,1.0,1.9442192,1.4006099E-4,4.4107437E-6,89.0,89.0,89.0,89.0,22.047926,22.047926,24.919281,24.919281,0.014573512,0.014521883,-4.1503363E-4,-4.1501984E-4,1222.5695,0.0,0.0,0.0,0.0,0.0,0.0,0.0,0.0,0.0,0.0,0.0,0.0,0.0,88.68035,-6.487315E-4,-34.716705,-6.526419E-5,0.003091287,-2.9129707E-5,530618.1,119984.89,0.0045555243,0.0046367967,8893.309,8945.257,7624.7207,7668.7695,0.2966318,0.0,0.0,0.0
106.89427,106.89427,1.116,0.0,0.0,342.92303,12237.0,100.0,0.0,-0.055550057,0.0,8.0,1.0,0.0,4000000.0,110.0,1.0,0.0,0.0,10.0,0.0,0.0,695.30554,0.8533431,-484.6777,0.030687796,0.03448437,0.0019692336,347.90146,347.8977,342.77032,342.7879,114.0,114.0,159.0,160.0,89.0,89.0,89.0,89.0,0.0,0.0,0.0,0.0,0.051331982,0.05140491,0.054981627,0.05508304,0.12159347,0.13947485,-0.07264315,-0.025704501,13.196466,11.600553,-34.21157,-33.55443,0.0,0.0,0.0,2.0,1.0,1.9444113,1.4521102E-4,2.7418137E-6,89.0,89.0,89.0,89.0,22.047926,22.047926,24.919281,24.919281,0.014575888,0.014521564,-4.1338982E-4,-4.1596527E-4,1222.6597,0.0,0.0,0.0,0.0,0.0,0.0,0.0,0.0,0.0,0.0,0.0,0.0,0.0,88.694374,9.557011E-4,-34.74319,3.9322505E-4,0.0030182006,4.401255E-4,530527.2,119984.89,0.004515886,0.0046356246,8886.086,8939.023,7627.7754,7673.3115,0.29658222,0.0,0.0,0.0
111.657265,111.657265,1.166,0.0,0.0,342.98355,12239.0,100.0,0.0,-0.040227287,0.0,8.0,1.0,0.0,4000000.0,110.0,1.0,0.0,0.0,10.0,0.0,0.0,699.7407,0.85337883,-486.4154,0.028485613,0.033827756,-0.0011364332,347.96494,347.96152,342.8316,342.8482,114.0,114.0,159.0,159.0,89.0,89.0,89.0,89.0,0.0,0.0,0.0,0.0,0.05132002,0.05138742,0.05497638,0.055072132,-0.9745359,-1.1537968,0.70318574,0.47989187,-45.436615,-41.70834,57.855236,57.1981,0.0,0.0,0.0,2.0,1.0,1.9445553,1.3642723E-4,2.8967857E-5,89.0,89.0,89.0,89.0,22.047926,22.047926,24.919281,24.919281,0.014578453,0.014528433,-4.140669E-4,-4.1448508E-4,1222.6995,0.0,0.0,0.0,0.0,0.0,0.0,0.0,0.0,0.0,0.0,0.0,0.0,0.0,88.70489,4.2075609E-4,-34.762444,-3.922836E-4,0.0027719943,-4.401403E-4,530457.75,119984.9,0.004519699,0.0046774573,8877.678,8927.866,7631.0117,7673.437,0.29665756,0.0,0.0,0.0
116.420746,116.420746,1.216,0.0,0.0,343.0433,12241.0,100.0,0.0,-0.055534463,0.0,8.0,1.0,0.0,4000000.0,110.0,1.0,0.0,0.0,10.0,0.0,0.0,704.176,0.85335976,-488.15402,0.029478705,0.033972383,0.0014031453,348.01898,348.0158,342.89078,342.90808,113.0,113.0,158.0,159.0,89.0,89.0,89.0,89.0,0.0,0.0,0.0,0.0,0.051349342,0.051419392,0.054981597,0.0550777,1.2572854,1.4336406,-0.08761882,0.03933906,-6.987154,2.2396443,-13.934073,-5.418061,0.0,0.0,0.0,2.0,1.0,1.9446934,1.3842841E-4,2.503395E-6,89.0,89.0,89.0,89.0,22.047926,22.047926,24.919281,24.919281,0.014563175,0.014510907,-4.1346782E-4,-4.159535E-4,1222.7625,0.0,0.0,0.0,0.0,0.0,0.0,0.0,0.0,0.0,0.0,0.0,0.0,0.0,88.71521,-4.7434145E-4,-34.781578,5.5811036E-4,0.00298075,4.6910119E-4,530398.4,119984.89,0.004492255,0.0045951754,8892.004,8942.432,7627.628,7671.1284,0.29655838,0.0,0.0,0.0
119.59717,119.59717,1.266,0.0,0.0,343.08295,12242.0,100.0,0.0,-0.053617492,0.0,8.0,1.0,0.0,4000000.0,110.0,1.0,0.0,0.0,10.0,0.0,0.0,707.13354,0.8533603,-489.31363,0.029767677,0.033488322,0.009139963,348.05435,348.0524,342.92914,342.94907,113.0,113.0,158.0,158.0,89.0,89.0,89.0,89.0,0.0,0.0,0.0,0.0,0.051363144,0.05143968,0.054992698,0.055095427,0.0,0.0,0.0,0.0,31.529364,21.363792,93.93095,89.2639,0.0,0.0,0.0,2.0,1.0,1.9448,1.4736662E-4,6.3180923E-6,89.0,89.0,89.0,89.0,22.047926,22.047926,24.919281,24.919281,0.01455033,0.014494584,-4.1416695E-4,-4.1584822E-4,1222.7712,0.0,0.0,0.0,0.0,0.0,0.0,0.0,0.0,0.0,0.0,0.0,0.0,0.0,88.72191,0.0011356622,-34.79466,5.1213636E-5,0.0033875958,-1.3856888E-4,530358.9,119984.9,0.004414936,0.0045476207,8903.027,8956.763,7648.8843,7695.0986,0.29656982,0.0,0.0,0.0
124.36215,124.36215,1.316,0.0,0.0,343.14093,12244.0,100.0,0.0,-0.03809207,0.0,8.0,1.0,0.0,4000000.0,110.0,1.0,0.0,0.0,10.0,0.0,0.0,711.5698,0.85341334,-491.05386,0.02903137,0.032605432,-0.0023403636,348.1197,348.11765,342.9881,343.00696,113.0,113.0,157.0,158.0,89.0,89.0,89.0,89.0,0.0,0.0,0.0,0.0,0.05132989,0.051399875,0.05497787,0.0550763,0.0,0.0,0.0,0.0,-59.317043,-22.946295,38.503105,54.86458,0.0,0.0,0.0,2.0,1.0,1.9449632,1.4024136E-4,4.0888786E-5,89.0,89.0,89.0,89.0,22.047926,22.047926,24.919281,24.919281,0.01456454,0.01451231,-4.1412507E-4,-4.1398854E-4,1222.807,0.0,0.0,0.0,0.0,0.0,0.0,0.0,0.0,0.0,0.0,0.0,0.0,0.0,88.731674,4.9556664E-4,-34.81388,-4.5479267E-4,0.003111912,-0.0010675908,530287.75,119984.9,0.0045327325,0.004666949,8880.929,8933.542,7625.8647,7670.265,0.29665375,0.0,0.0,0.0
129.12805,129.12805,1.366,0.0,0.0,343.19815,12246.0,100.0,0.0,-0.05446686,0.0,8.0,1.0,0.0,4000000.0,110.0,1.0,0.0,0.0,10.0,0.0,0.0,716.00665,0.8533654,-492.79504,0.030321809,0.032566912,-0.0025201235,348.17337,348.16998,343.04547,343.06314,112.0,112.0,157.0,157.0,89.0,89.0,89.0,89.0,0.0,0.0,0.0,0.0,0.051342525,0.051413327,0.054985058,0.055083286,0.0,0.0,0.0,0.0,46.28151,56.82259,-9.374319,-3.7282698,0.0,0.0,0.0,2.0,1.0,1.9451084,1.4123978E-4,2.026558E-5,89.0,89.0,89.0,89.0,22.047926,22.047926,24.919281,24.919281,0.014556693,0.01450333,-4.1303798E-4,-4.152043E-4,1222.8726,0.0,0.0,0.0,0.0,0.0,0.0,0.0,0.0,0.0,0.0,0.0,0.0,0.0,88.74121,-0.0018485914,-34.83309,6.5948884E-4,0.0030260433,7.575691E-4,530229.56,119984.89,0.004512695,0.0046345615,8889.641,8941.347,7629.166,7673.3877,0.29660416,0.0,0.0,0.0
135.48384,135.48384,1.416,0.0,0.0,343.27356,12249.0,100.0,0.0,-0.031226298,0.0,8.0,1.0,0.0,4000000.0,110.0,1.0,0.0,0.0,10.0,0.0,0.0,721.92316,0.85334414,-495.11813,0.026684014,0.031545386,-7.312695E-4,348.24762,348.2437,343.12302,343.1367,112.0,112.0,156.0,157.0,89.0,89.0,89.0,89.0,0.0,0.0,0.0,0.0,0.051349178,0.051399607,0.0550121,0.055086166,-0.72106713,0.60193235,-0.2876669,0.63523644,-71.61497,392.99722,-60.349693,51.01561,0.0,0.0,0.0,2.0,1.0,1.9452772,1.11878E-4,2.9921532E-5,89.0,89.0,89.0,89.0,22.047926,22.047926,24.919281,24.919281,0.014543437,0.014497792,-4.1415705E-4,-4.1410504E-4,1222.9857,0.0,0.0,0.0,0.0,0.0,0.0,0.0,0.0,0.0,0.0,0.0,0.0,0.0,88.754196,6.623837E-5,-34.857323,0.0017520271,0.0022623742,-2.8929685E-4,530148.75,119984.9,0.0044815303,0.004628204,8894.754,8944.846,7645.163,7682.5854,0.29658222,0.0,0.0,0.0
140.25166,140.25166,1.466,0.0,0.0,343.3292,12251.0,100.0,0.0,-0.031762946,0.0,8.0,1.0,0.0,4000000.0,110.0,1.0,0.0,0.0,10.0,0.0,0.0,726.36115,0.85333776,-496.86145,0.02511518,0.03138456,-8.0309284E-5,348.30127,348.2971,343.1783,343.19272,111.0,111.0,155.0,156.0,89.0,89.0,89.0,89.0,0.0,0.0,0.0,0.0,0.05135522,0.05142192,0.05499706,0.055092644,0.48235056,-0.29236075,0.23983417,-0.10035931,12.391805,-31.35502,39.120014,-9.736417,0.0,0.0,0.0,2.0,1.0,1.9453995,1.3279861E-4,1.5735626E-5,89.0,89.0,89.0,89.0,22.047926,22.047926,24.919281,24.919281,0.014535658,0.014488252,-4.141376E-4,-4.1413054E-4,1223.05,0.0,0.0,0.0,0.0,0.0,0.0,0.0,0.0,0.0,0.0,0.0,0.0,0.0,88.763885,-2.1044904E-4,-34.87493,-8.048971E-4,0.0023825413,3.941807E-4,530090.1,119984.914,0.0044715987,0.0045964965,8898.901,8948.527,7638.689,7679.88,0.2965765,0.0,0.0,0.0
143.43066,143.43066,1.516,0.0,0.0,343.3659,12252.0,100.0,0.0,-0.032216728,0.0,8.0,1.0,0.0,4000000.0,110.0,1.0,0.0,0.0,10.0,0.0,0.0,729.3201,0.8533407,-498.02414,0.024504878,0.031147458,0.0011155754,348.33548,348.3331,343.21497,343.22928,111.0,111.0,155.0,156.0,89.0,89.0,89.0,89.0,0.0,0.0,0.0,0.0,0.051365778,0.05142073,0.055011224,0.05509236,0.0,0.0,0.0,0.0,-6.4641232,28.780098,-38.46287,-16.60287,0.0,0.0,0.0,2.0,1.0,1.9454787,1.1535274E-4,4.172325E-6,89.0,89.0,89.0,89.0,22.047926,22.047926,24.919281,24.919281,0.014527679,0.014485888,-4.139014E-4,-4.1411165E-4,1223.0613,0.0,0.0,0.0,0.0,0.0,0.0,0.0,0.0,0.0,0.0,0.0,0.0,0.0,88.77038,2.7973956E-4,-34.886295,-6.949711E-5,0.0023758013,4.5060914E-4,530051.7,119984.91,0.0044494155,0.004568644,8905.894,8948.463,7645.333,7681.2026,0.29651833,0.0,0.0,0.0
148.19952,148.19952,1.566,0.0,0.0,343.4203,12254.0,100.0,0.0,-0.03303745,0.0,8.0,1.0,0.0,4000000.0,110.0,1.0,0.0,0.0,10.0,0.0,0.0,733.7586,0.85337895,-499.76895,0.02389475,0.030460637,-8.2076195E-4,348.39166,348.38885,343.26974,343.2838,110.0,111.0,155.0,155.0,89.0,89.0,89.0,89.0,0.0,0.0,0.0,0.0,0.051355787,0.051415466,0.0550085,0.05509156,0.0,0.0,0.0,0.0,-20.425018,-38.449463,9.575484,-1.3276931,0.0,0.0,0.0,2.0,1.0,1.9455972,1.17408854E-4,2.1576881E-5,89.0,89.0,89.0,89.0,22.047926,22.047926,24.919281,24.919281,0.014528021,0.014485858,-4.1352195E-4,-4.139183E-4,1223.12,0.0,0.0,0.0,0.0,0.0,0.0,0.0,0.0,0.0,0.0,0.0,0.0,0.0,88.78005,8.5411913E-4,-34.902985,-3.3437664E-4,0.0023348304,-4.7886785E-4,529990.6,119984.92,0.004463567,0.0045891777,8900.665,8943.518,7644.363,7681.378,0.29655647,0.0,0.0,0.0
154.5598,154.5598,1.616,0.0,0.0,343.49155,12256.0,100.0,0.0,-0.017910833,0.0,8.0,1.0,0.0,4000000.0,110.0,1.0,0.0,0.0,10.0,0.0,0.0,739.67804,0.8533867,-502.0966,0.021917228,0.0301895,0.0019036367,348.45963,348.45724,343.34067,343.35468,110.0,110.0,154.0,154.0,89.0,89.0,89.0,89.0,0.0,0.0,0.0,0.0,0.051369846,0.051427722,0.055023063,0.055105686,0.969395,0.5129724,0.4313886,0.2145767,31.462309,-21.45767,4.8011537,-25.065239,0.0,0.0,0.0,2.0,1.0,1.945761,1.1521307E-4,5.364418E-6,89.0,89.0,89.0,89.0,22.047926,22.047926,24.919281,24.919281,0.0145175345,0.014477898,-4.1484047E-4,-4.1310381E-4,1223.1472,0.0,0.0,0.0,0.0,0.0,0.0,0.0,0.0,0.0,0.0,0.0,0.0,0.0,88.79273,1.3360495E-4,-34.924812,-2.751292E-4,0.0022270246,0.0013109117,529915.94,119984.91,0.0043953643,0.004554016,8907.886,8950.055,7657.21,7693.324,0.29650307,0.0,0.0,0.0
157.74019,157.74019,1.666,0.0,0.0,343.52704,12257.0,100.0,0.0,-0.02088192,0.0,8.0,1.0,0.0,4000000.0,110.0,1.0,0.0,0.0,10.0,0.0,0.0,742.63776,0.85341,-503.26093,0.021074828,0.030160781,0.003172974,348.4917,348.48822,343.3785,343.38864,110.0,110.0,153.0,154.0,89.0,89.0,89.0,89.0,0.0,0.0,0.0,0.0,0.051400788,0.051444437,0.055016447,0.05508468,0.0,0.0,0.0,0.0,-67.61848,-30.724699,-19.499657,-9.320676,0.0,0.0,0.0,2.0,1.0,1.9458214,9.636489E-5,-2.503395E-6,89.0,89.0,89.0,89.0,22.047926,22.047926,24.919281,24.919281,0.014498529,0.014465279,-4.1403572E-4,-4.1381523E-4,1223.1672,0.0,0.0,0.0,0.0,0.0,0.0,0.0,0.0,0.0,0.0,0.0,0.0,0.0,88.79936,0.0011580472,-34.934906,-5.838789E-4,0.0016434044,-8.9652283E-4,529881.4,119984.92,0.004453977,0.0044959113,8923.204,8959.077,7640.9346,7670.6006,0.2965002,0.0,0.0,0.0
162.51167,162.51167,1.716,0.0,0.0,343.57858,12260.0,100.0,0.0,-0.036135677,0.0,8.0,1.0,0.0,4000000.0,110.0,1.0,0.0,0.0,10.0,0.0,0.0,747.0781,0.8534647,-505.00806,0.021585256,0.029111737,-0.006264489,348.55148,348.54852,343.42874,343.4412,109.0,109.0,153.0,154.0,89.0,89.0,89.0,89.0,0.0,0.0,0.0,0.0,0.051335335,0.0513923,0.05502144,0.0550978,0.0,0.0,0.0,0.0,104.404976,85.64292,-11.479852,-20.653006,0.0,0.0,0.0,2.0,1.0,1.9459147,1.08302294E-4,4.0888786E-5,89.0,89.0,89.0,89.0,22.047926,22.047926,24.919281,24.919281,0.01452667,0.014486989,-4.1252244E-4,-4.138636E-4,1223.3156,0.0,0.0,0.0,0.0,0.0,0.0,0.0,0.0,0.0,0.0,0.0,0.0,0.0,88.80874,3.1644144E-5,-34.95017,1.26511E-4,0.002126441,2.5612835E-4,529815.94,119984.9,0.0044689393,0.0046437606,8894.522,8933.843,7651.5107,7685.9316,0.29658222,0.0,0.0,0.0
168.87437,168.87437,1.766,0.0,0.0,343.6473,12262.0,100.0,0.0,-0.044118885,0.0,8.0,1.0,0.0,4000000.0,110.0,1.0,0.0,0.0,10.0,0.0,0.0,752.999,0.85340214,-507.33878,0.023262445,0.0291756,-3.8339116E-4,348.60925,348.60886,343.4958,343.51215,109.0,109.0,152.0,153.0,89.0,89.0,89.0,89.0,0.0,0.0,0.0,0.0,0.051394343,0.05144923,0.055005178,0.055081587,0.23603438,0.4097074,-0.4673749,-0.3726035,-48.76255,-29.920038,15.95914,25.025007,0.0,0.0,0.0,2.0,1.0,1.9460801,1.0934462E-4,2.1457672E-5,89.0,89.0,89.0,89.0,22.047926,22.047926,24.919281,24.919281,0.014495245,0.014452973,-4.126864E-4,-4.1410117E-4,1223.3655,0.0,0.0,0.0,0.0,0.0,0.0,0.0,0.0,0.0,0.0,0.0,0.0,0.0,88.821106,-0.0012969992,-34.970863,-3.496246E-4,0.0027879179,-0.0016288324,529751.2,119984.92,0.00450777,0.004522269,8921.769,8961.791,7634.8276,7669.4287,0.2965746,0.0,0.0,0.0
173.64735,173.64735,1.816,0.0,0.0,343.697,12264.0,100.0,0.0,-0.056311335,0.0,8.0,1.0,0.0,4000000.0,110.0,1.0,0.0,0.0,10.0,0.0,0.0,757.44037,0.8533134,-509.08774,0.026809592,0.02812139,-8.649206E-4,348.66354,348.66394,343.54288,343.56323,108.0,108.0,152.0,152.0,89.0,89.0,89.0,89.0,0.0,0.0,0.0,0.0,0.051349137,0.051417198,0.055038385,0.055127595,0.5742162,0.9687244,0.6166845,0.9924172,130.24805,142.6935,-13.773143,-4.076954,0.0,0.0,0.0,2.0,1.0,1.9462346,1.2907312E-4,4.3034554E-5,89.0,89.0,89.0,89.0,22.047926,22.047926,24.919281,24.919281,0.014516163,0.014464849,-4.122204E-4,-4.1426896E-4,1223.4271,0.0,0.0,0.0,0.0,0.0,0.0,0.0,0.0,0.0,0.0,0.0,0.0,0.0,88.82938,-0.0021541063,-34.98754,0.0011603916,0.0035047974,0.0014785178,529691.44,119984.92,0.004378358,0.004604762,8901.254,8948.605,7672.302,7713.2476,0.29653263,0.0,0.0,0.0
178.4211,178.4211,1.866,0.0,0.0,343.74747,12265.0,100.0,0.0,-0.03150624,0.0,8.0,1.0,0.0,4000000.0,110.0,1.0,0.0,0.0,10.0,0.0,0.0,761.88214,0.85330546,-510.83755,0.025673827,0.028581988,0.011993401,348.70142,348.69995,343.59567,343.6122,108.0,108.0,151.0,152.0,89.0,89.0,89.0,89.0,0.0,0.0,0.0,0.0,0.051441357,0.051497195,0.055030104,0.055115674,0.5587935,0.17926095,-0.51319593,-0.83304936,-119.318054,-113.99386,-6.665287,-17.581879,0.0,0.0,0.0,2.0,1.0,1.9463911,1.2016407E-4,-2.3245811E-5,89.0,89.0,89.0,89.0,22.047926,22.047926,24.919281,24.919281,0.014465959,0.014422183,-4.1383944E-4,-4.133347E-4,1223.4329,0.0,0.0,0.0,0.0,0.0,0.0,0.0,0.0,0.0,0.0,0.0,0.0,0.0,88.83781,0.0023552133,-35.0044,-7.695119E-4,0.0027168032,-0.0012202951,529650.75,119984.9,0.004372079,0.0043723234,8943.378,8988.474,7649.632,7686.935,0.2964058,0.0,0.0,0.0
181.60182,181.60182,1.916,0.0,0.0,343.21704,12163.0,100.0,18.394747,-0.032834303,0.0,8.0,0.0,1.0,4000000.0,110.0,1.0,0.0,0.0,10.0,0.0,0.0,764.84155,0.8531376,-512.0038,0.025889948,-0.63605857,-0.05356067,345.79102,345.79312,341.48535,341.50403,115.0,116.0,158.0,159.0,89.0,89.0,89.0,89.0,0.0,0.0,0.0,0.0,0.051596377,0.05165787,0.054878153,0.054964237,0.0,0.0,0.0,0.0,-346.7157,-343.71164,185.82343,196.48518,0.0,0.0,0.0,2.0,1.0,1.9464743,1.2164141E-4,9.572506E-5,89.0,89.0,89.0,89.0,22.047926,22.047926,24.919281,24.919281,0.0077233184,0.0076952963,-0.005102624,-0.0050896388,1220.5442,0.0,0.0,0.0,0.0,0.0,0.0,0.0,0.0,0.0,0.0,0.0,0.0,0.0,88.69763,-0.012004373,-34.958218,-0.0029835105,0.0023245001,-0.007976318,532831.4,0.0,0.0041366573,0.004411218,8871.898,8916.765,7837.372,7876.447,0.29627228,0.0,0.0,0.0
186.35384,186.35384,1.966,0.0,0.0,340.82596,11937.0,70.0679,51.524513,-0.03396476,0.0,8.0,0.0,1.0,4000000.0,110.0,1.0,0.0,0.0,10.0,0.0,0.0,769.2627,0.8519921,-513.7466,0.023926735,-1.852326,0.007011375,337.80038,337.8096,336.26556,336.23914,146.0,146.0,185.0,186.0,89.0,89.0,89.0,89.0,0.0,0.0,0.0,0.0,0.052206557,0.052258834,0.054922953,0.05500536,0.0,0.0,0.0,0.0,301.26562,284.5019,-222.38193,-229.62389,0.0,0.0,0.0,2.0,1.0,1.9465806,1.12044385E-4,3.8301945E-4,89.0,89.0,89.0,89.0,22.047926,22.047926,24.919281,24.919281,-0.0038699312,-0.0038756004,-0.01352324,-0.013632087,1211.9767,0.0,0.0,0.0,0.0,0.0,0.0,0.0,0.0,0.0,0.0,0.0,0.0,0.0,88.07534,-0.024428109,-34.72573,-0.00413364,0.0020143688,-0.009176901,539108.4,0.0,0.0026316291,0.0037196924,8905.834,8948.09,8454.415,8491.331,0.2951088,0.0,0.0,0.0
192.59843,192.59843,2.016,0.0,0.0,333.31726,11524.0,28.230719,96.89906,-0.13129419,0.0,8.0,0.0,1.0,4000000.0,110.0,1.0,0.0,0.0,10.0,0.0,0.0,775.0721,0.85184747,-516.03766,0.032681108,-3.7884867,0.024439938,326.62073,326.6034,323.67212,323.6124,221.0,221.0,262.0,262.0,89.0,89.0,89.0,89.0,0.0,0.0,0.0,0.0,0.051851127,0.051928934,0.054824192,0.05492122,-3.7763264,-3.139749,-9.592696,-8.918792,204.22337,194.52718,-491.9707,-467.96497,0.0,0.0,0.0,2.0,1.0,1.946797,1.3973909E-4,0.0013102293,89.0,89.0,89.0,89.0,22.047926,22.047926,24.919281,24.919281,-0.019687884,-0.019827815,-0.028776532,-0.029052332,1187.5243,0.0,0.0,0.0,0.0,0.0,0.0,0.0,0.0,0.0,0.0,0.0,0.0,0.0,86.12871,0.01339696,-33.976562,-0.0013624205,0.0059782644,-0.0077058324,547162.44,0.0,0.0014219154,0.0048750215,8550.816,8602.615,9178.742,9224.873,0.29484272,0.0,0.0,0.0
197.1744,197.1744,2.066,0.0,0.0,325.9789,11188.0,2.3804073,100.0,-0.24692789,0.0,8.0,0.0,1.0,4000000.0,110.0,1.0,0.0,0.0,10.0,0.0,0.0,779.3288,0.8526802,-517.71747,0.06294489,-4.2269297,0.024095295,317.5841,317.60657,315.99088,316.01138,282.0,282.0,326.0,326.0,89.0,89.0,89.0,89.0,0.0,0.0,0.0,0.0,0.05121573,0.05137644,0.054538652,0.05474062,-15.276073,-13.332589,-5.1630287,-2.3965535,-114.54374,-108.44169,5.3107734,43.076275,0.0,0.0,0.0,2.0,1.0,1.9472808,2.854908E-4,0.0016249418,89.0,89.0,89.0,89.0,22.047926,22.047926,24.919281,24.919281,-0.025447799,-0.025586268,-0.030498374,-0.030677453,1158.581,0.0,0.0,0.0,0.0,0.0,0.0,0.0,0.0,0.0,0.0,0.0,0.0,0.0,84.22349,0.022798799,-33.251343,6.768792E-4,0.013092823,-0.007433496,549858.56,0.0,0.0020041987,0.006167685,8292.012,8398.864,9100.307,9199.949,0.29577923,0.0,0.0,0.0
201.64694,201.64694,2.116,0.0,0.0,318.4928,10908.0,0.0,100.0,-0.34014294,0.0,8.0,0.0,1.0,4000000.0,110.0,1.0,0.0,0.0,10.0,0.0,0.0,783.48865,0.85406345,-519.36084,0.10153663,-4.2537107,-0.010084583,309.70273,309.75964,308.4189,306.93692,336.0,336.0,383.0,383.0,89.0,89.0,89.0,89.0,0.0,0.0,0.0,0.0,0.05043237,0.050668582,0.05414745,0.0544461,-15.596598,-12.897848,-9.680762,-6.2732396,17.742804,106.5105,-90.175835,-68.27562,0.0,0.0,0.0,2.0,1.0,1.9481685,4.3632512E-4,0.0018059015,89.0,89.0,89.0,89.0,22.047926,22.047926,24.919281,24.919281,-0.0273611,-0.027488442,-0.031398688,-0.036392853,1125.8875,0.0,0.0,0.0,0.0,0.0,0.0,0.0,0.0,0.0,0.0,0.0,0.0,0.0,82.27448,0.028987594,-32.525192,0.0032728754,0.019050518,-0.004599796,548058.44,0.0,0.0031927691,0.007896994,7891.0327,8063.0273,8815.678,8964.131,0.29718113,0.0,0.0,0.0
204.57092,204.57092,2.166,0.0,0.0,313.518,10717.0,0.0,100.0,-0.35179496,0.0,8.0,0.0,1.0,4000000.0,110.0,1.0,0.0,0.0,10.0,0.0,0.0,786.20764,0.8550013,-520.4364,0.098036766,-4.2028484,-0.025390895,304.46997,304.0632,303.39246,301.91537,369.0,369.0,418.0,418.0,89.0,89.0,89.0,89.0,0.0,0.0,0.0,0.0,0.049997896,0.050335083,0.053864907,0.054217074,0.0,0.0,0.0,0.0,205.72539,-374.42288,47.314163,-105.53149,0.0,0.0,0.0,2.0,1.0,1.9488946,4.8998254E-4,0.0018780231,89.0,89.0,89.0,89.0,22.047926,22.047926,24.919281,24.919281,-0.028386215,-0.030166915,-0.03198668,-0.037166167,1099.4585,0.0,0.0,0.0,0.0,0.0,0.0,0.0,0.0,0.0,0.0,0.0,0.0,0.0,80.97735,0.026293477,-32.04757,4.8178795E-4,0.027048254,-7.934772E-4,544731.7,0.0,0.0039922604,0.008924656,7668.056,7827.052,8650.59,8809.893,0.29808426,0.0,0.0,0.0
208.8706,208.8706,2.216,0.0,0.0,306.0647,10449.0,0.0,100.0,-0.3005421,0.0,8.0,0.0,1.0,4000000.0,110.0,1.0,0.0,0.0,10.0,0.0,0.0,790.20514,0.85652864,-522.02014,0.15516055,-4.2066374,0.03593337,296.90417,296.50433,295.91653,294.58362,415.0,415.0,466.0,466.0,89.0,89.0,89.0,89.0,0.0,0.0,0.0,0.0,0.049683496,0.050077662,0.053448252,0.054057322,0.0,0.0,0.0,0.0,454.62094,-1922.2853,413.54297,-1326.218,0.0,0.0,0.0,2.0,1.0,1.9505149,-6.630691E-5,0.0018523932,89.0,89.0,89.0,89.0,22.047926,22.047926,24.919281,24.919281,-0.029556092,-0.03142413,-0.032727268,-0.03767016,1059.5353,0.0,0.0,0.0,0.0,0.0,0.0,0.0,0.0,0.0,0.0,0.0,0.0,0.0,79.029175,0.040526032,-31.343948,-0.020564782,0.035992358,0.007997322,538415.7,0.0,0.0054653347,0.010221419,7514.1377,7690.4683,8426.715,8668.735,0.29953766,0.0,0.0,0.0
214.44345,214.44345,2.266,0.0,0.0,296.21606,10092.0,0.0,100.0,-0.18840599,0.0,8.0,0.0,1.0,4000000.0,110.0,1.0,0.0,0.0,10.0,0.0,0.0,795.3839,0.8592675,-524.0784,0.21805322,-4.1735477,-0.010243779,286.76672,286.38297,285.81564,284.9376,470.0,470.0,522.0,522.0,89.0,89.0,89.0,89.0,0.0,0.0,0.0,0.0,0.04848615,0.04896354,0.052635536,0.053788338,-14.461129,-16.060843,-14.3909445,5.1587815,495.20282,-72.17822,8.703746,329.99213,0.0,0.0,0.0,2.0,1.0,1.9528545,-2.9703425E-4,0.0020071268,89.0,89.0,89.0,89.0,22.047926,22.047926,24.919281,24.919281,-0.03154137,-0.033352744,-0.034706596,-0.038414538,989.88934,0.0,0.0,0.0,0.0,0.0,0.0,0.0,0.0,0.0,0.0,0.0,0.0,0.0,76.4413,0.03972006,-30.448202,-0.012603813,0.03312086,0.0073999227,520818.5,0.0,0.0070364615,0.013009337,6899.2607,7183.179,7933.5405,8536.099,0.3022623,0.0,0.0,0.0
217.16164,217.16164,2.316,0.0,0.0,291.3187,9919.0,0.0,100.0,-0.12318357,0.0,8.0,0.0,1.0,4000000.0,110.0,1.0,0.0,0.0,10.0,0.0,0.0,797.9086,0.86070573,-525.0854,0.22245896,-4.1548986,0.029741038,281.9164,281.4529,280.7877,280.2313,495.0,494.0,548.0,547.0,89.0,89.0,89.0,89.0,0.0,0.0,0.0,0.0,0.04849649,0.048471693,0.05222632,0.05388847,0.0,0.0,0.0,0.0,454.4332,95.68777,29.316557,-99.79157,0.0,0.0,0.0,2.0,1.0,1.9539075,-0.001385256,0.0017361641,89.0,89.0,89.0,89.0,22.047926,22.047926,24.919281,24.919281,-0.03195007,-0.034027696,-0.035714988,-0.038282335,952.72296,0.0,0.0,0.0,0.0,0.0,0.0,0.0,0.0,0.0,0.0,0.0,0.0,0.0,75.152664,0.048357368,-30.007038,-0.039074507,0.030674115,0.028349362,510006.53,0.0,0.007255081,0.013268243,6902.4155,6976.5483,7726.657,8548.056,0.3036394,0.0,0.0,0.0
221.15395,221.15395,2.366,0.0,0.0,283.98492,9664.0,0.0,100.0,-0.071717985,0.0,8.0,0.0,1.0,4000000.0,110.0,1.0,0.0,0.0,10.0,0.0,0.0,801.61523,0.8629201,-526.56836,0.21416295,-4.1072283,0.16048002,274.66992,274.18137,273.78503,274.95242,529.0,529.0,582.0,582.0,89.0,89.0,89.0,89.0,0.0,0.0,0.0,0.0,0.047472883,0.048409656,0.051826987,0.05481876,0.0,0.0,0.0,0.0,4055.1777,-3925.104,4005.8655,-13301.435,0.0,0.0,0.0,2.0,1.0,1.9551133,-0.0028395469,0.0021049976,89.0,89.0,89.0,89.0,22.047926,22.047926,24.919281,24.919281,-0.03253681,-0.034638405,-0.035243742,-0.031683784,891.9313,0.0,0.0,0.0,0.0,0.0,0.0,0.0,0.0,0.0,0.0,0.0,0.0,0.0,73.22193,0.07747144,-29.34858,-0.11572954,0.025320232,0.07248952,490062.5,0.0,0.005018289,0.013365494,6769.586,6795.6064,7843.539,8780.344,0.30590725,0.0,0.0,0.0
225.04541,225.04541,2.416,0.0,0.0,276.82635,10671.0,0.0,100.0,-0.011047087,0.0,7.0,0.0,1.0,4000000.0,110.0,1.0,0.0,0.0,10.0,0.0,0.0,805.22626,0.8667449,-528.0186,0.21076775,-3.9322689,0.051082965,269.19986,269.07877,265.8041,266.77307,560.0,560.0,613.0,613.0,89.0,89.0,89.0,89.0,0.0,0.0,0.0,0.0,0.048064556,0.048197456,0.051369756,0.052893374,0.0,0.0,0.0,0.0,-548.4178,-7684.5806,1331.4349,-333.8143,0.0,0.0,0.0,2.0,1.0,1.9561096,-0.006544481,0.0012732744,89.0,89.0,89.0,89.0,22.047926,22.047926,24.919281,24.919281,-0.026138829,-0.026922837,-0.03971557,-0.036194235,1093.1116,0.0,0.0,0.0,0.0,0.0,0.0,0.0,0.0,0.0,0.0,0.0,0.0,0.0,71.33696,0.09010934,-28.706388,-0.07770408,0.012996372,0.014766039,543921.7,0.0,0.008554382,0.013004407,6680.9277,6363.2554,7089.3936,7652.4854,0.30974007,0.0,0.0,0.0
230.0818,230.0818,2.466,0.0,0.0,267.42416,10213.0,0.0,100.0,0.023851827,0.0,7.0,0.0,1.0,4000000.0,110.0,1.0,0.0,0.0,10.0,0.0,0.0,809.8969,0.87144613,-529.9024,0.14505565,-4.0265326,-0.081026495,258.01108,258.03253,256.61243,257.4191,597.0,596.0,650.0,650.0,89.0,89.0,89.0,89.0,0.0,0.0,0.0,0.0,0.04448421,0.04375729,0.05108333,0.052046433,-67.858765,-59.16707,-7.1943545,-0.47989187,25.387114,478.92194,88.566536,246.495,0.0,0.0,0.0,2.0,1.0,1.9565618,-0.007866254,0.0027543306,89.0,89.0,89.0,89.0,22.047926,22.047926,24.919281,24.919281,-0.035041317,-0.03499785,-0.04037836,-0.03745217,1013.19617,0.0,0.0,0.0,0.0,0.0,0.0,0.0,0.0,0.0,0.0,0.0,0.0,0.0,68.874664,0.047204275,-27.829193,-0.008328505,0.0031153387,-0.017535357,526765.4,0.0,0.01050492,0.018746642,5736.248,5753.585,6944.523,7391.6504,0.3144722,0.0,0.0,0.0
233.74396,233.74396,2.516,0.0,0.0,260.32193,9929.0,0.0,100.0,-0.07836163,0.0,7.0,0.0,1.0,4000000.0,110.0,1.0,0.0,0.0,10.0,0.0,0.0,813.2917,0.8733878,-531.27576,0.109725356,-4.015461,-0.012357508,250.8826,250.85915,249.7337,250.4393,621.0,621.0,675.0,675.0,89.0,89.0,89.0,89.0,0.0,0.0,0.0,0.0,0.042104937,0.041472446,0.050999824,0.05188941,-38.61062,-39.50357,-1.1810659,-4.2803583,489.2349,356.07672,-1.8775462,-39.05296,0.0,0.0,0.0,2.0,1.0,1.9567882,-0.008287544,0.0034325123,89.0,89.0,89.0,89.0,22.047926,22.047926,24.919281,24.919281,-0.036113188,-0.036296103,-0.040545408,-0.0379579,955.0563,0.0,0.0,0.0,0.0,0.0,0.0,0.0,0.0,0.0,0.0,0.0,0.0,0.0,67.02466,0.03658594,-27.14162,-0.01571463,0.006402759,-0.004207792,510740.7,0.0,0.011014032,0.020981647,5668.4365,5606.198,6914.478,7292.796,0.31638336,0.0,0.0,0.0
237.30795,237.30795,2.566,0.0,0.0,253.27322,9647.0,0.0,100.0,-0.13232394,0.0,7.0,0.0,1.0,4000000.0,110.0,1.0,0.0,0.0,10.0,0.0,0.0,816.5945,0.8754122,-532.6145,0.0953995,-3.9799228,0.0022408916,243.75343,243.7067,242.61353,243.35117,644.0,644.0,697.0,697.0,89.0,89.0,89.0,89.0,0.0,0.0,0.0,0.0,0.040454563,0.039636653,0.050808337,0.051618043,-32.982227,-36.85623,-5.571618,-5.454272,-23.683775,-16.415174,-103.54665,-9.588889,0.0,0.0,0.0,2.0,1.0,1.9572428,-0.008923701,0.0038542747,89.0,89.0,89.0,89.0,22.047926,22.047926,24.919281,24.919281,-0.03734367,-0.037735894,-0.041806817,-0.03916525,887.9919,0.0,0.0,0.0,0.0,0.0,0.0,0.0,0.0,0.0,0.0,0.0,0.0,0.0,65.19252,0.044357006,-26.449442,-0.014937173,0.01113224,-0.002155664,488757.8,0.0,0.011897914,0.02299173,5483.91,5377.443,6746.7124,7094.051,0.31840706,0.0,0.0,0.0
239.6297,239.6297,2.616,0.0,0.0,248.60912,9458.0,0.0,100.0,-0.1541805,0.0,7.0,0.0,1.0,4000000.0,110.0,1.0,0.0,0.0,10.0,0.0,0.0,818.74567,0.87694263,-533.48785,0.09493542,-3.956925,-0.012524454,238.95197,238.92256,237.80014,238.53479,658.0,658.0,711.0,711.0,89.0,89.0,89.0,89.0,0.0,0.0,0.0,0.0,0.039286055,0.038385328,0.05061513,0.051346134,0.0,0.0,0.0,0.0,-131.2136,-0.4291534,-22.302559,-42.164352,0.0,0.0,0.0,2.0,1.0,1.9576498,-0.009297606,0.0041310787,89.0,89.0,89.0,89.0,22.047926,22.047926,24.919281,24.919281,-0.038540244,-0.03894678,-0.04315447,-0.040515393,842.4995,0.0,0.0,0.0,0.0,0.0,0.0,0.0,0.0,0.0,0.0,0.0,0.0,0.0,63.981045,0.04651218,-25.989292,-0.011854302,0.012948928,-0.0053207222,472985.0,0.0,0.012745703,0.024511218,5306.495,5206.418,6597.1367,6897.1826,0.31991863,0.0,0.0,0.0
243.03183,243.03183,2.666,0.0,0.0,241.70021,10647.0,0.0,100.0,-0.17026511,0.0,6.0,0.0,1.0,4000000.0,110.0,1.0,0.0,0.0,10.0,0.0,0.0,821.89703,0.8791603,-534.76917,0.09779942,-3.8403988,-0.035508554,233.23824,233.22131,230.62639,231.52382,677.0,677.0,729.0,729.0,89.0,89.0,89.0,89.0,0.0,0.0,0.0,0.0,0.037291303,0.03650105,0.05029634,0.051023647,0.0,0.0,0.0,0.0,195.03683,149.10414,-121.718605,296.37067,0.0,0.0,0.0,2.0,1.0,1.9582956,-0.00958245,0.00469172,89.0,89.0,89.0,89.0,22.047926,22.047926,24.919281,24.919281,-0.03378632,-0.03414538,-0.04536631,-0.04213635,1089.8441,0.0,0.0,0.0,0.0,0.0,0.0,0.0,0.0,0.0,0.0,0.0,0.0,0.0,62.186573,0.040842213,-25.307444,-0.0075188717,0.012999346,-0.0049651177,543518.25,0.0,0.013810598,0.02695031,4998.0776,4924.6943,6397.093,6721.2944,0.32209682,0.0,0.0,0.0
247.42075,247.42075,2.716,0.0,0.0,232.61967,10157.0,0.0,100.0,-0.42871806,0.0,6.0,0.0,1.0,4000000.0,110.0,1.0,0.0,0.0,10.0,0.0,0.0,825.9612,0.8815923,-536.4254,0.12305653,-3.8793957,-0.0120728705,222.78278,222.81578,221.21786,222.3177,700.0,700.0,751.0,752.0,89.0,89.0,89.0,89.0,0.0,0.0,0.0,0.0,0.03507804,0.034390826,0.049887348,0.05066751,-35.67852,-28.83151,-3.5939364,-4.0078907,-152.9933,102.99682,90.53795,33.70193,0.0,0.0,0.0,2.0,1.0,1.9593581,-0.009971241,0.005198717,89.0,89.0,89.0,89.0,22.047926,22.047926,24.919281,24.919281,-0.041799136,-0.042090956,-0.04864711,-0.044439007,1002.42596,0.0,0.0,0.0,0.0,0.0,0.0,0.0,0.0,0.0,0.0,0.0,0.0,0.0,59.825012,0.03604118,-24.418608,-0.0087639,0.020893747,-0.008953292,524039.3,0.0,0.015127883,0.029479664,4760.69,4734.589,6163.4434,6482.213,0.32458687,0.0,0.0,0.0
250.60176,250.60176,2.766,0.0,0.0,225.79982,9828.0,0.0,100.0,-1.2020644,0.0,6.0,0.0,1.0,4000000.0,110.0,1.0,0.0,0.0,10.0,0.0,0.0,828.9054,0.88339204,-537.62933,0.2181592,-3.8545637,-0.02128293,215.3974,215.7535,213.93196,215.65623,715.0,715.0,766.0,767.0,89.0,89.0,89.0,89.0,0.0,0.0,0.0,0.0,0.033084475,0.032814845,0.04953845,0.05056502,-42.090786,-27.81093,-9.298324,-0.5444884,-117.80273,272.84763,-109.54138,68.23539,0.0,0.0,0.0,2.0,1.0,1.9609857,-0.009636577,0.00572598,89.0,89.0,89.0,89.0,22.047926,22.047926,24.919281,24.919281,-0.04524729,-0.044832148,-0.051589604,-0.045431204,930.7241,0.0,0.0,0.0,0.0,0.0,0.0,0.0,0.0,0.0,0.0,0.0,0.0,0.0,58.03898,0.035683118,-23.781223,0.009342989,0.04557468,-0.014073556,502843.5,0.0,0.015994102,0.031648926,4440.4736,4564.8687,5940.7637,6392.842,0.3263874,0.0,0.0,0.0
252.66997,252.66997,2.816,0.0,0.0,221.28493,9611.0,0.0,100.0,-1.8068738,0.0,6.0,0.0,1.0,4000000.0,110.0,1.0,0.0,0.0,10.0,0.0,0.0,830.8185,0.88453144,-538.4149,0.31284463,-3.8280754,-0.034525383,210.43372,211.17244,208.64337,211.20685,725.0,725.0,775.0,776.0,89.0,89.0,89.0,89.0,0.0,0.0,0.0,0.0,0.031619955,0.032005943,0.0491551,0.050520193,0.0,0.0,0.0,0.0,-79.33959,159.02823,-77.24761,3.3929942,0.0,0.0,0.0,2.0,1.0,1.9630035,-0.008991439,0.006045699,89.0,89.0,89.0,89.0,22.047926,22.047926,24.919281,24.919281,-0.047846146,-0.04628684,-0.055577856,-0.046349403,879.5813,0.0,0.0,0.0,0.0,0.0,0.0,0.0,0.0,0.0,0.0,0.0,0.0,0.0,56.84349,0.032202635,-23.390932,0.015915979,0.07245018,-0.017749028,485941.97,0.0,0.016797796,0.033059206,4204.7676,4516.201,5708.1836,6311.5166,0.32746696,0.0,0.0,0.0
256.68158,256.68158,2.866,0.0,0.0,212.3378,9172.0,0.0,100.0,-3.3679028,0.0,6.0,0.0,1.0,4000000.0,110.0,1.0,0.0,0.0,10.0,0.0,0.0,834.5244,0.8863028,-539.95013,0.57032347,-3.7765265,-0.041177828,200.29744,202.00879,196.98273,202.67538,742.0,742.0,792.0,793.0,89.0,89.0,89.0,89.0,0.0,0.0,0.0,0.0,0.028637774,0.030692931,0.04836851,0.050577283,-44.022533,-17.557068,-12.683048,1.271814,57.097546,147.01193,-74.24354,-10.862946,0.0,0.0,0.0,2.0,1.0,1.9700139,-0.0069666295,0.0067451,89.0,89.0,89.0,89.0,22.047926,22.047926,24.919281,24.919281,-0.054552305,-0.050024252,-0.069128476,-0.04708719,766.58105,0.0,0.0,0.0,0.0,0.0,0.0,0.0,0.0,0.0,0.0,0.0,0.0,0.0,54.432533,0.020980425,-22.716959,0.03188933,0.13528748,-0.023742694,443783.38,0.0,0.018067375,0.035702452,3707.9597,4477.6187,5304.9062,6279.955,0.3292427,0.0,0.0,0.0
258.62555,258.62555,2.916,0.0,0.0,207.98033,10799.0,0.0,100.0,-4.915531,0.0,6.0,0.0,1.0,4000000.0,110.0,1.0,0.0,0.0,10.0,0.0,0.0,836.3169,0.8868935,-540.7024,0.79326254,-3.6227956,-0.03837367,199.52728,200.57382,199.85326,203.39526,750.0,750.0,799.0,800.0,89.0,89.0,89.0,89.0,0.0,0.0,0.0,0.0,0.027228449,0.030298932,0.047903813,0.050568305,0.0,0.0,0.0,0.0,44.310146,300.4543,-95.12454,-231.85011,0.0,0.0,0.0,2.0,1.0,1.975253,-0.0054045725,0.007052183,89.0,89.0,89.0,89.0,22.047926,22.047926,24.919281,24.919281,-0.0438764,-0.04302098,-0.05015233,-0.029045617,1110.7812,0.0,0.0,0.0,0.0,0.0,0.0,0.0,0.0,0.0,0.0,0.0,0.0,0.0,53.2272,0.015117769,-22.461199,0.05348802,0.18238454,-0.02773358,546162.7,0.0,0.018746937,0.036800835,3416.7312,4563.9736,5077.9478,6276.037,0.3298273,0.0,0.0,0.0
261.47403,261.47403,2.966,0.0,0.0,202.38,10252.0,0.0,100.0,-6.754299,0.0,5.0,0.0,1.0,4000000.0,110.0,1.0,0.0,0.0,10.0,0.0,0.0,838.9362,0.8869734,-541.82184,1.1080234,-3.3276393,-0.064677075,194.40416,195.62202,190.95502,197.71675,762.0,762.0,810.0,811.0,89.0,89.0,89.0,89.0,0.0,0.0,0.0,0.0,0.025618749,0.03225853,0.046212014,0.050578404,0.0,0.0,0.0,0.0,7.959365,-1400.5087,1258.3179,-170.13248,0.0,0.0,0.0,2.0,1.0,1.9863343,-0.0014211176,0.0067361593,89.0,89.0,89.0,89.0,22.047926,22.047926,24.919281,24.919281,-0.03711494,-0.036417183,-0.06299209,-0.03159335,1020.8404,0.0,0.0,0.0,0.0,0.0,0.0,0.0,0.0,0.0,0.0,0.0,0.0,0.0,51.597992,-0.01013123,-22.315035,0.052353118,0.24579214,-0.031114118,528720.6,0.0,0.020783685,0.037093762,3086.9546,4975.3145,4246.1055,6108.2944,0.32980442,0.0,0.0,0.0
264.2437,264.2437,3.016,0.0,0.0,196.91672,10035.0,0.0,100.0,-8.643187,0.0,5.0,0.0,1.0,4000000.0,110.0,1.0,0.0,0.0,10.0,0.0,0.0,841.47235,0.8859934,-542.9366,1.4649539,-2.9636962,-0.049214467,191.03146,192.36554,195.71257,196.41002,772.0,772.0,820.0,821.0,89.0,89.0,89.0,89.0,0.0,0.0,0.0,0.0,0.02401605,0.032572515,0.045675077,0.050446544,0.0,0.0,0.0,0.0,-27.278135,-615.6608,616.2911,-1042.1721,0.0,0.0,0.0,2.0,1.0,2.0008638,0.0024813146,0.00726974,89.0,89.0,89.0,89.0,22.047926,22.047926,24.919281,24.919281,-0.028510686,-0.029271428,-0.026634384,-0.009042583,978.9557,0.0,0.0,0.0,0.0,0.0,0.0,0.0,0.0,0.0,0.0,0.0,0.0,0.0,49.945564,-0.026369017,-22.303144,0.089274906,0.33075213,-0.043822132,517991.53,0.0,0.021553706,0.038286403,2622.8076,5032.5103,4137.92,6199.705,0.32890892,0.0,0.0,0.0
266.9505,266.9505,3.066,0.0,0.0,192.98013,9811.0,0.0,100.0,-9.442736,0.0,5.0,0.0,1.0,4000000.0,110.0,1.0,0.0,0.0,10.0,0.0,0.0,843.9363,0.88381165,-544.0613,1.7205186,-2.588422,-0.100947574,184.19029,187.70187,179.80191,186.75255,782.0,782.0,829.0,831.0,89.0,89.0,89.0,89.0,0.0,0.0,0.0,0.0,0.023043238,0.036886852,0.04331476,0.05026037,0.0,0.0,0.0,0.0,28.049238,-2672.0427,2333.2131,-272.8879,0.0,0.0,0.0,2.0,1.0,2.018739,0.009293026,0.006238103,89.0,89.0,89.0,89.0,22.047926,22.047926,24.919281,24.919281,-0.03782148,-0.030473694,-0.053359944,-0.03399561,926.6979,0.0,0.0,0.0,0.0,0.0,0.0,0.0,0.0,0.0,0.0,0.0,0.0,0.0,48.59957,-0.06091919,-22.619404,0.073638506,0.36146492,-0.046041504,501535.75,0.0,0.024440542,0.037113354,2488.895,5708.4976,2936.1816,5836.5283,0.326746,0.0,0.0,0.0
270.45227,270.45227,3.116,0.0,0.0,185.90965,9384.0,0.0,100.0,-9.220849,0.0,5.0,0.0,1.0,4000000.0,110.0,1.0,0.0,0.0,10.0,0.0,0.0,847.09985,0.88063604,-545.5749,1.7223799,-3.2134907,0.16579165,179.40164,181.0965,171.95905,184.88063,793.0,794.0,840.0,842.0,89.0,89.0,89.0,89.0,0.0,0.0,0.0,0.0,0.022508213,0.033975612,0.04382448,0.053233344,21.493992,-62.46462,-10.117962,42.59169,2242.1519,-732.5111,548.4982,-5520.1323,0.0,0.0,0.0,2.0,1.0,2.0435703,0.012067156,0.0068933964,89.0,89.0,89.0,89.0,22.047926,22.047926,24.919281,24.919281,-0.04818728,-0.04227173,-0.09167312,-0.032893237,822.5432,0.0,0.0,0.0,0.0,0.0,0.0,0.0,0.0,0.0,0.0,0.0,0.0,0.0,46.35216,0.0016598739,-22.766836,-0.020167928,0.38320777,0.051188238,465422.88,0.0,0.022024533,0.038791303,2662.9492,5024.8276,3614.9834,7557.1953,0.32362556,0.0,0.0,0.0
272.15674,272.15674,3.166,0.0,0.0,183.47243,9389.0,0.0,100.0,-9.114887,0.0,5.0,0.0,1.0,4000000.0,110.0,1.0,0.0,0.0,10.0,0.0,0.0,848.62866,0.8810484,-546.3383,2.0228329,-1.9555777,-0.06056641,177.74702,179.15343,176.50208,180.25032,799.0,800.0,845.0,847.0,89.0,89.0,89.0,89.0,0.0,0.0,0.0,0.0,0.025026217,0.03285299,0.042342875,0.051440336,0.0,0.0,0.0,0.0,-915.18945,3752.0884,-3439.7852,2154.3364,0.0,0.0,0.0,2.0,1.0,2.0566893,0.012278319,0.004745126,89.0,89.0,89.0,89.0,22.047926,22.047926,24.919281,24.919281,-0.024494866,-0.027906377,-0.024022209,-0.020523023,824.0436,0.0,0.0,0.0,0.0,0.0,0.0,0.0,0.0,0.0,0.0,0.0,0.0,0.0,45.461407,0.010719499,-23.03578,0.070632964,0.37842563,0.031869143,466023.53,0.0,0.025813105,0.038260426,2718.1074,5407.8555,2332.5083,6289.788,0.3239975,0.0,0.0,0.0
275.48822,275.48822,3.216,0.0,0.0,178.3194,9130.0,0.0,100.0,-9.377947,0.0,5.0,0.0,1.0,4000000.0,110.0,1.0,0.0,0.0,10.0,0.0,0.0,851.59357,0.8822788,-547.88727,1.9416174,-1.9371316,-0.03633396,172.0621,174.50795,171.57724,174.86783,809.0,810.0,854.0,857.0,89.0,89.0,89.0,89.0,0.0,0.0,0.0,0.0,0.024462664,0.034681223,0.042279843,0.050359696,-18.345861,-37.732643,-9.093805,2.1066515,-882.7886,239.76263,-2248.8174,1915.4188,0.0,0.0,0.0,2.0,1.0,2.07908,0.011552958,0.0052365065,89.0,89.0,89.0,89.0,22.047926,22.047926,24.919281,24.919281,-0.026099952,-0.026437666,-0.025310108,-0.021993754,755.72217,0.0,0.0,0.0,0.0,0.0,0.0,0.0,0.0,0.0,0.0,0.0,0.0,0.0,43.628864,0.02579077,-23.45327,0.0122379195,0.34585446,-0.01110154,439509.62,0.0,0.026397074,0.039903995,2335.6528,5188.5596,2699.4976,6194.4326,0.32513046,0.0,0.0,0.0
277.91693,277.91693,3.266,0.0,0.0,173.78844,10611.0,0.0,100.0,-10.454312,0.0,5.0,0.0,1.0,4000000.0,110.0,1.0,0.0,0.0,10.0,0.0,0.0,853.7355,0.8833883,-549.06396,1.8024144,-2.4776788,-0.029974392,167.16438,168.62892,161.97243,169.69623,817.0,818.0,861.0,864.0,89.0,89.0,89.0,89.0,0.0,0.0,0.0,0.0,0.022836445,0.03231945,0.04287987,0.0504496,-25.135315,-60.79271,26.272682,-9.71429,753.57324,-585.9283,723.9415,-1025.3682,0.0,0.0,0.0,2.0,1.0,2.096306,0.0110022575,0.006158471,89.0,89.0,89.0,89.0,22.047926,22.047926,24.919281,24.919281,-0.030793944,-0.03288791,-0.062195804,-0.025081621,1084.8743,0.0,0.0,0.0,0.0,0.0,0.0,0.0,0.0,0.0,0.0,0.0,0.0,0.0,42.116463,0.021894522,-23.593155,-0.021423947,0.35336062,-0.008745008,542875.3,0.0,0.026343273,0.042258605,2216.366,4808.297,2910.1492,6256.1494,0.3262329,0.0,0.0,0.0
279.49844,279.49844,3.316,0.0,0.0,170.90665,10134.0,0.0,100.0,-11.46487,0.0,4.0,0.0,1.0,4000000.0,110.0,1.0,0.0,0.0,10.0,0.0,0.0,855.12115,0.88411486,-549.8522,1.8499627,-2.3054874,-0.036411963,166.44917,167.81198,165.64792,170.1577,821.0,822.0,865.0,868.0,89.0,89.0,89.0,89.0,0.0,0.0,0.0,0.0,0.021921739,0.031306777,0.042881038,0.050500203,0.0,0.0,0.0,0.0,-39.08649,919.52814,-473.7317,-758.2067,0.0,0.0,0.0,2.0,1.0,2.108351,0.01122278,0.0064572096,89.0,89.0,89.0,89.0,22.047926,22.047926,24.919281,24.919281,-0.02108563,-0.023576641,-0.0491652,-0.007478361,997.9607,0.0,0.0,0.0,0.0,0.0,0.0,0.0,0.0,0.0,0.0,0.0,0.0,0.0,41.12948,0.021620223,-23.709759,0.01667503,0.37848768,-0.0023300708,522889.03,0.0,0.026652502,0.043345954,2046.4062,4850.5454,2778.7117,6200.132,0.32698727,0.0,0.0,0.0
281.82297,281.82297,3.366,0.0,0.0,167.21107,9788.0,0.0,100.0,-13.309832,0.0,4.0,0.0,1.0,4000000.0,110.0,1.0,0.0,0.0,10.0,0.0,0.0,857.1429,0.884756,-551.04724,1.8861239,-2.4033134,-0.07122347,158.38887,162.3782,148.34601,161.71745,827.0,828.0,870.0,874.0,89.0,89.0,89.0,89.0,0.0,0.0,0.0,0.0,0.02113842,0.0321833,0.041423447,0.050509024,0.0,0.0,0.0,0.0,-184.28786,-1584.9572,1834.5906,79.35314,0.0,0.0,0.0,2.0,1.0,2.1287537,0.012792723,0.0057919025,89.0,89.0,89.0,89.0,22.047926,22.047926,24.919281,24.919281,-0.042837773,-0.03289575,-0.08753792,-0.03532937,921.2637,0.0,0.0,0.0,0.0,0.0,0.0,0.0,0.0,0.0,0.0,0.0,0.0,0.0,39.758595,0.0040727216,-24.013048,-0.01994612,0.41038728,-0.0028905803,499766.34,0.0,0.028105512,0.043138687,2063.9272,5154.1006,2076.3708,5949.5054,0.3276291,0.0,0.0,0.0
284.08728,284.08728,3.416,0.0,0.0,163.53944,9621.0,0.0,100.0,-16.052904,0.0,4.0,0.0,1.0,4000000.0,110.0,1.0,0.0,0.0,10.0,0.0,0.0,859.0938,0.88500744,-552.2562,2.1791096,-2.1159358,-0.036883835,155.70483,159.90277,151.68706,159.64978,833.0,834.0,876.0,879.0,89.0,89.0,89.0,89.0,0.0,0.0,0.0,0.0,0.020634318,0.031835653,0.041243818,0.05060074,0.0,0.0,0.0,0.0,-1174.5726,1430.4219,-582.8037,875.3253,0.0,0.0,0.0,2.0,1.0,2.151485,0.013527345,0.006000757,89.0,89.0,89.0,89.0,22.047926,22.047926,24.919281,24.919281,-0.035861365,-0.028711028,-0.049989153,-0.027955541,881.8897,0.0,0.0,0.0,0.0,0.0,0.0,0.0,0.0,0.0,0.0,0.0,0.0,0.0,38.351467,0.006573032,-24.34818,0.029211182,0.49008098,-0.020651057,486710.9,0.0,0.028053815,0.0436386,1791.6345,5316.5312,2054.4558,6172.086,0.32788086,0.0,0.0,0.0
287.0108,287.0108,3.466,0.0,0.0,158.46971,9274.0,0.0,100.0,-20.418446,0.0,4.0,0.0,1.0,4000000.0,110.0,1.0,0.0,0.0,10.0,0.0,0.0,861.582,0.88579875,-553.89404,2.305721,-2.1919534,-0.048455633,149.31276,154.5512,140.58502,153.81908,841.0,842.0,882.0,886.0,89.0,89.0,89.0,89.0,0.0,0.0,0.0,0.0,0.019163916,0.031698655,0.04059582,0.051004905,-31.494606,8.632913,-17.917826,14.367699,-973.1723,477.45996,329.6032,315.07907,0.0,0.0,0.0,2.0,1.0,2.1873784,0.014971845,0.006178379,89.0,89.0,89.0,89.0,22.047926,22.047926,24.919281,24.919281,-0.04400243,-0.031736508,-0.08174395,-0.03346805,793.26764,0.0,0.0,0.0,0.0,0.0,0.0,0.0,0.0,0.0,0.0,0.0,0.0,0.0,36.373463,0.014189664,-24.792646,0.0077102277,0.57812506,-0.013173932,454181.72,0.0,0.028512374,0.044638675,1541.0736,5351.497,1740.4146,6252.476,0.32872677,0.0,0.0,0.0
289.13135,289.13135,3.516,0.0,0.0,154.84369,9068.0,0.0,100.0,-24.427275,0.0,4.0,0.0,1.0,4000000.0,110.0,1.0,0.0,0.0,10.0,0.0,0.0,863.36127,0.88651615,-555.14417,2.4758873,-2.0871317,-0.057192676,145.76634,151.37251,137.12013,150.25441,846.0,847.0,886.0,890.0,89.0,89.0,89.0,89.0,0.0,0.0,0.0,0.0,0.018101128,0.031311788,0.040154383,0.05106601,-28.166323,0.24318694,-15.196725,12.481659,-835.441,584.66785,-87.65459,724.38416,0.0,0.0,0.0,2.0,1.0,2.2182696,0.015858296,0.0062919855,89.0,89.0,89.0,89.0,22.047926,22.047926,24.919281,24.919281,-0.042973824,-0.0308361,-0.081479676,-0.033390675,739.66614,0.0,0.0,0.0,0.0,0.0,0.0,0.0,0.0,0.0,0.0,0.0,0.0,0.0,34.869728,0.013380484,-25.182253,0.010107411,0.6419951,-0.015247641,433113.03,0.0,0.029007688,0.04551312,1346.646,5400.3643,1557.8574,6296.8926,0.32938862,0.0,0.0,0.0
