LapDistance [m],TotalDistance [m],LapTime [s],Sector1Time [s],Sector2Time [s],Speed [km/h],EngineRevs [rpm],ThrottlePercentage [%],BrakePercentage [%],Steer [%],Clutch [%],Gear [int],DRS [0/1],CanUseDRS [0/1],KERSLevel [J],EngineTemperature [C],RacePosition [int],Sector [int],InPits [int],FuelRemaining [kg],CurrentFlag [int],CurrentLapInvalid [int],X [m],Y [m],Z [m],GForceLatitudinal [G],GForceLongitudinal [G],GForceVertical [G],WheelSpeedRearLeft [km/h],WheelSpeedRearRight [km/h],WheelSpeedFrontLeft [km/h],WheelSpeedFrontRight [km/h],BrakeTemperatureRearLeft [C],BrakeTemperatureRearRight [C],BrakeTemperatureFrontLeft [C],BrakeTemperatureFrontRight [C],TyreTemperatureRearLeft [C],TyreTemperatureRearRight [C],TyreTemperatureFrontLeft [C],TyreTemperatureFrontRight [C],TyreWearRearLeft [%],TyreWearRearRight [%],TyreWearFrontLeft [%],TyreWearFrontRight [%],SuspensionPositionRearLeft [m],SuspensionPositionRearRight [m],SuspensionPositionFrontLeft [m],SuspensionPositionFrontRight [m],SuspensionVelocityRearLeft [m/s],SuspensionVelocityRearRight [m/s],SuspensionVelocityFrontLeft [m/s],SuspensionVelocityFrontRight [m/s],SuspensionAccelerationRearLeft [m/s^2],SuspensionAccelerationRearRight [m/s^2],SuspensionAccelerationFrontLeft [m/s^2],SuspensionAccelerationFrontRight [m/s^2],MGUKHarvested [J],MGUHHarvested [J],ERSSpent [J],ERSMode [int],FuelMixMode [int],Yaw [rad],Roll [rad],Pitch [rad],TyreCarcassTemperatureRearLeft [C],TyreCarcassTemperatureRearRight [C],TyreCarcassTemperatureFrontLeft [C],TyreCarcassTemperatureFrontRight [C],TyrePressureRearLeft [PSI],TyrePressureRearRight [PSI],TyrePressureFrontLeft [PSI],TyrePressureFrontRight [PSI],WheelSlipRearLeft [%],WheelSlipRearRight [%],WheelSlipFrontLeft [%],WheelSlipFrontRight [%],Torque [Nm],Handbrake [%],RearLeftInside [C],RearLeftMiddle [C],RearLeftOutside [C],RearRightInside [C],RearRightMiddle [C],RearRightOutside [C],FrontLeftInside [C],FrontLeftMiddle [C],FrontLeftOutside [C],FrontRightInside [C],FrontRightMiddle [C],FrontRightOutside [C],WoldSpeedX [km/h],WoldSpeedY [km/h],WoldSpeedZ [km/h],LocalAngularVelocityX [rad/s],LocalAngularVelocityY [rad/s],LocalAngularVelocityZ [rad/s],IcePower [W],MgukPower [W],FrontRideHeight [m],RearRideHeight [m],LoadRearLeft [N],LoadRearRight [N],LoadFrontLeft [N],LoadFrontRight [N],Extra1 [m],Extra2 [],Extra3 [],Extra4 []
2.8160057,2.8160057,0.033,0.0,0.0,292.79565,10474.0,100.0,0.0,-0.18609287,0.0,8.0,1.0,0.0,4000000.0,110.0,1.0,0.0,0.0,10.0,0.0,0.0,306.0975,-76.561165,-182.54645,0.07732381,0.3083033,0.028966071,297.8179,297.8059,292.63516,292.6926,205.0,204.0,264.0,263.0,97.0,97.0,97.0,97.0,0.0,0.0,0.0,0.0,0.043023326,0.043636404,0.05309099,0.053524613,8.744,7.8792114,0.8247792,1.1580436,-38.355614,5.0827785,68.7316,46.777714,0.0,0.0,0.0,2.0,1.0,-0.57339746,0.027407808,0.0042130947,97.0,97.0,97.0,97.0,21.302864,21.302864,24.666473,24.666473,0.017279744,0.017067544,-4.4108357E-4,-4.430466E-4,1064.5803,0.0,0.0,0.0,0.0,0.0,0.0,0.0,0.0,0.0,0.0,0.0,0.0,0.0,-44.175507,-0.19911423,68.289085,-0.0066604656,0.009521755,-0.0015077945,539688.1,119984.9,0.011573938,0.016304055,7603.666,7750.9805,6449.3447,6646.412,0.3051777,0.0,0.0,0.0
6.8906517,6.8906517,0.083,0.0,0.0,293.33673,10493.0,100.0,0.0,-0.20622213,0.0,8.0,1.0,0.0,4000000.0,110.0,1.0,0.0,0.0,10.0,0.0,0.0,303.88748,-76.5707,-179.12805,0.0820571,0.30550674,0.03918603,298.3468,298.33896,293.17325,293.23676,204.0,204.0,263.0,262.0,97.0,97.0,97.0,97.0,0.0,0.0,0.0,0.0,0.0433389,0.04396157,0.053126093,0.053582862,7.372051,6.269216,1.5002488,1.3281404,116.54196,-11.587142,83.88608,9.642541,0.0,0.0,0.0,2.0,1.0,-0.5728869,0.027504079,0.00391829,97.0,97.0,97.0,97.0,21.302864,21.302864,24.666473,24.666473,0.01721419,0.016998356,-4.399018E-4,-4.4309374E-4,1068.3341,0.0,0.0,0.0,0.0,0.0,0.0,0.0,0.0,0.0,0.0,0.0,0.0,0.0,-44.224125,-0.18218863,68.436676,-0.0055372375,0.010614102,-0.0016239518,540610.44,119984.91,0.011442521,0.015938649,7647.6343,7793.9644,6480.027,6685.705,0.30489254,0.0,0.0,0.0
10.972782,10.972782,0.133,0.0,0.0,293.87512,10512.0,100.0,0.0,-0.20060544,0.0,8.0,1.0,0.0,4000000.0,110.0,1.0,0.0,0.0,10.0,0.0,0.0,301.67505,-76.57979,-175.70229,0.085936315,0.30456117,0.039055716,298.8822,298.87445,293.71,293.7764,203.0,203.0,262.0,262.0,97.0,97.0,97.0,97.0,0.0,0.0,0.0,0.0,0.043362815,0.044003032,0.053142183,0.05362636,7.3818855,7.387921,4.2741,4.6044583,436.98544,376.05908,190.87938,162.55525,0.0,0.0,0.0,2.0,1.0,-0.5723318,0.027587352,0.0037332773,97.0,97.0,97.0,97.0,21.302864,21.302864,24.666473,24.666473,0.01718405,0.016961275,-4.4104198E-4,-4.422219E-4,1071.3486,0.0,0.0,0.0,0.0,0.0,0.0,0.0,0.0,0.0,0.0,0.0,0.0,0.0,-44.27007,-0.17546244,68.58506,-0.005094497,0.011036098,-0.0020835118,541156.0,119984.9,0.010845272,0.015390505,7660.6094,7815.3276,6526.045,6746.4917,0.30432224,0.0,0.0,0.0
15.06236,15.06236,0.183,0.0,0.0,294.40497,10530.0,100.0,0.0,-0.14841619,0.0,8.0,1.0,0.0,4000000.0,110.0,1.0,0.0,0.0,10.0,0.0,0.0,299.4603,-76.5874,-172.26917,0.07999398,0.298128,0.06521832,299.38382,299.3729,294.24576,294.30005,202.0,202.0,261.0,261.0,97.0,97.0,97.0,97.0,0.0,0.0,0.0,0.0,0.044092864,0.04470248,0.053275492,0.053744037,7.538795,6.41562,-0.56326383,-1.2047588,-391.8304,-416.17154,-58.981766,-84.006775,0.0,0.0,0.0,2.0,1.0,-0.5718346,0.027592238,0.0032715797,97.0,97.0,97.0,97.0,21.302864,21.302864,24.666473,24.666473,0.017025337,0.0168329,-4.4120793E-4,-4.3821114E-4,1073.7924,0.0,0.0,0.0,0.0,0.0,0.0,0.0,0.0,0.0,0.0,0.0,0.0,0.0,-44.316685,-0.1353343,68.730225,-0.006975543,0.008705586,-0.00515319,541463.2,119984.89,0.0110145565,0.015044262,7748.8394,7894.4937,6551.378,6762.365,0.30430317,0.0,0.0,0.0
19.159224,19.159224,0.233,0.0,0.0,294.92712,10549.0,100.0,0.0,-0.15662189,0.0,8.0,1.0,0.0,4000000.0,110.0,1.0,0.0,0.0,10.0,0.0,0.0,297.24323,-76.59361,-168.82889,0.07528793,0.29461277,0.03737353,299.92517,299.91202,294.77304,294.81915,201.0,201.0,260.0,260.0,97.0,97.0,97.0,97.0,0.0,0.0,0.0,0.0,0.044062726,0.044624247,0.053209215,0.053657535,-0.8681416,-2.0007043,0.051185485,-0.5371123,53.268665,26.687979,131.93784,100.74377,0.0,0.0,0.0,2.0,1.0,-0.57143646,0.027566062,0.0029911995,97.0,97.0,97.0,97.0,21.302864,21.302864,24.666473,24.666473,0.0170483,0.016872915,-4.3739975E-4,-4.3901283E-4,1076.3878,0.0,0.0,0.0,0.0,0.0,0.0,0.0,0.0,0.0,0.0,0.0,0.0,0.0,-44.363964,-0.11530664,68.872345,-0.0025973204,0.007657697,-0.0020499846,541794.4,119984.91,0.0113819875,0.015307389,7720.695,7850.099,6513.1655,6714.795,0.30451202,0.0,0.0,0.0
23.26329,23.26329,0.283,0.0,0.0,295.44415,10568.0,100.0,0.0,-0.14796777,0.0,8.0,1.0,0.0,4000000.0,110.0,1.0,0.0,0.0,10.0,0.0,0.0,295.0238,-76.59935,-165.38156,0.0705875,0.29532668,7.665034E-4,300.46906,300.46143,295.28836,295.33765,200.0,200.0,259.0,259.0,97.0,97.0,97.0,97.0,0.0,0.0,0.0,0.0,0.043637015,0.044187434,0.053152777,0.053606905,-4.6319513,-6.219372,4.31925,2.9861925,815.35114,638.4059,728.1123,536.46857,0.0,0.0,0.0,2.0,1.0,-0.5710287,0.027492238,0.0029044151,97.0,97.0,97.0,97.0,21.302864,21.302864,24.666473,24.666473,0.017137092,0.016967867,-4.3909607E-4,-4.3851495E-4,1078.9934,0.0,0.0,0.0,0.0,0.0,0.0,0.0,0.0,0.0,0.0,0.0,0.0,0.0,-44.411144,-0.117049016,69.01278,-5.5749074E-4,0.008143253,-0.0041545657,542129.44,119984.9,0.0109866075,0.015359317,7654.3726,7775.0835,6522.328,6721.976,0.30430603,0.0,0.0,0.0
27.374563,27.374563,0.333,0.0,0.0,295.95868,10582.0,100.0,0.0,-0.15256666,0.0,8.0,1.0,0.0,4000000.0,110.0,1.0,0.0,0.0,10.0,0.0,0.0,292.80194,-76.60451,-161.92726,0.0688584,0.28984845,0.12534258,300.88092,300.87305,295.80283,295.8494,200.0,200.0,258.0,258.0,97.0,97.0,97.0,97.0,0.0,0.0,0.0,0.0,0.04449864,0.04496501,0.053487908,0.053886253,32.67981,31.374912,8.483379,7.6391544,1135.9691,1129.5183,185.04558,181.61235,0.0,0.0,0.0,2.0,1.0,-0.57064456,0.027410712,0.002458334,97.0,97.0,97.0,97.0,21.302864,21.302864,24.666473,24.666473,0.016734079,0.016577395,-4.364291E-4,-4.3796827E-4,1080.9291,0.0,0.0,0.0,0.0,0.0,0.0,0.0,0.0,0.0,0.0,0.0,0.0,0.0,-44.460587,-0.0809002,69.15097,-0.011781557,0.007453762,-0.0071196924,542383.5,119984.9,0.010228388,0.014324899,7953.002,8070.175,6789.999,6969.054,0.30340767,0.0,0.0,0.0
31.492897,31.492897,0.383,0.0,0.0,296.46274,10601.0,100.0,0.0,-0.1554165,0.0,8.0,1.0,0.0,4000000.0,110.0,1.0,0.0,0.0,10.0,0.0,0.0,290.57764,-76.60741,-158.46614,0.067676514,0.28467986,0.067266144,301.41354,301.40042,296.30792,296.35406,199.0,199.0,258.0,257.0,97.0,97.0,97.0,97.0,0.0,0.0,0.0,0.0,0.044920947,0.045469284,0.053438284,0.0538177,2.8594582,3.5697966,-0.9769945,-1.9973514,-275.81152,-362.80893,48.05177,5.565583,0.0,0.0,0.0,2.0,1.0,-0.57026637,0.027467804,0.0018818378,97.0,97.0,97.0,97.0,21.302864,21.302864,24.666473,24.666473,0.01679738,0.016624426,-4.3514714E-4,-4.370791E-4,1083.5183,0.0,0.0,0.0,0.0,0.0,0.0,0.0,0.0,0.0,0.0,0.0,0.0,0.0,-44.50902,-0.041108582,69.286316,-0.008072144,0.0075515625,-0.0027950648,542708.25,119984.9,0.010234205,0.013906109,7858.953,7990.136,6641.3745,6809.486,0.3031664,0.0,0.0,0.0
35.61824,35.61824,0.433,0.0,0.0,296.96298,10619.0,100.0,0.0,-0.14380743,0.0,8.0,1.0,0.0,4000000.0,110.0,1.0,0.0,0.0,10.0,0.0,0.0,288.3509,-76.60879,-154.99828,0.0649189,0.28234828,0.047982223,301.92798,301.9142,296.81003,296.8534,198.0,198.0,257.0,256.0,97.0,97.0,97.0,97.0,0.0,0.0,0.0,0.0,0.044829186,0.04537455,0.053415425,0.05379431,-1.2105702,-2.0232794,0.91619784,0.011846422,-6.5580006,-23.616842,59.42433,6.6250553,0.0,0.0,0.0,2.0,1.0,-0.5698944,0.027539218,0.0015813112,97.0,97.0,97.0,97.0,21.302864,21.302864,24.666473,24.666473,0.016813591,0.016648015,-4.345575E-4,-4.362111E-4,1085.9885,0.0,0.0,0.0,0.0,0.0,0.0,0.0,0.0,0.0,0.0,0.0,0.0,0.0,-44.557495,-0.016495548,69.420334,-0.0052364976,0.007144471,-0.0011745001,543023.5,119984.91,0.009938969,0.013758451,7832.9805,7957.9336,6649.043,6818.7397,0.3027954,0.0,0.0,0.0
39.75045,39.75045,0.483,0.0,0.0,297.45963,10636.0,100.0,0.0,-0.16048914,0.0,8.0,1.0,0.0,4000000.0,110.0,1.0,0.0,0.0,10.0,0.0,0.0,286.12177,-76.60899,-151.52376,0.06617216,0.28030813,0.044564825,302.41272,302.39734,297.30527,297.35117,197.0,197.0,256.0,255.0,97.0,97.0,97.0,97.0,0.0,0.0,0.0,0.0,0.044846624,0.045466278,0.053428836,0.053805884,1.9736586,5.256012,-2.1627543,-0.0029057262,-17.434351,83.26918,-125.52735,-17.98421,0.0,0.0,0.0,2.0,1.0,-0.56953806,0.027778164,0.0012489557,97.0,97.0,97.0,97.0,21.302864,21.302864,24.666473,24.666473,0.016757976,0.016569737,-4.3332044E-4,-4.3694643E-4,1088.3223,0.0,0.0,0.0,0.0,0.0,0.0,0.0,0.0,0.0,0.0,0.0,0.0,0.0,-44.605663,0.0072000753,69.55334,-0.006767653,0.0076748827,0.0014131584,543320.6,119984.89,0.0097628,0.013331358,7858.8896,8005.015,6634.058,6813.616,0.30239105,0.0,0.0,0.0
43.889553,43.889553,0.533,0.0,0.0,297.9492,10654.0,100.0,0.0,-0.120231226,0.0,8.0,1.0,0.0,4000000.0,110.0,1.0,0.0,0.0,10.0,0.0,0.0,283.89023,-76.607994,-148.04265,0.06136491,0.27582216,0.021928836,302.92355,302.91388,297.79633,297.8412,196.0,196.0,255.0,254.0,97.0,97.0,97.0,97.0,0.0,0.0,0.0,0.0,0.04486853,0.04545086,0.053395376,0.053796977,-3.8366761,-5.6912003,-1.1464207,-1.5918909,-254.13927,-230.71019,-28.458233,-41.480354,0.0,0.0,0.0,2.0,1.0,-0.5691502,0.027842311,0.0011211634,97.0,97.0,97.0,97.0,21.302864,21.302864,24.666473,24.666473,0.016791075,0.016630052,-4.343038E-4,-4.3173664E-4,1090.7959,0.0,0.0,0.0,0.0,0.0,0.0,0.0,0.0,0.0,0.0,0.0,0.0,0.0,-44.653202,0.027163208,69.684395,-4.1541993E-4,0.007370137,-4.9906084E-4,543635.5,119984.9,0.009978275,0.013557184,7818.0107,7942.2803,6616.0254,6796.8477,0.30254745,0.0,0.0,0.0
48.035435,48.035435,0.6,0.0,0.0,298.43307,10672.0,100.0,0.0,-0.13497451,0.0,8.0,1.0,0.0,4000000.0,110.0,1.0,0.0,0.0,10.0,0.0,0.0,281.6563,-76.60652,-144.55501,0.061222658,0.273122,-2.0176545E-4,303.42514,303.41586,298.2824,298.32327,196.0,196.0,254.0,253.0,97.0,97.0,97.0,97.0,0.0,0.0,0.0,0.0,0.044608522,0.045115273,0.053364307,0.053759858,0.0,0.0,0.0,0.0,36.07572,49.982956,11.882183,5.6594605,0.0,0.0,0.0,2.0,1.0,-0.5688,0.027833559,0.0011248589,97.0,97.0,97.0,97.0,21.302864,21.302864,24.666473,24.666473,0.016825167,0.01667679,-4.3131743E-4,-4.3278592E-4,1093.2571,0.0,0.0,0.0,0.0,0.0,0.0,0.0,0.0,0.0,0.0,0.0,0.0,0.0,-44.70026,0.030279495,69.81387,3.392857E-4,0.006875542,-1.6254905E-4,543943.1,119984.89,0.010120049,0.013932946,7782.9214,7895.37,6606.291,6786.08,0.3027668,0.0,0.0,0.0
52.187984,52.187984,0.633,0.0,0.0,298.91193,10689.0,100.0,0.0,-0.11221232,0.0,8.0,1.0,0.0,4000000.0,110.0,1.0,0.0,0.0,10.0,0.0,0.0,279.42004,-76.60501,-141.06093,0.05655974,0.27059796,-0.0024060889,303.8995,303.8963,298.76196,298.80106,195.0,195.0,253.0,253.0,97.0,97.0,97.0,97.0,0.0,0.0,0.0,0.0,0.04447714,0.044926796,0.053368557,0.05378916,-0.29861924,-2.6743858,0.937432,0.41462478,241.85475,98.43705,100.4353,-45.67801,0.0,0.0,0.0,2.0,1.0,-0.56845874,0.027733888,0.0011093616,97.0,97.0,97.0,97.0,21.302864,21.302864,24.666473,24.666473,0.016785536,0.016662346,-4.3201822E-4,-4.3084164E-4,1095.5883,0.0,0.0,0.0,0.0,0.0,0.0,0.0,0.0,0.0,0.0,0.0,0.0,0.0,-44.747356,0.029291613,69.94166,0.0012309228,0.0064486195,-0.004129976,544236.06,119984.91,0.010020506,0.01398648,7801.414,7893.605,6626.089,6812.9253,0.30273628,0.0,0.0,0.0
56.344646,56.344646,0.683,0.0,0.0,299.38596,10705.0,100.0,0.0,-0.11580754,0.0,8.0,1.0,0.0,4000000.0,110.0,1.0,0.0,0.0,10.0,0.0,0.0,277.18146,-76.60339,-137.56052,0.05514262,0.2672273,0.012378899,304.35764,304.3523,299.23627,299.2737,194.0,194.0,252.0,252.0,97.0,97.0,97.0,97.0,0.0,0.0,0.0,0.0,0.044702593,0.045055896,0.053474925,0.053841285,5.422532,3.1051037,1.284331,-0.31404194,20.398176,-78.72283,-102.32626,-177.15988,0.0,0.0,0.0,2.0,1.0,-0.5681423,0.027573131,9.621382E-4,97.0,97.0,97.0,97.0,21.302864,21.302864,24.666473,24.666473,0.016697468,0.016578905,-4.3091027E-4,-4.3096486E-4,1097.7942,0.0,0.0,0.0,0.0,0.0,0.0,0.0,0.0,0.0,0.0,0.0,0.0,0.0,-44.79484,0.035616133,70.06758,-0.0028355238,0.0061124186,-0.0038408595,544516.75,119984.9,0.009585884,0.0136036975,7853.2363,7938.9644,6688.085,6847.795,0.30233574,0.0,0.0,0.0
60.50643,60.50643,0.733,0.0,0.0,299.8563,10721.0,100.0,0.0,-0.11760516,0.0,8.0,1.0,0.0,4000000.0,110.0,1.0,0.0,0.0,10.0,0.0,0.0,274.94046,-76.60138,-134.05383,0.0546095,0.2652656,0.015839119,304.81238,304.80594,299.70648,299.74484,193.0,193.0,251.0,251.0,97.0,97.0,97.0,97.0,0.0,0.0,0.0,0.0,0.045002483,0.045404084,0.05348019,0.05386497,4.892349,5.1523,-0.09141862,0.029951332,-118.218346,-213.30264,-15.234944,-53.134552,0.0,0.0,0.0,2.0,1.0,-0.5678258,0.027509363,7.953644E-4,97.0,97.0,97.0,97.0,21.302864,21.302864,24.666473,24.666473,0.016619984,0.0164913,-4.3047633E-4,-4.308524E-4,1099.9982,0.0,0.0,0.0,0.0,0.0,0.0,0.0,0.0,0.0,0.0,0.0,0.0,0.0,-44.842155,0.04443756,70.1924,-3.00947E-4,0.0063703624,-0.002602379,544795.7,119984.9,0.009306694,0.012965046,7895.454,7994.254,6684.8022,6859.505,0.3018942,0.0,0.0,0.0
64.67471,64.67471,0.783,0.0,0.0,300.32162,10737.0,100.0,0.0,-0.10577922,0.0,8.0,1.0,0.0,4000000.0,110.0,1.0,0.0,0.0,10.0,0.0,0.0,272.69708,-76.59901,-130.54095,0.052137524,0.26241773,0.0016639477,305.2898,305.27985,300.1739,300.20892,192.0,192.0,250.0,250.0,97.0,97.0,97.0,97.0,0.0,0.0,0.0,0.0,0.045054283,0.045450307,0.05351077,0.053845067,-1.4488398,-1.098141,1.0936706,-0.55566424,-164.52667,-117.03818,35.60632,-12.432036,0.0,0.0,0.0,2.0,1.0,-0.5675184,0.02742247,8.0025196E-4,97.0,97.0,97.0,97.0,21.302864,21.302864,24.666473,24.666473,0.016627476,0.016498754,-4.3011367E-4,-4.2932318E-4,1102.2296,0.0,0.0,0.0,0.0,0.0,0.0,0.0,0.0,0.0,0.0,0.0,0.0,0.0,-44.88964,0.048616216,70.31544,0.0010070747,0.0058126934,-6.153417E-5,545087.4,119984.9,0.009156828,0.012839551,7873.2373,7975.996,6705.924,6851.2705,0.30176067,0.0,0.0,0.0
68.849396,68.849396,0.833,0.0,0.0,300.78094,10754.0,100.0,0.0,-0.11088935,0.0,8.0,1.0,0.0,4000000.0,110.0,1.0,0.0,0.0,10.0,0.0,0.0,270.45135,-76.59642,-127.021996,0.049762107,0.25889975,-0.006200783,305.754,305.74075,300.6356,300.66632,192.0,192.0,250.0,249.0,97.0,97.0,97.0,97.0,0.0,0.0,0.0,0.0,0.04505612,0.045500647,0.053543177,0.053827792,-1.4935433,-1.9247084,0.17009674,-1.6082077,-72.848785,-152.71155,44.041866,-11.265277,0.0,0.0,0.0,2.0,1.0,-0.5672494,0.027421057,8.186102E-4,97.0,97.0,97.0,97.0,21.302864,21.302864,24.666473,24.666473,0.016608283,0.016482959,-4.277461E-4,-4.2905973E-4,1104.5494,0.0,0.0,0.0,0.0,0.0,0.0,0.0,0.0,0.0,0.0,0.0,0.0,0.0,-44.937443,0.05165895,70.43628,-1.7728424E-5,0.0051712375,0.0024211728,545371.1,119984.9,0.009322331,0.012960854,7874.6694,7975.4785,6710.8413,6832.246,0.30194092,0.0,0.0,0.0
73.0304,73.0304,0.883,0.0,0.0,301.23563,10770.0,100.0,0.0,-0.09169838,0.0,8.0,1.0,0.0,4000000.0,110.0,1.0,0.0,0.0,10.0,0.0,0.0,268.20322,-76.59427,-123.49704,0.043231197,0.25789216,-0.035956036,306.23416,306.21704,301.09387,301.11847,191.0,191.0,249.0,248.0,97.0,97.0,97.0,97.0,0.0,0.0,0.0,0.0,0.044747937,0.04522358,0.053482734,0.05374892,-4.148036,-4.880726,2.5434046,0.61489636,340.51978,200.95108,406.39484,221.95277,0.0,0.0,0.0,2.0,1.0,-0.5670136,0.0275308,0.0010120869,97.0,97.0,97.0,97.0,21.302864,21.302864,24.666473,24.666473,0.016662804,0.01654424,-4.2759223E-4,-4.2828167E-4,1106.7874,0.0,0.0,0.0,0.0,0.0,0.0,0.0,0.0,0.0,0.0,0.0,0.0,0.0,-44.98622,0.033623252,70.554985,0.0026807827,0.004188293,0.0044722715,545664.25,119984.9,0.009295335,0.013162772,7822.8115,7921.6367,6696.1465,6807.4937,0.30204105,0.0,0.0,0.0
77.217735,77.217735,0.933,0.0,0.0,301.68716,10785.0,100.0,0.0,-0.07595168,0.0,8.0,1.0,0.0,4000000.0,110.0,1.0,0.0,0.0,10.0,0.0,0.0,265.95255,-76.59289,-119.96623,0.03508675,0.25505614,-0.007844314,306.65747,306.63892,301.5487,301.56458,190.0,190.0,248.0,247.0,97.0,97.0,97.0,97.0,0.0,0.0,0.0,0.0,0.044859055,0.04529063,0.05360994,0.053851772,8.299871,5.2153316,2.8147547,1.8482654,424.1645,217.59418,34.68096,-37.49728,0.0,0.0,0.0,2.0,1.0,-0.5668504,0.027633982,0.0010813475,97.0,97.0,97.0,97.0,21.302864,21.302864,24.666473,24.666473,0.01653887,0.01644093,-4.2694225E-4,-4.287653E-4,1108.8563,0.0,0.0,0.0,0.0,0.0,0.0,0.0,0.0,0.0,0.0,0.0,0.0,0.0,-45.038147,0.024604859,70.67063,-0.002135538,0.0025928624,9.96335E-4,545923.94,119984.9,0.008821357,0.012755577,7904.964,7989.6147,6784.5054,6890.3936,0.30156898,0.0,0.0,0.0
81.41131,81.41131,0.983,0.0,0.0,302.1335,10800.0,100.0,0.0,-0.031183397,0.0,8.0,1.0,0.0,4000000.0,110.0,1.0,0.0,0.0,10.0,0.0,0.0,263.69916,-76.59163,-116.42973,0.022690617,0.2504444,0.009642722,307.0877,307.06705,301.99988,302.00693,189.0,189.0,247.0,246.0,97.0,97.0,97.0,97.0,0.0,0.0,0.0,0.0,0.04541542,0.045766212,0.053679965,0.053879157,8.398443,7.4069195,-0.03263354,-0.5952268,-548.05566,-464.8536,-270.04477,-195.02339,0.0,0.0,0.0,2.0,1.0,-0.5667645,0.027737485,0.0010436773,97.0,97.0,97.0,97.0,21.302864,21.302864,24.666473,24.666473,0.016434334,0.016354078,-4.272072E-4,-4.257402E-4,1110.9346,0.0,0.0,0.0,0.0,0.0,0.0,0.0,0.0,0.0,0.0,0.0,0.0,0.0,-45.094025,0.028028898,70.78204,-8.9596404E-4,0.0010312482,0.0023971177,546187.5,119984.89,0.008921932,0.012365475,7962.8525,8041.359,6794.5146,6884.728,0.30142975,0.0,0.0,0.0
85.61102,85.61102,1.033,0.0,0.0,302.5731,10817.0,100.0,0.0,-0.040768698,0.0,8.0,1.0,0.0,4000000.0,110.0,1.0,0.0,0.0,10.0,0.0,0.0,261.44293,-76.59054,-112.88777,0.016674839,0.24761288,-0.041576505,307.56778,307.5491,302.44113,302.44617,189.0,189.0,246.0,246.0,97.0,97.0,97.0,97.0,0.0,0.0,0.0,0.0,0.045209248,0.045541067,0.05360893,0.053795062,-8.035674,-8.422359,-0.11086463,-0.8811056,-306.17413,-279.48618,63.648804,42.633705,0.0,0.0,0.0,2.0,1.0,-0.5667185,0.027793096,0.0012234449,97.0,97.0,97.0,97.0,21.302864,21.302864,24.666473,24.666473,0.016549941,0.016479282,-4.2459194E-4,-4.2586593E-4,1113.2834,0.0,0.0,0.0,0.0,0.0,0.0,0.0,0.0,0.0,0.0,0.0,0.0,0.0,-45.15163,0.013612035,70.89012,0.003131388,9.199213E-4,0.0024771392,546482.06,119984.9,0.009195808,0.012742792,7855.001,7924.297,6744.4297,6827.0503,0.30173874,0.0,0.0,0.0
89.81683,89.81683,1.083,0.0,0.0,303.00946,10832.0,100.0,0.0,-0.042685352,0.0,8.0,1.0,0.0,4000000.0,110.0,1.0,0.0,0.0,10.0,0.0,0.0,259.18384,-76.5903,-109.34043,0.01493407,0.24541263,-0.023624154,307.9805,307.96964,302.87424,302.88544,188.0,188.0,245.0,245.0,97.0,97.0,97.0,97.0,0.0,0.0,0.0,0.0,0.045183547,0.045451365,0.05363944,0.05383521,1.8645822,0.571981,0.6768107,1.290813,18.23902,75.19572,-30.97951,2.172589,0.0,0.0,0.0,2.0,1.0,-0.56663847,0.027812732,0.0013737679,97.0,97.0,97.0,97.0,21.302864,21.302864,24.666473,24.666473,0.01646167,0.016395146,-4.2496974E-4,-4.2479602E-4,1115.3494,0.0,0.0,0.0,0.0,0.0,0.0,0.0,0.0,0.0,0.0,0.0,0.0,0.0,-45.209526,-0.0014207975,70.99696,0.0019468017,0.0018853154,0.0012670241,546738.0,119984.89,0.009278393,0.012806964,7921.814,7982.873,6779.572,6871.259,0.30177975,0.0,0.0,0.0
94.02862,94.02862,1.149,0.0,0.0,303.43915,10847.0,100.0,0.0,-0.045350745,0.0,8.0,1.0,0.0,4000000.0,110.0,1.0,0.0,0.0,10.0,0.0,0.0,256.92184,-76.59064,-105.78782,0.015167974,0.24186829,-0.014088338,308.40305,308.3941,303.30344,303.31534,187.0,187.0,244.0,244.0,97.0,97.0,97.0,97.0,0.0,0.0,0.0,0.0,0.045340884,0.045566786,0.05368698,0.053891577,0.0,0.0,0.0,0.0,-125.46031,-75.289604,21.71248,47.528736,0.0,0.0,0.0,2.0,1.0,-0.5665419,0.027767688,0.0014737844,97.0,97.0,97.0,97.0,21.302864,21.302864,24.666473,24.666473,0.016415544,0.016355535,-4.2385646E-4,-4.2428958E-4,1117.4248,0.0,0.0,0.0,0.0,0.0,0.0,0.0,0.0,0.0,0.0,0.0,0.0,0.0,-45.267097,-0.0103732115,71.10181,0.0015348898,0.0019853893,-7.61956E-4,546997.94,119984.9,0.009358443,0.012853973,7947.833,8001.881,6817.5996,6911.883,0.3019266,0.0,0.0,0.0
98.24636,98.24636,1.183,0.0,0.0,303.86465,10861.0,100.0,0.0,-0.03303092,0.0,8.0,1.0,0.0,4000000.0,110.0,1.0,0.0,0.0,10.0,0.0,0.0,254.657,-76.59156,-102.22998,0.013765432,0.2404684,-0.008005841,308.81348,308.80597,303.72946,303.73932,186.0,186.0,243.0,243.0,97.0,97.0,97.0,97.0,0.0,0.0,0.0,0.0,0.045447506,0.04563605,0.0537254,0.05393306,6.763413,6.1871853,2.7450173,2.6674566,298.9858,320.05453,80.13099,72.28552,0.0,0.0,0.0,2.0,1.0,-0.5664493,0.027662853,0.0014992952,97.0,97.0,97.0,97.0,21.302864,21.302864,24.666473,24.666473,0.016346078,0.01629748,-4.247362E-4,-4.2396446E-4,1119.3835,0.0,0.0,0.0,0.0,0.0,0.0,0.0,0.0,0.0,0.0,0.0,0.0,0.0,-45.324177,-0.022192031,71.20558,2.3294345E-4,0.0015198488,-0.0030623875,547250.44,119984.9,0.009035449,0.012555669,7994.161,8040.3843,6855.931,6949.8105,0.30162716,0.0,0.0,0.0
102.46999,102.46999,1.233,0.0,0.0,304.28503,10875.0,100.0,0.0,-0.013191683,0.0,8.0,1.0,0.0,4000000.0,110.0,1.0,0.0,0.0,10.0,0.0,0.0,252.38925,-76.59249,-98.66701,0.009560071,0.23644145,0.026069408,309.2037,309.1943,304.15256,304.1561,186.0,185.0,243.0,242.0,97.0,97.0,97.0,97.0,0.0,0.0,0.0,0.0,0.046046153,0.046232026,0.053850606,0.05403278,11.346414,11.245607,1.3643502,0.9014457,-209.66827,-270.55438,-120.739624,-131.37459,0.0,0.0,0.0,2.0,1.0,-0.56640077,0.027519135,0.001319766,97.0,97.0,97.0,97.0,21.302864,21.302864,24.666473,24.666473,0.016208353,0.016173963,-4.245962E-4,-4.2276215E-4,1121.3168,0.0,0.0,0.0,0.0,0.0,0.0,0.0,0.0,0.0,0.0,0.0,0.0,0.0,-45.3822,-0.012810935,71.30707,-0.0018704659,3.1704854E-4,-0.005388626,547489.8,119984.91,0.008856182,0.011988868,8087.5093,8128.7773,6917.59,6999.4272,0.30140686,0.0,0.0,0.0
106.699394,106.699394,1.283,0.0,0.0,304.6997,10890.0,100.0,0.0,-0.019565811,0.0,8.0,1.0,0.0,4000000.0,110.0,1.0,0.0,0.0,10.0,0.0,0.0,250.11858,-76.59291,-95.09906,0.006444007,0.2339035,0.02009316,309.61868,309.6093,304.56946,304.56912,185.0,185.0,242.0,241.0,97.0,97.0,97.0,97.0,0.0,0.0,0.0,0.0,0.046319503,0.04643999,0.05386304,0.05404081,3.3610313,2.9397008,1.0011344,1.6991793,-105.89359,-40.286777,74.29718,124.65565,0.0,0.0,0.0,2.0,1.0,-0.5664037,0.027373392,0.001159668,97.0,97.0,97.0,97.0,21.302864,21.302864,24.666473,24.666473,0.01618087,0.01615607,-4.2235156E-4,-4.2345203E-4,1123.3856,0.0,0.0,0.0,0.0,0.0,0.0,0.0,0.0,0.0,0.0,0.0,0.0,0.0,-45.441124,-0.0042319433,71.406105,-8.990499E-4,-1.6727923E-4,-0.0042007663,547744.44,119984.89,0.008766521,0.011776648,8099.974,8131.0444,6925.181,7008.63,0.30138302,0.0,0.0,0.0
110.934586,110.934586,1.333,0.0,0.0,305.11072,10904.0,100.0,0.0,-0.037574332,0.0,8.0,1.0,0.0,4000000.0,110.0,1.0,0.0,0.0,10.0,0.0,0.0,247.84494,-76.59298,-91.52617,0.0055877566,0.23250428,0.019519145,310.01913,310.01398,304.97885,304.9813,184.0,184.0,241.0,240.0,97.0,97.0,97.0,97.0,0.0,0.0,0.0,0.0,0.04643612,0.0465067,0.053882938,0.054071147,5.1192193,3.920942,1.5809386,2.1108983,315.5753,297.7922,151.93372,171.28584,0.0,0.0,0.0,2.0,1.0,-0.5664048,0.027195483,9.906292E-4,97.0,97.0,97.0,97.0,21.302864,21.302864,24.666473,24.666473,0.016131908,0.016113207,-4.2125964E-4,-4.2463624E-4,1125.3373,0.0,0.0,0.0,0.0,0.0,0.0,0.0,0.0,0.0,0.0,0.0,0.0,0.0,-45.50042,0.002005593,71.5037,-0.0011674501,3.7128752E-4,-0.005557908,547991.56,119984.9,0.008449288,0.011391814,8134.2456,8153.4214,6945.7617,7031.931,0.3010645,0.0,0.0,0.0
115.175446,115.175446,1.383,0.0,0.0,305.51834,10918.0,100.0,0.0,-0.02361003,0.0,8.0,1.0,0.0,4000000.0,110.0,1.0,0.0,0.0,10.0,0.0,0.0,245.56833,-76.59257,-87.94844,0.0035700724,0.2297695,0.031005276,310.41098,310.40958,305.38605,305.3894,183.0,183.0,240.0,240.0,97.0,97.0,97.0,97.0,0.0,0.0,0.0,0.0,0.04679321,0.046800025,0.053937282,0.054111905,8.670016,5.6420264,1.4606862,-0.09968876,63.24646,-113.52447,19.15097,-110.56064,0.0,0.0,0.0,2.0,1.0,-0.56638384,0.026938213,7.919073E-4,97.0,97.0,97.0,97.0,21.302864,21.302864,24.666473,24.666473,0.016051166,0.016045213,-4.2187294E-4,-4.228897E-4,1127.2792,0.0,0.0,0.0,0.0,0.0,0.0,0.0,0.0,0.0,0.0,0.0,0.0,0.0,-45.55988,0.015056378,71.60007,-2.3727794E-4,4.4492172E-4,-0.00596996,548233.3,119984.89,0.008141024,0.010878772,8191.422,8193.035,6971.0205,7042.6714,0.30071545,0.0,0.0,0.0
119.42194,119.42194,1.433,0.0,0.0,305.92184,10932.0,100.0,0.0,-0.03866866,0.0,8.0,1.0,0.0,4000000.0,110.0,1.0,0.0,0.0,10.0,0.0,0.0,243.2888,-76.59159,-84.3659,0.006571457,0.2274242,0.014834277,310.82315,310.82175,305.7887,305.79498,183.0,182.0,239.0,239.0,97.0,97.0,97.0,97.0,0.0,0.0,0.0,0.0,0.04687536,0.04689106,0.05391299,0.054108594,0.34198162,-0.17546116,0.6256252,0.22172926,-111.01661,-250.57193,96.7875,7.416307,0.0,0.0,0.0,2.0,1.0,-0.5663419,0.026695052,7.376671E-4,97.0,97.0,97.0,97.0,21.302864,21.302864,24.666473,24.666473,0.016061656,0.016044505,-4.204699E-4,-4.2281035E-4,1129.2452,0.0,0.0,0.0,0.0,0.0,0.0,0.0,0.0,0.0,0.0,0.0,0.0,0.0,-45.61776,0.023276694,71.69609,0.003256776,0.0011083145,-0.0041252156,548486.1,119984.89,0.008017649,0.010706899,8168.0283,8178.134,6950.5645,7037.2515,0.30051422,0.0,0.0,0.0
123.67402,123.67402,1.483,0.0,0.0,306.3216,10946.0,100.0,0.0,-0.036263417,0.0,8.0,1.0,0.0,4000000.0,110.0,1.0,0.0,0.0,10.0,0.0,0.0,241.00642,-76.59033,-80.77856,0.009059675,0.22623983,0.0024507279,311.21988,311.21777,306.18668,306.1959,182.0,182.0,238.0,238.0,97.0,97.0,97.0,97.0,0.0,0.0,0.0,0.0,0.046815377,0.04684849,0.05393092,0.05411199,1.1303275,0.71771437,-0.12405215,-1.0945647,171.7016,107.90525,3.5807483,-41.882683,0.0,0.0,0.0,2.0,1.0,-0.5662694,0.02644011,6.8318844E-4,97.0,97.0,97.0,97.0,21.302864,21.302864,24.666473,24.666473,0.016042998,0.016017456,-4.2135557E-4,-4.2210423E-4,1131.1929,0.0,0.0,0.0,0.0,0.0,0.0,0.0,0.0,0.0,0.0,0.0,0.0,0.0,-45.673706,0.026370171,71.79211,0.001603313,0.0014973801,-0.003951445,548729.4,119984.9,0.007836905,0.010542676,8173.7456,8192.562,6949.5137,7028.363,0.30033302,0.0,0.0,0.0
127.9316,127.9316,1.533,0.0,0.0,306.71637,10960.0,100.0,0.0,-0.044162486,0.0,8.0,1.0,0.0,4000000.0,110.0,1.0,0.0,0.0,10.0,0.0,0.0,238.72133,-76.58879,-77.18641,0.012615256,0.22276232,-0.010771298,311.62347,311.6188,306.58148,306.59222,181.0,181.0,238.0,237.0,97.0,97.0,97.0,97.0,0.0,0.0,0.0,0.0,0.046879824,0.046979092,0.053916506,0.054072984,-1.894757,-2.5273113,-1.4841555,-3.2962112,-165.2911,-223.06587,-29.34336,-37.5241,0.0,0.0,0.0,2.0,1.0,-0.5661829,0.026185343,6.837845E-4,97.0,97.0,97.0,97.0,21.302864,21.302864,24.666473,24.666473,0.016045768,0.016008507,-4.196632E-4,-4.2022928E-4,1133.1489,0.0,0.0,0.0,0.0,0.0,0.0,0.0,0.0,0.0,0.0,0.0,0.0,0.0,-45.727604,0.030271286,71.88779,0.0041729948,0.0018432331,-7.4884656E-4,548976.1,119984.9,0.008142079,0.010629999,8155.965,8186.0703,6917.4194,6982.845,0.30058765,0.0,0.0,0.0
132.19464,132.19464,1.583,0.0,0.0,307.10596,10975.0,100.0,0.0,-0.019375985,0.0,8.0,1.0,0.0,4000000.0,110.0,1.0,0.0,0.0,10.0,0.0,0.0,236.43355,-76.58755,-73.58953,0.010570973,0.22025406,-0.023822661,312.03748,312.02267,306.97348,306.97928,180.0,180.0,237.0,236.0,97.0,97.0,97.0,97.0,0.0,0.0,0.0,0.0,0.04656607,0.046746578,0.053924274,0.054057762,-5.9312577,-3.037825,0.10415911,0.5677342,113.88659,231.05885,-55.736294,35.49903,0.0,0.0,0.0,2.0,1.0,-0.56611055,0.02617877,8.624792E-4,97.0,97.0,97.0,97.0,21.302864,21.302864,24.666473,24.666473,0.016105864,0.016047582,-4.2002107E-4,-4.1845717E-4,1135.2178,0.0,0.0,0.0,0.0,0.0,0.0,0.0,0.0,0.0,0.0,0.0,0.0,0.0,-45.780624,0.019466458,71.98232,0.0013059648,8.908255E-4,0.0020761401,549226.75,119984.89,0.008264291,0.011059515,8091.3135,8153.632,6948.929,7012.96,0.30091095,0.0,0.0,0.0
136.46307,136.46307,1.633,0.0,0.0,307.49136,10988.0,100.0,0.0,-0.035382707,0.0,8.0,1.0,0.0,4000000.0,110.0,1.0,0.0,0.0,10.0,0.0,0.0,234.14311,-76.5868,-69.987946,0.010598578,0.21731392,-0.012455034,312.41086,312.39685,307.35852,307.3643,180.0,180.0,236.0,235.0,97.0,97.0,97.0,97.0,0.0,0.0,0.0,0.0,0.046528205,0.046781775,0.05396782,0.054105684,0.9416788,2.7396529,0.61467284,1.02818,75.463936,135.38449,-46.777718,-4.3854113,0.0,0.0,0.0,2.0,1.0,-0.56606627,0.026252005,8.980036E-4,97.0,97.0,97.0,97.0,21.302864,21.302864,24.666473,24.666473,0.016047517,0.015990298,-4.182392E-4,-4.1931035E-4,1137.0376,0.0,0.0,0.0,0.0,0.0,0.0,0.0,0.0,0.0,0.0,0.0,0.0,0.0,-45.833332,0.01171567,72.075676,-0.0014556062,9.288216E-4,0.0011071513,549456.3,119984.9,0.008162256,0.01101702,8129.544,8188.908,6983.88,7048.443,0.30087852,0.0,0.0,0.0
140.73682,140.73682,1.683,0.0,0.0,307.87277,11001.0,100.0,0.0,-0.007692761,0.0,8.0,1.0,0.0,4000000.0,110.0,1.0,0.0,0.0,10.0,0.0,0.0,231.85002,-76.58625,-66.38174,0.0051412284,0.21515778,-7.08682E-4,312.77637,312.76123,307.7421,307.74298,179.0,179.0,235.0,235.0,97.0,97.0,97.0,97.0,0.0,0.0,0.0,0.0,0.046779037,0.047045313,0.054032937,0.054137297,4.9884615,5.530044,0.5051493,0.31292436,-54.07333,-8.676938,-90.63182,-12.069938,0.0,0.0,0.0,2.0,1.0,-0.56604326,0.026346235,8.198023E-4,97.0,97.0,97.0,97.0,21.302864,21.302864,24.666473,24.666473,0.015969722,0.015923629,-4.196752E-4,-4.1786698E-4,1138.8015,0.0,0.0,0.0,0.0,0.0,0.0,0.0,0.0,0.0,0.0,0.0,0.0,0.0,-45.88725,0.0105013475,72.16694,-0.0027756006,-5.699617E-5,8.8503887E-4,549658.44,119984.89,0.007964634,0.010628705,8181.281,8237.023,7018.482,7066.289,0.3006277,0.0,0.0,0.0
145.01584,145.01584,1.733,0.0,0.0,308.25012,11014.0,100.0,0.0,0.009896975,0.0,8.0,1.0,0.0,4000000.0,110.0,1.0,0.0,0.0,10.0,0.0,0.0,229.55418,-76.585655,-62.77104,-0.0020524636,0.21266803,0.010325857,313.14197,313.12387,308.1241,308.11578,178.0,178.0,234.0,234.0,97.0,97.0,97.0,97.0,0.0,0.0,0.0,0.0,0.0470614,0.047327563,0.054080136,0.05417415,4.7989187,5.2546706,0.49285585,1.0887532,-45.356136,-24.528807,-45.771885,21.323557,0.0,0.0,0.0,2.0,1.0,-0.5660883,0.026444368,7.443428E-4,97.0,97.0,97.0,97.0,21.302864,21.302864,24.666473,24.666473,0.015897473,0.015867818,-4.1874332E-4,-4.177418E-4,1140.1757,0.0,0.0,0.0,0.0,0.0,0.0,0.0,0.0,0.0,0.0,0.0,0.0,0.0,-45.943485,0.013998038,72.2554,-0.0014588651,-0.0015747913,-2.4798862E-4,549672.1,119984.89,0.007837833,0.010272086,8226.103,8275.887,7052.038,7097.1523,0.30044174,0.0,0.0,0.0
149.30006,149.30006,1.783,0.0,0.0,308.62228,11027.0,100.0,0.0,0.040833432,0.0,8.0,1.0,0.0,4000000.0,110.0,1.0,0.0,0.0,10.0,0.0,0.0,227.25546,-76.584854,-59.15602,-0.013143055,0.20991376,0.0014749311,313.51425,313.4949,308.50113,308.48358,177.0,177.0,233.0,233.0,97.0,97.0,97.0,97.0,0.0,0.0,0.0,0.0,0.047226675,0.04741213,0.0541177,0.054146968,1.3808905,-0.0013411044,-0.1426041,-0.94190234,-84.97237,-103.53326,-57.224922,-24.113058,0.0,0.0,0.0,2.0,1.0,-0.566209,0.026492646,6.979704E-4,97.0,97.0,97.0,97.0,21.302864,21.302864,24.666473,24.666473,0.015863178,0.015859291,-4.1878445E-4,-4.1606138E-4,1141.5503,0.0,0.0,0.0,0.0,0.0,0.0,0.0,0.0,0.0,0.0,0.0,0.0,0.0,-46.00287,0.017258031,72.34014,-7.970039E-4,-0.0031863826,0.0010009313,549686.0,119984.9,0.007886692,0.010192419,8237.637,8265.719,7055.507,7066.115,0.30047035,0.0,0.0,0.0
153.58943,153.58943,1.833,0.0,0.0,308.9892,11040.0,100.0,0.0,0.08216122,0.0,8.0,1.0,0.0,4000000.0,110.0,1.0,0.0,0.0,10.0,0.0,0.0,224.95364,-76.58403,-55.53688,-0.028245628,0.2067845,-0.0012121142,313.8847,313.86343,308.8751,308.844,177.0,177.0,233.0,232.0,97.0,97.0,97.0,97.0,0.0,0.0,0.0,0.0,0.04727789,0.047382675,0.054145,0.054141358,0.3864616,-1.5704333,0.91776246,0.004470348,8.194147,-61.972427,39.736923,1.7434356,0.0,0.0,0.0,2.0,1.0,-0.5664257,0.026524542,7.2813034E-4,97.0,97.0,97.0,97.0,21.302864,21.302864,24.666473,24.666473,0.015835233,0.015865399,-4.185278E-4,-4.1451573E-4,1142.9249,0.0,0.0,0.0,0.0,0.0,0.0,0.0,0.0,0.0,0.0,0.0,0.0,0.0,-46.067017,0.017325334,72.42013,7.9620583E-4,-0.005500209,-1.1798617E-4,549699.9,119984.9,0.007943505,0.010294442,8246.265,8248.666,7081.1367,7076.663,0.30062485,0.0,0.0,0.0
157.88385,157.88385,1.883,0.0,0.0,309.352,11052.0,100.0,0.0,0.1429144,0.0,8.0,1.0,0.0,4000000.0,110.0,1.0,0.0,0.0,10.0,0.0,0.0,222.64845,-76.58337,-51.9139,-0.049174614,0.20511502,0.002365081,314.24124,314.21686,309.24652,309.19708,176.0,176.0,232.0,231.0,97.0,97.0,97.0,97.0,0.0,0.0,0.0,0.0,0.047303073,0.0472788,0.054199684,0.054158255,4.137307,1.9226967,2.0123272,2.5541334,322.02597,250.90721,86.19277,91.82542,0.0,0.0,0.0,2.0,1.0,-0.5667832,0.026552185,7.1930885E-4,97.0,97.0,97.0,97.0,21.302864,21.302864,24.666473,24.666473,0.01577759,0.015848802,-4.1945887E-4,-4.135257E-4,1144.195,0.0,0.0,0.0,0.0,0.0,0.0,0.0,0.0,0.0,0.0,0.0,0.0,0.0,-46.138268,0.012305016,72.49424,-3.8684835E-4,-0.0087533835,-0.0033176462,549713.2,119984.9,0.007653706,0.010142232,8280.998,8255.746,7131.298,7114.4976,0.30046844,0.0,0.0,0.0
162.1831,162.1831,1.933,0.0,0.0,309.71167,11064.0,100.0,0.0,0.16105717,0.0,8.0,1.0,0.0,4000000.0,110.0,1.0,0.0,0.0,10.0,0.0,0.0,220.33948,-76.58274,-48.28737,-0.06789302,0.20370024,0.0034878086,314.5911,314.56772,309.61313,309.55008,175.0,175.0,231.0,230.0,97.0,97.0,97.0,97.0,0.0,0.0,0.0,0.0,0.047640648,0.047374245,0.054264523,0.05412246,6.255805,1.8893926,3.2005458,0.01206994,82.63884,132.46088,274.06808,234.29092,0.0,0.0,0.0,2.0,1.0,-0.56728274,0.02627749,6.378889E-4,97.0,97.0,97.0,97.0,21.302864,21.302864,24.666473,24.666473,0.015700737,0.015816163,-4.1866853E-4,-4.144053E-4,1145.4646,0.0,0.0,0.0,0.0,0.0,0.0,0.0,0.0,0.0,0.0,0.0,0.0,0.0,-46.2174,0.011978094,72.56231,0.0031311458,-0.010920935,-0.004888935,549726.3,119984.9,0.007131473,0.009576321,8334.11,8265.012,7160.5186,7087.3623,0.29994774,0.0,0.0,0.0
166.48682,166.48682,1.983,0.0,0.0,310.06888,11077.0,100.0,0.0,0.09429874,0.0,8.0,1.0,0.0,4000000.0,110.0,1.0,0.0,0.0,10.0,0.0,0.0,218.02643,-76.58194,-44.657536,-0.07055835,0.20189178,0.016480202,314.9323,314.91925,309.9657,309.91132,175.0,175.0,230.0,230.0,97.0,97.0,97.0,97.0,0.0,0.0,0.0,0.0,0.047899667,0.047560718,0.054348417,0.05419271,5.4102387,3.9772685,-1.1837481,0.19513069,44.32351,-6.5445895,-201.7155,-149.26492,0.0,0.0,0.0,2.0,1.0,-0.56780064,0.026086453,5.79834E-4,97.0,97.0,97.0,97.0,21.302864,21.302864,24.666473,24.666473,0.015646704,0.015760474,-4.1405857E-4,-4.1911096E-4,1146.8376,0.0,0.0,0.0,0.0,0.0,0.0,0.0,0.0,0.0,0.0,0.0,0.0,0.0,-46.30018,0.019779703,72.62721,0.0012735873,-0.009029961,-0.003204062,549739.3,119984.89,0.0065952116,0.008940053,8374.1045,8288.387,7185.0815,7119.4326,0.29926205,0.0,0.0,0.0
170.79546,170.79546,2.033,0.0,0.0,310.42123,11089.0,100.0,0.0,0.070753284,0.0,8.0,1.0,0.0,4000000.0,110.0,1.0,0.0,0.0,10.0,0.0,0.0,215.70923,-76.5806,-41.02449,-0.06699587,0.19717038,0.018065266,315.2803,315.2843,310.31088,310.2726,174.0,174.0,229.0,229.0,97.0,97.0,97.0,97.0,0.0,0.0,0.0,0.0,0.048061844,0.047791023,0.05435129,0.05425685,-4.9797444,-1.2765079,-3.327727,-3.2622366,-980.5216,-895.4151,-485.96255,-666.0461,0.0,0.0,0.0,2.0,1.0,-0.56818455,0.025821146,6.1762333E-4,97.0,97.0,97.0,97.0,21.302864,21.302864,24.666473,24.666473,0.01562837,0.015748138,-4.1233725E-4,-4.1636708E-4,1148.108,0.0,0.0,0.0,0.0,0.0,0.0,0.0,0.0,0.0,0.0,0.0,0.0,0.0,-46.381985,0.0341692,72.691124,0.0053890795,-0.0062281955,-0.0038880017,549752.7,119984.92,0.006946232,0.009082456,8376.297,8270.592,7163.6694,7119.08,0.29953766,0.0,0.0,0.0
175.10893,175.10893,2.083,0.0,0.0,310.76642,11103.0,100.0,0.0,0.07698135,0.0,8.0,1.0,0.0,4000000.0,110.0,1.0,0.0,0.0,10.0,0.0,0.0,213.38809,-76.57938,-37.38823,-0.0590579,0.19496638,-0.053795848,315.67923,315.67795,310.65216,310.6231,173.0,173.0,229.0,228.0,97.0,97.0,97.0,97.0,0.0,0.0,0.0,0.0,0.047516093,0.04720885,0.05422836,0.05408829,-13.1510935,-13.520791,1.271814,-0.2814084,-66.827255,-42.955566,321.9455,260.6973,0.0,0.0,0.0,2.0,1.0,-0.5684449,0.0256002,9.121895E-4,97.0,97.0,97.0,97.0,21.302864,21.302864,24.666473,24.666473,0.015811812,0.015894225,-4.1302244E-4,-4.1169542E-4,1149.5885,0.0,0.0,0.0,0.0,0.0,0.0,0.0,0.0,0.0,0.0,0.0,0.0,0.0,-46.458454,0.011802669,72.75607,0.0047581643,-0.004862014,4.6313775E-4,549767.5,119984.914,0.0077880416,0.010098991,8202.751,8135.353,7128.5156,7058.812,0.30046654,0.0,0.0,0.0
179.42717,179.42717,2.133,0.0,0.0,311.107,11114.0,100.0,0.0,0.08880745,0.0,8.0,1.0,0.0,4000000.0,110.0,1.0,0.0,0.0,10.0,0.0,0.0,211.06322,-76.57938,-33.748695,-0.054350547,0.1913712,-0.041552246,316.00406,315.99515,310.99432,310.9626,172.0,172.0,228.0,227.0,97.0,97.0,97.0,97.0,0.0,0.0,0.0,0.0,0.047325075,0.047107957,0.054191273,0.054066524,-2.3668258,-0.47542152,-0.70989126,-0.30867752,99.37584,76.563644,43.97481,27.707216,0.0,0.0,0.0,2.0,1.0,-0.56869847,0.02556026,0.001070857,97.0,97.0,97.0,97.0,21.302864,21.302864,24.666473,24.666473,0.015737288,0.015802652,-4.1262445E-4,-4.0998156E-4,1150.7527,0.0,0.0,0.0,0.0,0.0,0.0,0.0,0.0,0.0,0.0,0.0,0.0,0.0,-46.531742,-0.010042286,72.82151,0.003348003,-0.005417923,0.0013258685,549779.56,119984.9,0.008572764,0.010668352,8251.535,8210.298,7085.5537,7030.71,0.30124092,0.0,0.0,0.0
183.75008,183.75008,2.183,0.0,0.0,311.43826,11126.0,100.0,0.0,0.075913586,0.0,8.0,1.0,0.0,4000000.0,110.0,1.0,0.0,0.0,10.0,0.0,0.0,208.73471,-76.580185,-30.105942,-0.053108677,0.1858949,-0.007214579,316.32413,316.30994,311.32794,311.29044,172.0,172.0,227.0,226.0,97.0,97.0,97.0,97.0,0.0,0.0,0.0,0.0,0.04741267,0.04723053,0.054291025,0.05416097,3.4148989,3.6712732,2.1589546,2.029985,172.72083,147.41418,-6.77257,-11.828541,0.0,0.0,0.0,2.0,1.0,-0.56900907,0.025538085,0.0011503696,97.0,97.0,97.0,97.0,21.302864,21.302864,24.666473,24.666473,0.015679082,0.01574575,-4.0982736E-4,-4.1046515E-4,1152.02,0.0,0.0,0.0,0.0,0.0,0.0,0.0,0.0,0.0,0.0,0.0,0.0,0.0,-46.60376,-0.019087454,72.88469,-0.0014855226,-0.006406154,-5.7788857E-4,549791.44,119984.91,0.009098084,0.011228639,8294.504,8250.994,7180.1733,7121.322,0.30186749,0.0,0.0,0.0
188.07753,188.07753,2.233,0.0,0.0,311.76953,11137.0,100.0,0.0,0.08687575,0.0,8.0,1.0,0.0,4000000.0,110.0,1.0,0.0,0.0,10.0,0.0,0.0,206.40266,-76.582405,-26.460032,-0.055108555,0.18772045,0.010702018,316.63406,316.62433,311.65726,311.62045,171.0,171.0,226.0,226.0,97.0,97.0,97.0,97.0,0.0,0.0,0.0,0.0,0.04727923,0.047064964,0.054349143,0.054215144,16.983076,12.618451,11.663809,9.303912,1182.4249,1018.43463,323.71576,270.27277,0.0,0.0,0.0,2.0,1.0,-0.5693222,0.025325088,0.0011992455,97.0,97.0,97.0,97.0,21.302864,21.302864,24.666473,24.666473,0.015611285,0.015691254,-4.1404416E-4,-4.12411E-4,1153.1836,0.0,0.0,0.0,0.0,0.0,0.0,0.0,0.0,0.0,0.0,0.0,0.0,0.0,-46.67521,-0.05016001,72.948204,-0.0036888828,-0.0065085148,-0.0065025166,549803.2,119984.91,0.007845352,0.010446916,8352.409,8292.602,7315.1206,7247.802,0.30084896,0.0,0.0,0.0
192.40958,192.40958,2.283,0.0,0.0,312.0966,11144.0,100.0,0.0,0.11796614,0.0,8.0,1.0,0.0,4000000.0,110.0,1.0,0.0,0.0,10.0,0.0,0.0,204.06699,-76.58356,-22.810986,-0.0574518,0.18448228,0.15514587,316.85452,316.84323,311.98398,311.94537,170.0,170.0,225.0,225.0,97.0,97.0,97.0,97.0,0.0,0.0,0.0,0.0,0.04871084,0.04873427,0.054730453,0.054557577,3.795102,18.470137,-0.52101904,2.0331142,-2903.7727,-2068.6536,-721.5678,-422.82333,0.0,0.0,0.0,2.0,1.0,-0.56965315,0.025504867,4.886389E-4,97.0,97.0,97.0,97.0,21.302864,21.302864,24.666473,24.666473,0.015237203,0.015313968,-4.1715457E-4,-4.1266446E-4,1153.926,0.0,0.0,0.0,0.0,0.0,0.0,0.0,0.0,0.0,0.0,0.0,0.0,0.0,-46.74819,0.010298265,73.00938,-0.014274204,-0.007028028,0.00113555,549811.56,119984.914,0.0069296868,0.008787478,8676.127,8628.788,7440.415,7375.779,0.29956818,0.0,0.0,0.0
196.74611,196.74611,2.333,0.0,0.0,312.41306,11158.0,100.0,0.0,0.12010907,0.0,8.0,1.0,0.0,4000000.0,110.0,1.0,0.0,0.0,10.0,0.0,0.0,201.7276,-76.58145,-19.159,-0.06313078,0.17715651,0.058840673,317.24023,317.20996,312.3073,312.2578,170.0,170.0,225.0,224.0,97.0,97.0,97.0,97.0,0.0,0.0,0.0,0.0,0.048202954,0.048226662,0.054746628,0.054495327,-14.64419,-13.457536,-1.6479938,-3.7157533,-266.23602,-99.89885,-255.8827,-198.29568,0.0,0.0,0.0,2.0,1.0,-0.57005113,0.025774475,2.374649E-4,97.0,97.0,97.0,97.0,21.302864,21.302864,24.666473,24.666473,0.015412597,0.015461426,-4.1283856E-4,-4.0905378E-4,1155.405,0.0,0.0,0.0,0.0,0.0,0.0,0.0,0.0,0.0,0.0,0.0,0.0,0.0,-46.822178,0.061217833,73.06635,-0.0074819033,-0.008741177,0.0021375832,549825.56,119984.91,0.0064361095,0.009042151,8477.281,8473.117,7412.9473,7292.923,0.299469,0.0,0.0,0.0
201.08702,201.08702,2.383,0.0,0.0,312.73013,11167.0,100.0,0.0,0.10898529,0.0,8.0,1.0,0.0,4000000.0,110.0,1.0,0.0,0.0,10.0,0.0,0.0,199.3845,-76.57728,-15.504194,-0.06550367,0.17980528,0.10603952,317.51453,317.48105,312.6203,312.57446,169.0,169.0,224.0,223.0,97.0,97.0,97.0,97.0,0.0,0.0,0.0,0.0,0.048432175,0.048548087,0.054886967,0.054540563,-0.3815442,6.8501377,-5.6469436,-3.0212848,-995.72974,-525.52515,-1128.4722,-649.88574,0.0,0.0,0.0,2.0,1.0,-0.5704863,0.026429716,-4.3034554E-4,97.0,97.0,97.0,97.0,21.302864,21.302864,24.666473,24.666473,0.015289827,0.015316211,-4.1497013E-4,-4.1229784E-4,1156.3588,0.0,0.0,0.0,0.0,0.0,0.0,0.0,0.0,0.0,0.0,0.0,0.0,0.0,-46.897354,0.108312584,73.12273,-0.02345915,-0.008330629,0.0065514054,549835.9,119984.9,0.006048604,0.008243538,8587.507,8605.95,7464.6265,7322.7695,0.2990904,0.0,0.0,0.0
205.4323,205.4323,2.433,0.0,0.0,313.04364,11184.0,100.0,0.0,0.095579654,0.0,8.0,1.0,0.0,4000000.0,110.0,1.0,0.0,0.0,10.0,0.0,0.0,197.03767,-76.5712,-11.846585,-0.06436529,0.17628436,-0.1702561,317.98663,317.94852,312.936,312.8952,168.0,168.0,223.0,223.0,97.0,97.0,97.0,97.0,0.0,0.0,0.0,0.0,0.047505144,0.0476916,0.054314807,0.054051735,-47.80747,-44.191177,-25.113745,-21.283104,-2372.2393,-2168.8875,-1282.5652,-1052.1097,0.0,0.0,0.0,2.0,1.0,-0.57085806,0.027119057,-5.840063E-4,97.0,97.0,97.0,97.0,21.302864,21.302864,24.666473,24.666473,0.01577273,0.015757227,-4.095127E-4,-4.0753462E-4,1158.1559,0.0,0.0,0.0,0.0,0.0,0.0,0.0,0.0,0.0,0.0,0.0,0.0,0.0,-46.971035,0.10558493,73.178925,0.005769657,-0.0067204605,0.011531174,549853.3,119984.91,0.0057912595,0.008207056,8033.789,8108.4834,6851.374,6749.086,0.29867077,0.0,0.0,0.0
209.78204,209.78204,2.483,0.0,0.0,313.37253,11193.0,100.0,0.0,0.09702394,0.0,8.0,1.0,0.0,4000000.0,110.0,1.0,0.0,0.0,10.0,0.0,0.0,194.68713,-76.566956,-8.186049,-0.064184114,0.18576282,-0.029051218,318.24393,318.219,313.26312,313.22287,168.0,168.0,222.0,222.0,97.0,97.0,97.0,97.0,0.0,0.0,0.0,0.0,0.047401782,0.047562376,0.054465577,0.05417627,7.4189897,7.190555,-0.011622905,2.5101004,425.6665,402.62634,-469.86932,-284.20685,0.0,0.0,0.0,2.0,1.0,-0.5711959,0.027651548,-1.01685524E-4,97.0,97.0,97.0,97.0,21.302864,21.302864,24.666473,24.666473,0.015531357,0.015570116,-4.143857E-4,-4.1213547E-4,1159.1088,0.0,0.0,0.0,0.0,0.0,0.0,0.0,0.0,0.0,0.0,0.0,0.0,0.0,-47.046474,0.07632284,73.23909,6.741658E-5,-0.006697658,0.015055251,549863.25,119984.914,0.004369432,0.0069077536,8328.085,8325.746,7272.1797,7147.83,0.2967701,0.0,0.0,0.0
214.13632,214.13632,2.533,0.0,0.0,313.6957,11207.0,100.0,0.0,0.13260652,0.0,8.0,1.0,0.0,4000000.0,110.0,1.0,0.0,0.0,10.0,0.0,0.0,192.33281,-76.56392,-4.522549,-0.070223905,0.18020579,-0.13839653,318.6502,318.63318,313.59476,313.54614,167.0,167.0,221.0,221.0,97.0,97.0,97.0,97.0,0.0,0.0,0.0,0.0,0.04725763,0.047277912,0.054154925,0.054029606,-17.713978,-21.54976,-7.8722825,-5.8456507,-976.06915,-1101.2478,-126.60025,-241.11716,0.0,0.0,0.0,2.0,1.0,-0.5715537,0.027998788,8.7976456E-4,97.0,97.0,97.0,97.0,21.302864,21.302864,24.666473,24.666473,0.015733466,0.015818471,-4.0869377E-4,-4.0538388E-4,1160.5907,0.0,0.0,0.0,0.0,0.0,0.0,0.0,0.0,0.0,0.0,0.0,0.0,0.0,-47.122257,0.035824846,73.297134,0.023538904,-0.0075935097,0.01590832,549878.5,119984.9,0.0056634382,0.00785249,8114.0776,8070.3745,6987.984,6937.169,0.2970705,0.0,0.0,0.0
218.49501,218.49501,2.583,0.0,0.0,314.00317,11221.0,100.0,0.0,0.106159136,0.0,8.0,1.0,0.0,4000000.0,110.0,1.0,0.0,0.0,10.0,0.0,0.0,189.97473,-76.56378,-0.8562334,-0.06885983,0.17136604,-0.26036188,319.04758,319.04028,313.9015,313.85776,166.0,166.0,221.0,220.0,97.0,97.0,97.0,97.0,0.0,0.0,0.0,0.0,0.0463715,0.04619915,0.05392988,0.05386649,-34.838764,-35.212933,-11.292546,-9.268596,-727.0529,-671.49097,-286.60742,-328.7717,0.0,0.0,0.0,2.0,1.0,-0.5719183,0.027927268,0.002313614,97.0,97.0,97.0,97.0,21.302864,21.302864,24.666473,24.666473,0.016025668,0.016121753,-4.0006737E-4,-4.0023893E-4,1162.0723,0.0,0.0,0.0,0.0,0.0,0.0,0.0,0.0,0.0,0.0,0.0,0.0,0.0,-47.194904,-0.04747192,73.35195,0.027759643,-0.0065797293,0.009402122,549893.5,119984.91,0.008219201,0.011328898,7874.3203,7816.144,6806.8535,6784.8115,0.3000965,0.0,0.0,0.0
222.85786,222.85786,2.633,0.0,0.0,314.30322,11230.0,100.0,0.0,0.06946415,0.0,8.0,1.0,0.0,4000000.0,110.0,1.0,0.0,0.0,10.0,0.0,0.0,187.61314,-76.56915,2.81281,-0.061510514,0.16585803,-0.1649649,319.28973,319.29865,314.1942,314.15997,166.0,166.0,220.0,219.0,97.0,97.0,97.0,97.0,0.0,0.0,0.0,0.0,0.045735307,0.045338504,0.054012813,0.054004263,-1.919344,-5.723387,0.3620982,2.4323163,298.4896,353.1798,-757.45575,-635.9919,0.0,0.0,0.0,2.0,1.0,-0.572216,0.027410015,0.0033665895,97.0,97.0,97.0,97.0,21.302864,21.302864,24.666473,24.666473,0.015869703,0.01599129,-3.9913534E-4,-4.0270397E-4,1163.0243,0.0,0.0,0.0,0.0,0.0,0.0,0.0,0.0,0.0,0.0,0.0,0.0,0.0,-47.264317,-0.14793733,73.40626,0.015511965,-0.0052923034,-0.0046597268,549902.94,119984.9,0.009893767,0.013400073,8021.534,7919.181,7001.6714,7006.368,0.30303192,0.0,0.0,0.0
227.22481,227.22481,2.683,0.0,0.0,314.5909,11237.0,100.0,0.0,0.122005984,0.0,8.0,1.0,0.0,4000000.0,110.0,1.0,0.0,0.0,10.0,0.0,0.0,185.24815,-76.57809,6.4844975,-0.062251486,0.1616118,-0.041595306,319.49265,319.49713,314.4783,314.44107,165.0,165.0,219.0,219.0,97.0,97.0,97.0,97.0,0.0,0.0,0.0,0.0,0.04640701,0.04589464,0.054403823,0.05438658,21.102726,21.468176,11.021196,10.766386,596.87195,707.057,81.52576,82.29017,0.0,0.0,0.0,2.0,1.0,-0.57250327,0.026728302,0.003303647,97.0,97.0,97.0,97.0,21.302864,21.302864,24.666473,24.666473,0.01560626,0.015730504,-4.0734786E-4,-4.031653E-4,1163.7654,0.0,0.0,0.0,0.0,0.0,0.0,0.0,0.0,0.0,0.0,0.0,0.0,0.0,-47.331745,-0.19426689,73.45777,-0.006902531,-0.0069353157,-0.022742577,549910.56,119984.914,0.009026344,0.013088229,8244.567,8146.7007,7362.7417,7355.1553,0.30329514,0.0,0.0,0.0
231.59573,231.59573,2.733,0.0,0.0,314.88263,11242.0,100.0,0.0,0.10759588,0.0,8.0,1.0,0.0,4000000.0,110.0,1.0,0.0,0.0,10.0,0.0,0.0,182.87975,-76.58772,10.158738,-0.060076475,0.16836089,0.07954623,319.63306,319.63217,314.7697,314.72644,164.0,164.0,218.0,218.0,97.0,97.0,97.0,97.0,0.0,0.0,0.0,0.0,0.048615843,0.048035875,0.054642145,0.05461654,53.48302,55.195164,7.1527805,9.174942,1130.6046,1339.5352,574.4084,745.94904,0.0,0.0,0.0,2.0,1.0,-0.572896,0.026089216,0.002007246,97.0,97.0,97.0,97.0,21.302864,21.302864,24.666473,24.666473,0.015102906,0.015222029,-4.1212016E-4,-4.1226315E-4,1164.2944,0.0,0.0,0.0,0.0,0.0,0.0,0.0,0.0,0.0,0.0,0.0,0.0,0.0,-47.401028,-0.18259025,73.50955,-0.016370537,-0.00801614,-0.024645258,549915.9,119984.91,0.006572662,0.008635156,8714.824,8610.1045,7477.825,7474.724,0.30008793,0.0,0.0,0.0
235.97081,235.97081,2.783,0.0,0.0,315.18002,11249.0,100.0,0.0,0.017408025,0.0,8.0,1.0,0.0,4000000.0,110.0,1.0,0.0,0.0,10.0,0.0,0.0,180.50778,-76.59379,13.835626,-0.04703448,0.16344914,0.26245743,319.80597,319.8226,315.06152,315.03693,164.0,164.0,218.0,217.0,97.0,97.0,97.0,97.0,0.0,0.0,0.0,0.0,0.049352024,0.049192727,0.054921206,0.05509503,-7.48001,-10.723695,-0.46916303,1.5431641,-1218.6481,-1729.5016,-506.7497,-766.4411,0.0,0.0,0.0,2.0,1.0,-0.5732196,0.025617009,0.0012205839,97.0,97.0,97.0,97.0,21.302864,21.302864,24.666473,24.666473,0.0146522615,0.01476272,-4.0900707E-4,-4.1712567E-4,1165.034,0.0,0.0,0.0,0.0,0.0,0.0,0.0,0.0,0.0,0.0,0.0,0.0,0.0,-47.471012,-0.060076993,73.56292,0.008879585,-0.003769602,-0.012941109,549922.8,119984.9,0.004733771,0.0062170275,9114.795,8998.132,7593.8857,7674.2695,0.29755974,0.0,0.0,0.0
240.35005,240.35005,2.833,0.0,0.0,315.45837,11265.0,100.0,0.0,0.04507988,0.0,8.0,1.0,0.0,4000000.0,110.0,1.0,0.0,0.0,10.0,0.0,0.0,178.1326,-76.594864,17.51514,-0.041392785,0.15770428,0.01557843,320.26373,320.2913,315.33762,315.32065,163.0,163.0,217.0,216.0,97.0,97.0,97.0,97.0,0.0,0.0,0.0,0.0,0.048298903,0.048055947,0.054742444,0.05486409,-19.25379,-21.993666,-7.963254,-8.967742,283.37527,96.14375,-208.11256,-261.94452,0.0,0.0,0.0,2.0,1.0,-0.5733663,0.024809467,0.0014214516,97.0,97.0,97.0,97.0,21.302864,21.302864,24.666473,24.666473,0.015225174,0.015364926,-4.0585326E-4,-4.0652533E-4,1166.7277,0.0,0.0,0.0,0.0,0.0,0.0,0.0,0.0,0.0,0.0,0.0,0.0,0.0,-47.532238,-0.0072216894,73.615456,0.010475516,-0.002751767,-0.010730064,549940.0,119984.9,0.0053120065,0.007934143,8547.746,8394.872,7373.375,7424.747,0.29845333,0.0,0.0,0.0
244.73344,244.73344,2.883,0.0,0.0,315.7429,11277.0,100.0,0.0,0.05286541,0.0,8.0,1.0,0.0,4000000.0,110.0,1.0,0.0,0.0,10.0,0.0,0.0,175.75449,-76.59611,21.197418,-0.034460947,0.1637061,-0.09374855,320.6061,320.62405,315.6218,315.60632,162.0,162.0,216.0,216.0,97.0,97.0,97.0,97.0,0.0,0.0,0.0,0.0,0.047909994,0.04751429,0.054321576,0.054488152,0.21591781,-8.610337,-3.771409,-5.580112,573.9926,164.87537,457.78595,178.44734,0.0,0.0,0.0,2.0,1.0,-0.5734904,0.023994911,0.0015052557,97.0,97.0,97.0,97.0,21.302864,21.302864,24.666473,24.666473,0.01541956,0.015530706,-4.0686878E-4,-4.0508775E-4,1167.9972,0.0,0.0,0.0,0.0,0.0,0.0,0.0,0.0,0.0,0.0,0.0,0.0,0.0,-47.5886,-0.04659672,73.67312,0.0129300235,-0.0025952656,-0.014002571,549952.56,119984.9,0.005919375,0.008598849,8361.581,8240.448,7149.1553,7215.554,0.29908562,0.0,0.0,0.0
249.12079,249.12079,2.933,0.0,0.0,316.02582,11285.0,100.0,0.0,0.054042943,0.0,8.0,1.0,0.0,4000000.0,110.0,1.0,0.0,0.0,10.0,0.0,0.0,173.37358,-76.59857,24.882595,-0.03180211,0.15932548,-0.024972633,320.84485,320.8653,315.9081,315.8866,162.0,162.0,215.0,215.0,97.0,97.0,97.0,97.0,0.0,0.0,0.0,0.0,0.04829556,0.047996655,0.054404844,0.054549415,1.2943892,4.512593,0.051856037,-1.8956511,-119.1303,-265.2973,121.209,28.552107,0.0,0.0,0.0,2.0,1.0,-0.5736577,0.022981424,0.0015493631,97.0,97.0,97.0,97.0,21.302864,21.302864,24.666473,24.666473,0.015243938,0.0153833665,-4.048106E-4,-4.055568E-4,1168.8451,0.0,0.0,0.0,0.0,0.0,0.0,0.0,0.0,0.0,0.0,0.0,0.0,0.0,-47.64446,-0.05472642,73.73059,0.012679804,-0.0034896564,-0.010991998,549961.6,119984.91,0.0062768674,0.008514683,8522.206,8366.231,7247.88,7306.1484,0.29921913,0.0,0.0,0.0
253.51202,253.51202,2.983,0.0,0.0,316.30627,11297.0,100.0,0.0,0.040428776,0.0,8.0,1.0,0.0,4000000.0,110.0,1.0,0.0,0.0,10.0,0.0,0.0,170.98994,-76.60256,28.570635,-0.029134773,0.16201602,-0.10399806,321.1959,321.1912,316.18964,316.16727,161.0,161.0,215.0,214.0,97.0,97.0,97.0,97.0,0.0,0.0,0.0,0.0,0.047673985,0.047426187,0.054281548,0.054357756,-5.7381387,-9.859129,4.956722,3.1884758,965.46106,798.90924,799.8749,949.62256,0.0,0.0,0.0,2.0,1.0,-0.5738346,0.022190334,0.0020689964,97.0,97.0,97.0,97.0,21.302864,21.302864,24.666473,24.666473,0.015468451,0.015527189,-4.0470966E-4,-4.0591287E-4,1170.1149,0.0,0.0,0.0,0.0,0.0,0.0,0.0,0.0,0.0,0.0,0.0,0.0,0.0,-47.698338,-0.10785431,73.78847,0.016850274,-0.003519464,-0.006229347,549974.25,119984.91,0.005711348,0.008551091,8293.91,8234.604,7217.5327,7252.123,0.2988453,0.0,0.0,0.0
257.9072,257.9072,3.033,0.0,0.0,316.591,11305.0,100.0,0.0,0.022039082,0.0,8.0,1.0,0.0,4000000.0,110.0,1.0,0.0,0.0,10.0,0.0,0.0,168.60362,-76.60866,32.261627,-0.026340365,0.1605357,-0.012002123,321.4251,321.41373,316.46896,316.45267,160.0,160.0,214.0,213.0,97.0,97.0,97.0,97.0,0.0,0.0,0.0,0.0,0.048118465,0.047980994,0.05458153,0.054543626,14.075338,16.220211,5.206391,2.0357964,7.5638576,149.855,-160.0474,-136.2428,0.0,0.0,0.0,2.0,1.0,-0.5739897,0.021374831,0.0023171902,97.0,97.0,97.0,97.0,21.302864,21.302864,24.666473,24.666473,0.01528849,0.015304357,-4.0806274E-4,-4.079694E-4,1170.9617,0.0,0.0,0.0,0.0,0.0,0.0,0.0,0.0,0.0,0.0,0.0,0.0,0.0,-47.75216,-0.12759636,73.847824,0.008796792,-0.002751423,-0.0110984845,549982.8,119984.9,0.0043953797,0.007088428,8428.406,8428.046,7402.6436,7380.118,0.29734135,0.0,0.0,0.0
262.3063,262.3063,3.083,0.0,0.0,316.872,11313.0,100.0,0.0,0.014316523,0.0,8.0,1.0,0.0,4000000.0,110.0,1.0,0.0,0.0,10.0,0.0,0.0,166.21461,-76.61466,35.95559,-0.022842854,0.1564973,0.0561433,321.64584,321.6504,316.74805,316.7392,160.0,160.0,213.0,213.0,97.0,97.0,97.0,97.0,0.0,0.0,0.0,0.0,0.04860171,0.04858856,0.054625582,0.054733727,-12.674555,-9.090453,-6.9882717,-7.975548,-2997.717,-3452.834,-1047.2953,-1687.9274,0.0,0.0,0.0,2.0,1.0,-0.57408553,0.02097178,0.0023616552,97.0,97.0,97.0,97.0,21.302864,21.302864,24.666473,24.666473,0.015073205,0.0151191745,-4.055382E-4,-4.0638432E-4,1171.8087,0.0,0.0,0.0,0.0,0.0,0.0,0.0,0.0,0.0,0.0,0.0,0.0,0.0,-47.804565,-0.10485666,73.90692,0.013372157,-0.001289065,-0.0038076448,549991.44,119984.91,0.0052630436,0.007158195,8622.875,8568.0,7319.6265,7354.12,0.2973814,0.0,0.0,0.0
266.70917,266.70917,3.133,0.0,0.0,317.1356,11330.0,100.0,0.0,0.031475592,0.0,8.0,1.0,0.0,4000000.0,110.0,1.0,0.0,0.0,10.0,0.0,0.0,163.82312,-76.621414,39.65242,-0.022273354,0.14888944,-0.27282655,322.14948,322.142,317.01776,317.0035,159.0,159.0,212.0,212.0,97.0,97.0,97.0,97.0,0.0,0.0,0.0,0.0,0.04704045,0.046933807,0.054192577,0.054108515,-43.317448,-45.572292,-9.321794,-11.900737,-1057.3668,-1153.1619,-140.66846,-61.663967,0.0,0.0,0.0,2.0,1.0,-0.5741634,0.020746157,0.003409624,97.0,97.0,97.0,97.0,21.302864,21.302864,24.666473,24.666473,0.01582168,0.015855454,-3.981932E-4,-3.963995E-4,1173.6088,0.0,0.0,0.0,0.0,0.0,0.0,0.0,0.0,0.0,0.0,0.0,0.0,0.0,-47.85207,-0.18537691,73.963234,0.01587522,-0.0021283657,0.014138652,550009.8,119984.91,0.007137449,0.009960629,7900.331,7868.634,6969.8115,6924.027,0.2997837,0.0,0.0,0.0
271.11578,271.11578,3.183,0.0,0.0,317.40924,11336.0,100.0,0.0,-0.05418061,0.0,8.0,1.0,0.0,4000000.0,110.0,1.0,0.0,0.0,10.0,0.0,0.0,161.42932,-76.63332,43.352203,-0.008210115,0.15329713,-0.1409125,322.30646,322.29453,317.28003,317.28256,158.0,158.0,212.0,211.0,97.0,97.0,97.0,97.0,0.0,0.0,0.0,0.0,0.046662275,0.046815153,0.054291766,0.054235347,6.520226,12.539103,4.9933786,4.2486186,786.5711,814.5465,139.7833,18.735222,0.0,0.0,0.0,2.0,1.0,-0.5742049,0.021069176,0.0040665865,97.0,97.0,97.0,97.0,21.302864,21.302864,24.666473,24.666473,0.01549441,0.015451491,-3.9951818E-4,-4.051732E-4,1174.2429,0.0,0.0,0.0,0.0,0.0,0.0,0.0,0.0,0.0,0.0,0.0,0.0,0.0,-47.896713,-0.2753942,74.024605,4.8018107E-4,7.427923E-4,0.01144908,550015.75,119984.91,0.0070202793,0.009937316,8221.665,8262.643,7217.9766,7187.913,0.29985523,0.0,0.0,0.0
275.52612,275.52612,3.233,0.0,0.0,317.67526,11343.0,100.0,0.0,-0.052166503,0.0,8.0,1.0,0.0,4000000.0,110.0,1.0,0.0,0.0,10.0,0.0,0.0,159.03342,-76.648056,47.055077,0.0029778555,0.1497375,-0.027620498,322.5053,322.48718,317.53726,317.55344,158.0,158.0,211.0,210.0,97.0,97.0,97.0,97.0,0.0,0.0,0.0,0.0,0.047701117,0.048130445,0.054581225,0.05450952,22.193266,26.861204,6.0794497,4.7548857,68.66454,121.53087,-4.2781444,-11.7883005,0.0,0.0,0.0,2.0,1.0,-0.57409406,0.021648267,0.004157424,97.0,97.0,97.0,97.0,21.302864,21.302864,24.666473,24.666473,0.015275339,0.0151827615,-4.049726E-4,-4.0429982E-4,1174.9839,0.0,0.0,0.0,0.0,0.0,0.0,0.0,0.0,0.0,0.0,0.0,0.0,0.0,-47.936287,-0.30460644,74.08691,-0.009970502,0.0025514541,0.011426471,550023.2,119984.91,0.0064793,0.008734752,8408.298,8503.59,7412.6885,7376.1475,0.29918575,0.0,0.0,0.0
279.94012,279.94012,3.283,0.0,0.0,317.93832,11351.0,100.0,0.0,-0.013369426,0.0,8.0,1.0,0.0,4000000.0,110.0,1.0,0.0,0.0,10.0,0.0,0.0,156.63564,-76.66368,50.7611,0.0068160146,0.14784662,0.01059232,322.75555,322.72272,317.80322,317.8147,157.0,157.0,210.0,210.0,97.0,97.0,97.0,97.0,0.0,0.0,0.0,0.0,0.048212696,0.04844429,0.054667294,0.054627396,3.2030044,2.966076,3.7989018,6.576776,-527.26855,18.668173,90.390434,140.85619,0.0,0.0,0.0,2.0,1.0,-0.57396543,0.02245613,0.00428617,97.0,97.0,97.0,97.0,21.302864,21.302864,24.666473,24.666473,0.015208577,0.015070187,-4.0715656E-4,-4.027691E-4,1175.8322,0.0,0.0,0.0,0.0,0.0,0.0,0.0,0.0,0.0,0.0,0.0,0.0,0.0,-47.972775,-0.3135173,74.15029,-0.0048611052,0.0017040616,0.012464827,550032.3,119984.91,0.00601206,0.008196537,8443.354,8616.639,7462.798,7453.324,0.29880238,0.0,0.0,0.0
284.35776,284.35776,3.333,0.0,0.0,318.19537,11361.0,100.0,0.0,-0.015077047,0.0,8.0,1.0,0.0,4000000.0,110.0,1.0,0.0,0.0,10.0,0.0,0.0,154.23602,-76.67934,54.47025,0.0061258413,0.1446774,-2.7422735E-4,323.01236,322.98038,318.06497,318.0669,157.0,157.0,209.0,209.0,97.0,97.0,97.0,97.0,0.0,0.0,0.0,0.0,0.048190497,0.048408084,0.054740805,0.05467374,-1.8952041,-0.14305113,0.6182491,0.6951391,-149.72089,70.35433,-47.68967,112.009026,0.0,0.0,0.0,2.0,1.0,-0.57392603,0.022999654,0.004364252,97.0,97.0,97.0,97.0,21.302864,21.302864,24.666473,24.666473,0.015176002,0.0150737455,-4.0437482E-4,-4.0297318E-4,1176.8885,0.0,0.0,0.0,0.0,0.0,0.0,0.0,0.0,0.0,0.0,0.0,0.0,0.0,-48.009136,-0.31213006,74.21182,-0.005182464,1.3582024E-4,0.009705625,550041.94,119984.9,0.0058647515,0.008135821,8459.422,8599.191,7461.0967,7432.5283,0.29863453,0.0,0.0,0.0
288.77893,288.77893,3.383,0.0,0.0,318.4496,11370.0,100.0,0.0,-0.01593086,0.0,8.0,1.0,0.0,4000000.0,110.0,1.0,0.0,0.0,10.0,0.0,0.0,151.83461,-76.69501,58.18244,0.0032035336,0.14289047,-0.011415462,323.26645,323.2374,318.32053,318.3201,156.0,156.0,209.0,208.0,97.0,97.0,97.0,97.0,0.0,0.0,0.0,0.0,0.04819174,0.048384663,0.054711137,0.054683723,-3.4734604,-1.7823278,-1.5339999,0.047609206,-347.14487,-147.93723,-100.864456,-32.14627,0.0,0.0,0.0,2.0,1.0,-0.57392937,0.023521561,0.0044270754,97.0,97.0,97.0,97.0,21.302864,21.302864,24.666473,24.666473,0.015162895,0.015076726,-4.0307053E-4,-4.0282073E-4,1177.8414,0.0,0.0,0.0,0.0,0.0,0.0,0.0,0.0,0.0,0.0,0.0,0.0,0.0,-48.045723,-0.31519768,74.27224,-0.0035746733,-1.7782928E-4,0.008651362,550051.5,119984.89,0.0059468206,0.008173945,8460.641,8580.534,7426.931,7420.008,0.29873085,0.0,0.0,0.0
293.2036,293.2036,3.433,0.0,0.0,318.70026,11378.0,100.0,0.0,-0.03179774,0.0,8.0,1.0,0.0,4000000.0,110.0,1.0,0.0,0.0,10.0,0.0,0.0,149.43134,-76.71092,61.897606,0.0017915145,0.14142665,-0.015154857,323.5131,323.48407,318.57095,318.5707,155.0,155.0,208.0,207.0,97.0,97.0,97.0,97.0,0.0,0.0,0.0,0.0,0.04819929,0.048403546,0.054742645,0.05466257,-1.0377913,-0.62786037,-1.0898708,-0.8849054,-147.41418,-201.99713,-176.55638,-69.24121,0.0,0.0,0.0,2.0,1.0,-0.5739463,0.024005154,0.0044722557,97.0,97.0,97.0,97.0,21.302864,21.302864,24.666473,24.666473,0.015142721,0.015056721,-4.0227163E-4,-4.0349032E-4,1178.6581,0.0,0.0,0.0,0.0,0.0,0.0,0.0,0.0,0.0,0.0,0.0,0.0,0.0,-48.082977,-0.32095957,74.33105,-0.0047691846,-1.07868225E-4,0.009086651,550045.9,119984.91,0.0059834803,0.008200201,8473.494,8589.408,7441.0054,7404.201,0.29877472,0.0,0.0,0.0
