LapDistance [m],TotalDistance [m],LapTime [s],Sector1Time [s],Sector2Time [s],Speed [km/h],EngineRevs [rpm],ThrottlePercentage [%],BrakePercentage [%],Steer [%],Clutch [%],Gear [int],DRS [0/1],CanUseDRS [0/1],KERSLevel [J],EngineTemperature [C],RacePosition [int],Sector [int],InPits [int],FuelRemaining [kg],CurrentFlag [int],CurrentLapInvalid [int],X [m],Y [m],Z [m],GForceLatitudinal [G],GForceLongitudinal [G],GForceVertical [G],WheelSpeedRearLeft [km/h],WheelSpeedRearRight [km/h],WheelSpeedFrontLeft [km/h],WheelSpeedFrontRight [km/h],BrakeTemperatureRearLeft [C],BrakeTemperatureRearRight [C],BrakeTemperatureFrontLeft [C],BrakeTemperatureFrontRight [C],TyreTemperatureRearLeft [C],TyreTemperatureRearRight [C],TyreTemperatureFrontLeft [C],TyreTemperatureFrontRight [C],TyreWearRearLeft [%],TyreWearRearRight [%],TyreWearFrontLeft [%],TyreWearFrontRight [%],SuspensionPositionRearLeft [m],SuspensionPositionRearRight [m],SuspensionPositionFrontLeft [m],SuspensionPositionFrontRight [m],SuspensionVelocityRearLeft [m/s],SuspensionVelocityRearRight [m/s],SuspensionVelocityFrontLeft [m/s],SuspensionVelocityFrontRight [m/s],SuspensionAccelerationRearLeft [m/s^2],SuspensionAccelerationRearRight [m/s^2],SuspensionAccelerationFrontLeft [m/s^2],SuspensionAccelerationFrontRight [m/s^2],MGUKHarvested [J],MGUHHarvested [J],ERSSpent [J],ERSMode [int],FuelMixMode [int],Yaw [rad],Roll [rad],Pitch [rad],TyreCarcassTemperatureRearLeft [C],TyreCarcassTemperatureRearRight [C],TyreCarcassTemperatureFrontLeft [C],TyreCarcassTemperatureFrontRight [C],TyrePressureRearLeft [PSI],TyrePressureRearRight [PSI],TyrePressureFrontLeft [PSI],TyrePressureFrontRight [PSI],WheelSlipRearLeft [%],WheelSlipRearRight [%],WheelSlipFrontLeft [%],WheelSlipFrontRight [%],Torque [Nm],Handbrake [%],RearLeftInside [C],RearLeftMiddle [C],RearLeftOutside [C],RearRightInside [C],RearRightMiddle [C],RearRightOutside [C],FrontLeftInside [C],FrontLeftMiddle [C],FrontLeftOutside [C],FrontRightInside [C],FrontRightMiddle [C],FrontRightOutside [C],WoldSpeedX [km/h],WoldSpeedY [km/h],WoldSpeedZ [km/h],LocalAngularVelocityX [rad/s],LocalAngularVelocityY [rad/s],LocalAngularVelocityZ [rad/s],IcePower [W],MgukPower [W],FrontRideHeight [m],RearRideHeight [m],LoadRearLeft [N],LoadRearRight [N],LoadFrontLeft [N],LoadFrontRight [N],Extra1 [m],Extra2 [],Extra3 [],Extra4 []
1.6855171,1.6855171,0.033,0.0,0.0,289.9818,10436.0,100.0,0.0,-0.31900632,0.0,8.0,1.0,0.0,4000000.0,110.0,1.0,0.0,0.0,10.0,0.0,0.0,305.65924,-76.584946,-184.17107,0.13781613,0.32271576,0.033315416,295.20624,295.1743,289.80017,289.89926,208.0,208.0,269.0,268.0,97.0,97.0,97.0,97.0,0.0,0.0,0.0,0.0,0.039541442,0.04055232,0.05220763,0.05290359,0.0,0.0,0.0,0.0,-215.42163,-261.4349,-134.88828,-117.23934,0.0,0.0,0.0,2.0,1.0,-0.577708,0.028631447,0.005173564,97.0,97.0,97.0,97.0,21.302864,21.302864,24.666473,24.666473,0.018206015,0.017797358,-4.4376354E-4,-4.4564274E-4,1056.951,0.0,0.0,0.0,0.0,0.0,0.0,0.0,0.0,0.0,0.0,0.0,0.0,0.0,-44.07265,-0.2116659,67.423584,-0.0077337134,0.016494337,-0.0013722561,537771.56,119984.9,0.014112556,0.020820864,7100.1787,7345.681,5997.877,6315.506,0.313159,0.0,0.0,0.0
5.7210507,5.7210507,0.083,0.0,0.0,290.54785,10456.0,100.0,0.0,-0.28060552,0.0,8.0,1.0,0.0,4000000.0,110.0,1.0,0.0,0.0,10.0,0.0,0.0,303.4548,-76.59508,-180.79543,0.1326948,0.31984553,0.031142266,295.77322,295.743,290.36807,290.46432,207.0,207.0,268.0,267.0,97.0,97.0,97.0,97.0,0.0,0.0,0.0,0.0,0.039742704,0.040744208,0.05221436,0.052913092,0.0,0.0,0.0,0.0,-14.564394,-85.50881,29.021496,-17.072258,0.0,0.0,0.0,2.0,1.0,-0.576883,0.028735824,0.0048907995,97.0,97.0,97.0,97.0,21.302864,21.302864,24.666473,24.666473,0.01816839,0.017776726,-4.4534818E-4,-4.4228754E-4,1060.9279,0.0,0.0,0.0,0.0,0.0,0.0,0.0,0.0,0.0,0.0,0.0,0.0,0.0,-44.103256,-0.19459324,67.591446,-0.0043869307,0.01589742,-0.001723456,538762.44,119984.9,0.014100561,0.020642238,7116.532,7357.757,6014.1494,6329.962,0.3130703,0.0,0.0,0.0
9.764405,9.764405,0.133,0.0,0.0,291.10956,10476.0,100.0,0.0,-0.2729728,0.0,8.0,1.0,0.0,4000000.0,110.0,1.0,0.0,0.0,10.0,0.0,0.0,301.2488,-76.604576,-177.4115,0.12882853,0.32000035,0.0056111817,296.35822,296.32605,290.9335,291.0224,206.0,206.0,267.0,266.0,97.0,97.0,97.0,97.0,0.0,0.0,0.0,0.0,0.039649118,0.040595006,0.052193638,0.05287088,0.0,0.0,0.0,0.0,406.1803,423.90967,315.62888,346.80957,0.0,0.0,0.0,2.0,1.0,-0.57611334,0.028802224,0.0047237873,97.0,97.0,97.0,97.0,21.302864,21.302864,24.666473,24.666473,0.018213691,0.017838782,-4.4471602E-4,-4.4372707E-4,1064.9666,0.0,0.0,0.0,0.0,0.0,0.0,0.0,0.0,0.0,0.0,0.0,0.0,0.0,-44.13464,-0.18938626,67.75726,-0.0031698577,0.014768012,-3.1284278E-4,539780.9,119984.9,0.013789283,0.020423627,7092.8105,7322.888,6006.9316,6315.705,0.3128109,0.0,0.0,0.0
13.815624,13.815624,0.183,0.0,0.0,291.66785,10494.0,100.0,0.0,-0.27915904,0.0,8.0,1.0,0.0,4000000.0,110.0,1.0,0.0,0.0,10.0,0.0,0.0,299.0412,-76.61325,-174.01927,0.12595159,0.3130818,0.07544386,296.8498,296.82114,291.49207,291.57895,206.0,206.0,266.0,265.0,97.0,97.0,97.0,97.0,0.0,0.0,0.0,0.0,0.04035123,0.041265056,0.052417707,0.053075723,0.0,0.0,0.0,0.0,-478.5463,-455.92188,-438.9032,-463.02966,0.0,0.0,0.0,2.0,1.0,-0.57539153,0.02884297,0.004342437,97.0,97.0,97.0,97.0,21.302864,21.302864,24.666473,24.666473,0.017934488,0.017578598,-4.4170278E-4,-4.4287063E-4,1068.5017,0.0,0.0,0.0,0.0,0.0,0.0,0.0,0.0,0.0,0.0,0.0,0.0,0.0,-44.16771,-0.1549878,67.92085,-0.008883624,0.0143179605,-0.0044550872,540643.75,119984.9,0.013570138,0.019849882,7242.0815,7468.2534,6145.185,6441.394,0.31246662,0.0,0.0,0.0
17.874527,17.874527,0.233,0.0,0.0,292.21692,10514.0,100.0,0.0,-0.29707363,0.0,8.0,1.0,0.0,4000000.0,110.0,1.0,0.0,0.0,10.0,0.0,0.0,296.83194,-76.62024,-170.61897,0.1256535,0.31033078,0.035856254,297.42215,297.3966,292.0405,292.1302,205.0,205.0,265.0,264.0,97.0,97.0,97.0,97.0,0.0,0.0,0.0,0.0,0.040462848,0.041365765,0.05234343,0.05300118,0.0,0.0,0.0,0.0,-118.47315,-134.74075,1.3947486,12.686848,0.0,0.0,0.0,2.0,1.0,-0.5746635,0.028907154,0.003959775,97.0,97.0,97.0,97.0,21.302864,21.302864,24.666473,24.666473,0.017986365,0.017630238,-4.3937925E-4,-4.4301114E-4,1071.6254,0.0,0.0,0.0,0.0,0.0,0.0,0.0,0.0,0.0,0.0,0.0,0.0,0.0,-44.199867,-0.12969467,68.0819,-0.005244991,0.015036286,-0.0012321805,541192.8,119984.9,0.013881735,0.01993552,7206.995,7426.788,6066.0796,6366.128,0.31264305,0.0,0.0,0.0
21.941006,21.941006,0.283,0.0,0.0,292.75848,10535.0,100.0,0.0,-0.28446016,0.0,8.0,1.0,0.0,4000000.0,110.0,1.0,0.0,0.0,10.0,0.0,0.0,294.62112,-76.62633,-167.21068,0.123870835,0.30461723,-0.03372468,298.0316,298.0021,292.58276,292.67166,204.0,204.0,264.0,263.0,97.0,97.0,97.0,97.0,0.0,0.0,0.0,0.0,0.04015192,0.041064035,0.052234787,0.0529131,0.0,0.0,0.0,0.0,-796.68304,-726.0336,-368.8171,-285.56134,0.0,0.0,0.0,2.0,1.0,-0.5739195,0.02893047,0.003803134,97.0,97.0,97.0,97.0,21.302864,21.302864,24.666473,24.666473,0.018193197,0.017821305,-4.3915777E-4,-4.4128875E-4,1074.5077,0.0,0.0,0.0,0.0,0.0,0.0,0.0,0.0,0.0,0.0,0.0,0.0,0.0,-44.231075,-0.122218914,68.24099,-2.56387E-4,0.014946079,-0.0016104381,541566.75,119984.9,0.013858944,0.020134008,7044.027,7273.1396,5941.0625,6255.7373,0.31276608,0.0,0.0,0.0
26.015022,26.015022,0.333,0.0,0.0,293.3011,10552.0,100.0,0.0,-0.26276705,0.0,8.0,1.0,0.0,4000000.0,110.0,1.0,0.0,0.0,10.0,0.0,0.0,292.40875,-76.63213,-163.79442,0.12078632,0.3060643,0.05549425,298.48416,298.45847,293.1266,293.21133,203.0,203.0,263.0,262.0,97.0,97.0,97.0,97.0,0.0,0.0,0.0,0.0,0.0403653,0.04121362,0.052459884,0.05308921,0.0,0.0,0.0,0.0,457.4507,526.9869,-27.143953,14.04137,0.0,0.0,0.0,2.0,1.0,-0.57319564,0.028898006,0.0035281181,97.0,97.0,97.0,97.0,21.302864,21.302864,24.666473,24.666473,0.017852556,0.017515387,-4.4003723E-4,-4.4035361E-4,1076.8007,0.0,0.0,0.0,0.0,0.0,0.0,0.0,0.0,0.0,0.0,0.0,0.0,0.0,-44.263268,-0.104955085,68.39974,-0.008738236,0.013920623,-0.0047525163,541848.06,119984.89,0.013008664,0.019391732,7266.218,7481.999,6209.4756,6494.8394,0.312006,0.0,0.0,0.0
30.096552,30.096552,0.383,0.0,0.0,293.83316,10569.0,100.0,0.0,-0.2810071,0.0,8.0,1.0,0.0,4000000.0,110.0,1.0,0.0,0.0,10.0,0.0,0.0,290.19473,-76.635994,-160.37032,0.12148762,0.30006015,0.070631236,298.9815,298.9561,293.65848,293.7443,202.0,202.0,262.0,261.0,97.0,97.0,97.0,97.0,0.0,0.0,0.0,0.0,0.041190434,0.042067368,0.05254162,0.053176913,0.0,0.0,0.0,0.0,-494.0762,-391.69635,-128.83989,-78.26684,0.0,0.0,0.0,2.0,1.0,-0.5725071,0.028965516,0.0029318333,97.0,97.0,97.0,97.0,21.302864,21.302864,24.666473,24.666473,0.017683944,0.017342867,-4.3645242E-4,-4.395754E-4,1079.1467,0.0,0.0,0.0,0.0,0.0,0.0,0.0,0.0,0.0,0.0,0.0,0.0,0.0,-44.294903,-0.057735182,68.55534,-0.00897974,0.014250218,-0.0033091768,542155.2,119984.9,0.012979512,0.018785343,7348.9917,7571.7905,6186.384,6477.689,0.31177998,0.0,0.0,0.0
34.185387,34.185387,0.433,0.0,0.0,294.35812,10589.0,100.0,0.0,-0.25350603,0.0,8.0,1.0,0.0,4000000.0,110.0,1.0,0.0,0.0,10.0,0.0,0.0,287.9792,-76.638145,-156.93849,0.11761364,0.29740137,0.041635852,299.53638,299.5034,294.18582,294.26834,201.0,201.0,262.0,261.0,97.0,97.0,97.0,97.0,0.0,0.0,0.0,0.0,0.04108437,0.041994512,0.05251097,0.053092163,0.0,0.0,0.0,0.0,12.378401,168.18788,34.815067,103.19798,0.0,0.0,0.0,2.0,1.0,-0.571809,0.029066978,0.0026086569,97.0,97.0,97.0,97.0,21.302864,21.302864,24.666473,24.666473,0.017749734,0.017397467,-4.3710173E-4,-4.3667105E-4,1081.866,0.0,0.0,0.0,0.0,0.0,0.0,0.0,0.0,0.0,0.0,0.0,0.0,0.0,-44.325882,-0.03197057,68.70893,-0.005820476,0.0136662545,6.962656E-4,542494.75,119984.9,0.012895849,0.018791579,7294.202,7528.1357,6183.0527,6444.857,0.31170845,0.0,0.0,0.0
38.281498,38.281498,0.483,0.0,0.0,294.87903,10607.0,100.0,0.0,-0.2325162,0.0,8.0,1.0,0.0,4000000.0,110.0,1.0,0.0,0.0,10.0,0.0,0.0,285.7621,-76.63919,-153.49902,0.113688156,0.2957937,0.038575646,300.05447,300.02173,294.7085,294.7868,201.0,201.0,261.0,260.0,97.0,97.0,97.0,97.0,0.0,0.0,0.0,0.0,0.040953223,0.041871637,0.05253219,0.053131256,0.0,0.0,0.0,0.0,311.91406,507.9031,-158.86722,158.8538,0.0,0.0,0.0,2.0,1.0,-0.57114106,0.029333783,0.0023208857,97.0,97.0,97.0,97.0,21.302864,21.302864,24.666473,24.666473,0.017714351,0.01737328,-4.3733086E-4,-4.3607102E-4,1084.3436,0.0,0.0,0.0,0.0,0.0,0.0,0.0,0.0,0.0,0.0,0.0,0.0,0.0,-44.357037,-0.011842218,68.861015,-0.00911223,0.012852504,0.0012963368,542814.44,119984.9,0.012556633,0.01853053,7305.416,7534.375,6202.6396,6490.2007,0.3113165,0.0,0.0,0.0
42.384815,42.384815,0.533,0.0,0.0,295.39484,10625.0,100.0,0.0,-0.23909435,0.0,8.0,1.0,0.0,4000000.0,110.0,1.0,0.0,0.0,10.0,0.0,0.0,283.5434,-76.6391,-150.05206,0.10988785,0.28991243,0.047097716,300.5615,300.5293,295.22726,295.30106,200.0,200.0,260.0,259.0,97.0,97.0,97.0,97.0,0.0,0.0,0.0,0.0,0.04119882,0.042141326,0.05255809,0.053147316,0.0,0.0,0.0,0.0,-409.46597,-359.3623,-118.17811,-72.92925,0.0,0.0,0.0,2.0,1.0,-0.5705176,0.029447766,0.00206995,97.0,97.0,97.0,97.0,21.302864,21.302864,24.666473,24.666473,0.01763036,0.017303813,-4.3375493E-4,-4.3502075E-4,1086.8099,0.0,0.0,0.0,0.0,0.0,0.0,0.0,0.0,0.0,0.0,0.0,0.0,0.0,-44.389378,0.013912733,69.01059,-0.00275672,0.012306556,-0.001041974,543127.4,119984.9,0.01257956,0.018327298,7332.97,7556.6436,6219.542,6486.9395,0.3112564,0.0,0.0,0.0
46.49522,46.49522,0.583,0.0,0.0,295.90265,10644.0,100.0,0.0,-0.22663416,0.0,8.0,1.0,0.0,4000000.0,110.0,1.0,0.0,0.0,10.0,0.0,0.0,281.3231,-76.638054,-146.59769,0.10634263,0.28710157,0.011302491,301.10132,301.07257,295.73538,295.80945,199.0,199.0,259.0,258.0,97.0,97.0,97.0,97.0,0.0,0.0,0.0,0.0,0.041016564,0.041878942,0.05251198,0.05309939,0.0,0.0,0.0,0.0,-67.91353,139.85037,20.894403,109.00496,0.0,0.0,0.0,2.0,1.0,-0.56988883,0.029544227,0.001998067,97.0,97.0,97.0,97.0,21.302864,21.302864,24.666473,24.666473,0.017714433,0.017397758,-4.333579E-4,-4.330203E-4,1089.4221,0.0,0.0,0.0,0.0,0.0,0.0,0.0,0.0,0.0,0.0,0.0,0.0,0.0,-44.421116,0.02474201,69.157875,-0.001573724,0.012362701,0.0010859803,543460.94,119984.9,0.012739714,0.01866956,7272.342,7484.584,6183.865,6455.437,0.31146812,0.0,0.0,0.0
50.612717,50.612717,0.633,0.0,0.0,296.40567,10662.0,100.0,0.0,-0.22947896,0.0,8.0,1.0,0.0,4000000.0,110.0,1.0,0.0,0.0,10.0,0.0,0.0,279.1012,-76.63671,-143.13594,0.10498372,0.28408042,3.338335E-4,301.6087,301.5884,296.23788,296.31262,198.0,198.0,258.0,257.0,97.0,97.0,97.0,97.0,0.0,0.0,0.0,0.0,0.04085073,0.04163779,0.05249324,0.05311976,0.0,0.0,0.0,0.0,2.5480983,35.36493,37.872784,11.305509,0.0,0.0,0.0,2.0,1.0,-0.5692619,0.029542157,0.0019470453,97.0,97.0,97.0,97.0,21.302864,21.302864,24.666473,24.666473,0.017708361,0.017418372,-4.322974E-4,-4.326119E-4,1091.8978,0.0,0.0,0.0,0.0,0.0,0.0,0.0,0.0,0.0,0.0,0.0,0.0,0.0,-44.452682,0.02781368,69.30364,-6.1579386E-4,0.012496574,-0.0023881327,543776.4,119984.9,0.012665357,0.018780535,7264.9434,7451.7773,6185.406,6472.077,0.31145287,0.0,0.0,0.0
54.736214,54.736214,0.683,0.0,0.0,296.9046,10679.0,100.0,0.0,-0.22311711,0.0,8.0,1.0,0.0,4000000.0,110.0,1.0,0.0,0.0,10.0,0.0,0.0,276.87772,-76.635155,-139.66693,0.10321693,0.2814579,0.023577593,302.0787,302.06476,296.7375,296.81042,197.0,197.0,257.0,256.0,97.0,97.0,97.0,97.0,0.0,0.0,0.0,0.0,0.04104034,0.041681495,0.05256882,0.05319459,0.0,0.0,0.0,0.0,187.7278,106.96648,125.0982,6.973743,0.0,0.0,0.0,2.0,1.0,-0.5686455,0.029348413,0.0018013716,97.0,97.0,97.0,97.0,21.302864,21.302864,24.666473,24.666473,0.017573113,0.01731593,-4.3138204E-4,-4.3200696E-4,1094.2263,0.0,0.0,0.0,0.0,0.0,0.0,0.0,0.0,0.0,0.0,0.0,0.0,0.0,-44.48454,0.035905585,69.447845,-0.0014472387,0.012104839,-0.006206475,544068.5,119984.9,0.01229783,0.018441027,7343.099,7506.1465,6262.3022,6541.333,0.31116772,0.0,0.0,0.0
58.863613,58.863613,0.733,0.0,0.0,297.3989,10696.0,100.0,0.0,-0.2259861,0.0,8.0,1.0,0.0,4000000.0,110.0,1.0,0.0,0.0,10.0,0.0,0.0,274.65265,-76.633156,-136.19077,0.103164464,0.27915514,0.019004676,302.56055,302.54376,297.23212,297.30484,197.0,197.0,256.0,255.0,97.0,97.0,97.0,97.0,0.0,0.0,0.0,0.0,0.041258123,0.04191451,0.052585796,0.053182464,0.0,0.0,0.0,0.0,93.38111,40.43429,31.609825,28.270477,0.0,0.0,0.0,2.0,1.0,-0.5680409,0.029232485,0.0016278028,97.0,97.0,97.0,97.0,21.302864,21.302864,24.666473,24.666473,0.017499056,0.017233506,-4.30646E-4,-4.31863E-4,1096.5654,0.0,0.0,0.0,0.0,0.0,0.0,0.0,0.0,0.0,0.0,0.0,0.0,0.0,-44.515865,0.044330537,69.590805,-8.516905E-4,0.01217113,-0.0024938555,544364.94,119984.9,0.011983547,0.017889926,7373.635,7546.4004,6247.394,6518.6836,0.31064606,0.0,0.0,0.0
62.997852,62.997852,0.783,0.0,0.0,297.88797,10714.0,100.0,0.0,-0.17789946,0.0,8.0,1.0,0.0,4000000.0,110.0,1.0,0.0,0.0,10.0,0.0,0.0,272.426,-76.63075,-132.70752,0.09473202,0.27598366,0.0039378894,303.06207,303.0417,297.7272,297.7891,196.0,196.0,255.0,254.0,97.0,97.0,97.0,97.0,0.0,0.0,0.0,0.0,0.041324385,0.041984007,0.052605134,0.053158116,0.0,0.0,0.0,0.0,-67.85988,-134.84804,17.206367,-35.203987,0.0,0.0,0.0,2.0,1.0,-0.5674742,0.029109154,0.0016155243,97.0,97.0,97.0,97.0,21.302864,21.302864,24.666473,24.666473,0.01749061,0.01724768,-4.314265E-4,-4.2870495E-4,1099.0322,0.0,0.0,0.0,0.0,0.0,0.0,0.0,0.0,0.0,0.0,0.0,0.0,0.0,-44.548565,0.050104484,69.73115,0.0023421533,0.010250576,-0.0012563274,544672.94,119984.9,0.0118682785,0.017727224,7360.062,7525.3477,6248.7183,6494.616,0.31045818,0.0,0.0,0.0
67.138824,67.138824,0.833,0.0,0.0,298.37125,10731.0,100.0,0.0,-0.18620297,0.0,8.0,1.0,0.0,4000000.0,110.0,1.0,0.0,0.0,10.0,0.0,0.0,270.1977,-76.62814,-129.21732,0.09036192,0.2716906,1.2572343E-4,303.55182,303.52945,298.21274,298.27036,195.0,195.0,254.0,253.0,97.0,97.0,97.0,97.0,0.0,0.0,0.0,0.0,0.041335527,0.042001586,0.052648965,0.053167243,0.0,0.0,0.0,0.0,-211.31781,-299.30768,-204.77321,-253.77718,0.0,0.0,0.0,2.0,1.0,-0.5669856,0.029030468,0.0016633272,97.0,97.0,97.0,97.0,21.302864,21.302864,24.666473,24.666473,0.017474689,0.017236743,-4.283164E-4,-4.287916E-4,1101.3851,0.0,0.0,0.0,0.0,0.0,0.0,0.0,0.0,0.0,0.0,0.0,0.0,0.0,-44.582527,0.054043535,69.86873,0.0013518245,0.009655067,-2.2709626E-4,544974.3,119984.89,0.012043678,0.017907603,7355.6562,7518.1104,6263.0625,6494.976,0.31060123,0.0,0.0,0.0
71.286476,71.286476,0.883,0.0,0.0,298.84863,10749.0,100.0,0.0,-0.17669256,0.0,8.0,1.0,0.0,4000000.0,110.0,1.0,0.0,0.0,10.0,0.0,0.0,267.96765,-76.62582,-125.72031,0.084837206,0.27112406,-0.046522863,304.06732,304.0398,298.69162,298.7473,194.0,194.0,253.0,252.0,97.0,97.0,97.0,97.0,0.0,0.0,0.0,0.0,0.04100145,0.041693483,0.052562416,0.0530349,0.0,0.0,0.0,0.0,191.41579,197.87993,181.08932,206.14114,0.0,0.0,0.0,2.0,1.0,-0.5665063,0.029059999,0.0018345118,97.0,97.0,97.0,97.0,21.302864,21.302864,24.666473,24.666473,0.017585335,0.017334403,-4.2838595E-4,-4.2817488E-4,1103.8722,0.0,0.0,0.0,0.0,0.0,0.0,0.0,0.0,0.0,0.0,0.0,0.0,0.0,-44.61727,0.036574487,70.00386,0.0037657907,0.009425903,0.003932396,545290.25,119984.9,0.012221252,0.018215626,7279.4937,7450.4043,6202.706,6416.5137,0.31079674,0.0,0.0,0.0
75.44072,75.44072,0.933,0.0,0.0,299.3228,10765.0,100.0,0.0,-0.14639962,0.0,8.0,1.0,0.0,4000000.0,110.0,1.0,0.0,0.0,10.0,0.0,0.0,265.7358,-76.624344,-122.21661,0.075715624,0.26803982,-0.019798998,304.52103,304.4922,299.17014,299.21585,193.0,193.0,253.0,252.0,97.0,97.0,97.0,97.0,0.0,0.0,0.0,0.0,0.040963523,0.041643504,0.05268642,0.053121835,0.0,0.0,0.0,0.0,223.5755,206.89217,6.625056,12.84778,0.0,0.0,0.0,2.0,1.0,-0.5660799,0.029133413,0.0019891262,97.0,97.0,97.0,97.0,21.302864,21.302864,24.666473,24.666473,0.017479165,0.017256469,-4.2831097E-4,-4.2731847E-4,1106.0823,0.0,0.0,0.0,0.0,0.0,0.0,0.0,0.0,0.0,0.0,0.0,0.0,0.0,-44.6551,0.02449527,70.13594,-5.882524E-4,0.0075538773,0.0012614124,545569.94,119984.89,0.011825437,0.018088533,7333.4194,7492.4443,6315.947,6512.0947,0.3105631,0.0,0.0,0.0
79.60151,79.60151,0.983,0.0,0.0,299.79303,10780.0,100.0,0.0,-0.10916514,0.0,8.0,1.0,0.0,4000000.0,110.0,1.0,0.0,0.0,10.0,0.0,0.0,263.50198,-76.6232,-118.70642,0.06296401,0.26590592,0.015284911,304.9418,304.91476,299.64624,299.6802,193.0,193.0,252.0,251.0,97.0,97.0,97.0,97.0,0.0,0.0,0.0,0.0,0.041454926,0.042058796,0.052791126,0.053165086,0.0,0.0,0.0,0.0,548.96765,424.78137,203.84787,126.0504,0.0,0.0,0.0,2.0,1.0,-0.56575274,0.02921016,0.0019210577,97.0,97.0,97.0,97.0,21.302864,21.302864,24.666473,24.666473,0.017258026,0.017080765,-4.28009E-4,-4.2592516E-4,1108.1527,0.0,0.0,0.0,0.0,0.0,0.0,0.0,0.0,0.0,0.0,0.0,0.0,0.0,-44.697063,0.023862734,70.26405,-0.0020196245,0.005483261,0.001185294,545830.56,119984.9,0.0116763525,0.017508587,7472.892,7605.9116,6387.6094,6549.505,0.31020927,0.0,0.0,0.0
83.76878,83.76878,1.033,0.0,0.0,300.25516,10797.0,100.0,0.0,-0.09458102,0.0,8.0,1.0,0.0,4000000.0,110.0,1.0,0.0,0.0,10.0,0.0,0.0,261.26593,-76.62203,-115.18997,0.051017143,0.26114854,-0.023964398,305.4374,305.41055,300.11414,300.13824,192.0,192.0,251.0,250.0,97.0,97.0,97.0,97.0,0.0,0.0,0.0,0.0,0.041565426,0.04211625,0.052750904,0.053106435,0.0,0.0,0.0,0.0,-103.68077,-162.78323,59.90713,26.674566,0.0,0.0,0.0,2.0,1.0,-0.56552273,0.029284177,0.002008915,97.0,97.0,97.0,97.0,21.302864,21.302864,24.666473,24.666473,0.017326863,0.017173205,-4.2521177E-4,-4.2532178E-4,1110.5209,0.0,0.0,0.0,0.0,0.0,0.0,0.0,0.0,0.0,0.0,0.0,0.0,0.0,-44.74306,0.019316554,70.38693,0.003349918,0.00406463,0.0024891107,546135.8,119984.89,0.01190794,0.017632818,7399.7812,7517.3076,6311.1265,6469.756,0.31041908,0.0,0.0,0.0
87.942444,87.942444,1.083,0.0,0.0,300.7134,10814.0,100.0,0.0,-0.05962107,0.0,8.0,1.0,0.0,4000000.0,110.0,1.0,0.0,0.0,10.0,0.0,0.0,259.02747,-76.62148,-111.66747,0.036721125,0.259375,-0.023651788,305.89423,305.8711,300.5769,300.5915,191.0,191.0,250.0,249.0,97.0,97.0,97.0,97.0,0.0,0.0,0.0,0.0,0.04146171,0.041897815,0.05279826,0.053094137,0.0,0.0,0.0,0.0,293.1788,202.11784,82.491325,28.92762,0.0,0.0,0.0,2.0,1.0,-0.5653592,0.029227238,0.0021605492,97.0,97.0,97.0,97.0,21.302864,21.302864,24.666473,24.666473,0.017289734,0.01718053,-4.2564594E-4,-4.2439453E-4,1112.8456,0.0,0.0,0.0,0.0,0.0,0.0,0.0,0.0,0.0,0.0,0.0,0.0,0.0,-44.793766,0.004917575,70.50553,0.0026638254,0.0023465771,-3.2274285E-4,546418.7,119984.9,0.011939018,0.017745264,7418.0796,7505.592,6362.7124,6491.517,0.3104992,0.0,0.0,0.0
92.12242,92.12242,1.133,0.0,0.0,301.16632,10829.0,100.0,0.0,-0.03629325,0.0,8.0,1.0,0.0,4000000.0,110.0,1.0,0.0,0.0,10.0,0.0,0.0,256.78635,-76.62147,-108.139175,0.023763373,0.255619,-0.0153457215,306.3346,306.31235,301.03482,301.03973,190.0,190.0,249.0,248.0,97.0,97.0,97.0,97.0,0.0,0.0,0.0,0.0,0.041656498,0.041976593,0.0528607,0.053098157,0.0,0.0,0.0,0.0,95.996254,56.88964,26.446575,15.516577,0.0,0.0,0.0,2.0,1.0,-0.5652877,0.029157393,0.0022444725,97.0,97.0,97.0,97.0,21.302864,21.302864,24.666473,24.666473,0.017205546,0.017126003,-4.2432142E-4,-4.2368314E-4,1114.944,0.0,0.0,0.0,0.0,0.0,0.0,0.0,0.0,0.0,0.0,0.0,0.0,0.0,-44.849415,-0.003440541,70.61923,0.0024160293,7.3319726E-4,-2.5550788E-4,546690.7,119984.9,0.012078615,0.01773107,7458.2607,7528.621,6390.829,6495.756,0.31057453,0.0,0.0,0.0
96.30866,96.30866,1.183,0.0,0.0,301.6133,10845.0,100.0,0.0,-0.04790126,0.0,8.0,1.0,0.0,4000000.0,110.0,1.0,0.0,0.0,10.0,0.0,0.0,254.54234,-76.62191,-104.6053,0.017258584,0.25332096,-0.022764878,306.78564,306.76828,301.48126,301.48706,190.0,189.0,248.0,247.0,97.0,97.0,97.0,97.0,0.0,0.0,0.0,0.0,0.04168434,0.041935865,0.05288823,0.053112887,0.0,0.0,0.0,0.0,209.44026,204.7464,185.66248,188.88113,0.0,0.0,0.0,2.0,1.0,-0.5652496,0.029088607,0.002317071,97.0,97.0,97.0,97.0,21.302864,21.302864,24.666473,24.666473,0.017201444,0.017133435,-4.2246783E-4,-4.2447002E-4,1117.1624,0.0,0.0,0.0,0.0,0.0,0.0,0.0,0.0,0.0,0.0,0.0,0.0,0.0,-44.907658,-0.014873769,70.72933,0.0012633381,9.819968E-4,-0.0012119546,546970.3,119984.89,0.011910656,0.017748484,7455.3726,7511.0483,6415.7495,6517.8887,0.3104849,0.0,0.0,0.0
100.501076,100.501076,1.233,0.0,0.0,302.05624,10859.0,100.0,0.0,-0.05308675,0.0,8.0,1.0,0.0,4000000.0,110.0,1.0,0.0,0.0,10.0,0.0,0.0,252.2954,-76.62258,-101.06597,0.0153430775,0.24892035,0.020216838,307.18054,307.16855,301.9214,301.9318,189.0,189.0,247.0,246.0,97.0,97.0,97.0,97.0,0.0,0.0,0.0,0.0,0.042199235,0.042428516,0.053014655,0.053234227,0.0,0.0,0.0,0.0,-138.03989,-199.75752,-168.57681,-220.16911,0.0,0.0,0.0,2.0,1.0,-0.5651789,0.02897545,0.0021939278,97.0,97.0,97.0,97.0,21.302864,21.302864,24.666473,24.666473,0.017018933,0.016953122,-4.2167964E-4,-4.232654E-4,1119.1072,0.0,0.0,0.0,0.0,0.0,0.0,0.0,0.0,0.0,0.0,0.0,0.0,0.0,-44.967,-0.0089187985,70.83739,-0.001425761,0.0016418811,-0.0045979014,547216.06,119984.89,0.011784632,0.017258085,7564.4746,7617.203,6491.421,6589.5835,0.31019688,0.0,0.0,0.0
104.699615,104.699615,1.283,0.0,0.0,302.49216,10875.0,100.0,0.0,-0.05746694,0.0,8.0,1.0,0.0,4000000.0,110.0,1.0,0.0,0.0,10.0,0.0,0.0,250.04547,-76.62283,-97.5213,0.015930139,0.24578051,0.01037683,307.61752,307.60666,302.35745,302.3684,188.0,188.0,246.0,246.0,97.0,97.0,97.0,97.0,0.0,0.0,0.0,0.0,0.042448916,0.04263635,0.053018354,0.0532314,0.0,0.0,0.0,0.0,-149.55997,-89.69305,-17.528233,9.334085,0.0,0.0,0.0,2.0,1.0,-0.56509304,0.028856369,0.0020570755,97.0,97.0,97.0,97.0,21.302864,21.302864,24.666473,24.666473,0.016998354,0.016933639,-4.200887E-4,-4.225087E-4,1121.3088,0.0,0.0,0.0,0.0,0.0,0.0,0.0,0.0,0.0,0.0,0.0,0.0,0.0,-45.025726,-0.0022351444,70.943535,-5.0499535E-4,0.0018222202,-0.0027718025,547485.94,119984.89,0.0118490495,0.017153734,7567.6094,7618.828,6479.6475,6578.043,0.3101883,0.0,0.0,0.0
108.90417,108.90417,1.333,0.0,0.0,302.92297,10890.0,100.0,0.0,-0.045763362,0.0,8.0,1.0,0.0,4000000.0,110.0,1.0,0.0,0.0,10.0,0.0,0.0,247.79265,-76.622765,-93.97135,0.014500491,0.2430659,-0.007692292,308.05313,308.04465,302.78836,302.79837,187.0,187.0,246.0,245.0,97.0,97.0,97.0,97.0,0.0,0.0,0.0,0.0,0.04250165,0.04266085,0.053031616,0.05324877,0.0,0.0,0.0,0.0,-287.14386,-363.89526,-184.33478,-238.12648,0.0,0.0,0.0,2.0,1.0,-0.5650103,0.028742364,0.0018975735,97.0,97.0,97.0,97.0,21.302864,21.302864,24.666473,24.666473,0.016996533,0.016945867,-4.208894E-4,-4.219116E-4,1123.4077,0.0,0.0,0.0,0.0,0.0,0.0,0.0,0.0,0.0,0.0,0.0,0.0,0.0,-45.083874,0.0027138402,71.04837,-0.0018221708,0.0015632985,-0.003598242,547755.25,119984.89,0.011562619,0.016897313,7549.15,7586.7256,6462.9683,6559.3706,0.30992413,0.0,0.0,0.0
113.11467,113.11467,1.383,0.0,0.0,303.35223,10904.0,100.0,0.0,0.003571427,0.0,8.0,1.0,0.0,4000000.0,110.0,1.0,0.0,0.0,10.0,0.0,0.0,245.5369,-76.622345,-90.41621,0.007405378,0.24222241,0.034285564,308.43536,308.42822,303.22098,303.22366,187.0,186.0,245.0,244.0,97.0,97.0,97.0,97.0,0.0,0.0,0.0,0.0,0.04289556,0.043000244,0.05311038,0.053355005,0.0,0.0,0.0,0.0,123.971664,117.49414,-10.40697,-81.27093,0.0,0.0,0.0,2.0,1.0,-0.5649653,0.028526833,0.0016502142,97.0,97.0,97.0,97.0,21.302864,21.302864,24.666473,24.666473,0.016806314,0.016779058,-4.2370072E-4,-4.1962907E-4,1125.3381,0.0,0.0,0.0,0.0,0.0,0.0,0.0,0.0,0.0,0.0,0.0,0.0,0.0,-45.14364,0.015567567,71.151665,-8.18447E-4,5.8714446E-5,-0.008778747,547992.0,119984.9,0.011076404,0.016135335,7677.929,7709.2163,6559.1875,6668.9355,0.30930996,0.0,0.0,0.0
117.33113,117.33113,1.433,0.0,0.0,303.77643,10919.0,100.0,0.0,0.00444328,0.0,8.0,1.0,0.0,4000000.0,110.0,1.0,0.0,0.0,10.0,0.0,0.0,243.27809,-76.62116,-86.85595,0.0022839457,0.23973525,0.024800025,308.86,308.8565,303.6489,303.6451,186.0,186.0,244.0,243.0,97.0,97.0,97.0,97.0,0.0,0.0,0.0,0.0,0.0431835,0.043205913,0.05313449,0.0533542,0.0,0.0,0.0,0.0,-78.58872,-135.37106,-45.047695,66.93452,0.0,0.0,0.0,2.0,1.0,-0.5649921,0.028259158,0.0015023947,97.0,97.0,97.0,97.0,21.302864,21.302864,24.666473,24.666473,0.016769148,0.016771708,-4.2108493E-4,-4.203687E-4,1127.427,0.0,0.0,0.0,0.0,0.0,0.0,0.0,0.0,0.0,0.0,0.0,0.0,0.0,-45.20512,0.02958419,71.2522,0.0019349322,-8.0376095E-4,-0.0062931376,548254.94,119984.89,0.010696891,0.015714707,7690.7534,7699.152,6558.336,6666.4175,0.3088684,0.0,0.0,0.0
121.553444,121.553444,1.483,0.0,0.0,304.1966,10934.0,100.0,0.0,-0.0025004135,0.0,8.0,1.0,0.0,4000000.0,110.0,1.0,0.0,0.0,10.0,0.0,0.0,241.01619,-76.61943,-83.29075,-0.0019390285,0.23744145,0.011185576,309.2926,309.2851,304.0702,304.0646,185.0,185.0,243.0,242.0,97.0,97.0,97.0,97.0,0.0,0.0,0.0,0.0,0.0432024,0.04317316,0.053164516,0.05332871,0.0,0.0,0.0,0.0,-33.83606,-18.560883,42.821457,-28.538698,0.0,0.0,0.0,2.0,1.0,-0.56503725,0.027896123,0.0014542341,97.0,97.0,97.0,97.0,21.302864,21.302864,24.666473,24.666473,0.016777668,0.016777365,-4.1965907E-4,-4.1998847E-4,1129.5223,0.0,0.0,0.0,0.0,0.0,0.0,0.0,0.0,0.0,0.0,0.0,0.0,0.0,-45.26792,0.037559774,71.35057,0.0031784398,-0.0010219897,-0.00613311,548520.4,119984.89,0.010480978,0.015545133,7675.14,7683.1514,6576.8784,6643.7686,0.3087244,0.0,0.0,0.0
125.7816,125.7816,1.533,0.0,0.0,304.61237,10949.0,100.0,0.0,-0.012977237,0.0,8.0,1.0,0.0,4000000.0,110.0,1.0,0.0,0.0,10.0,0.0,0.0,238.75116,-76.61738,-79.72062,-0.0016279817,0.233215,0.011422307,309.7061,309.70224,304.48346,304.48367,184.0,184.0,242.0,241.0,97.0,97.0,97.0,97.0,0.0,0.0,0.0,0.0,0.043244652,0.043286465,0.0531826,0.053327546,0.0,0.0,0.0,0.0,-173.5523,-475.56903,-139.81013,-408.50037,0.0,0.0,0.0,2.0,1.0,-0.565053,0.027583966,0.0014498234,97.0,97.0,97.0,97.0,21.302864,21.302864,24.666473,24.666473,0.016747257,0.016742393,-4.1831826E-4,-4.1781852E-4,1131.6,0.0,0.0,0.0,0.0,0.0,0.0,0.0,0.0,0.0,0.0,0.0,0.0,0.0,-45.32994,0.044599295,71.44799,0.004143641,-2.5002857E-5,-0.0048626624,548776.5,119984.9,0.010704367,0.015599701,7682.217,7689.263,6571.9,6627.4194,0.3087921,0.0,0.0,0.0
130.01546,130.01546,1.583,0.0,0.0,305.02182,10965.0,100.0,0.0,-0.0148809515,0.0,8.0,1.0,0.0,4000000.0,110.0,1.0,0.0,0.0,10.0,0.0,0.0,236.48305,-76.615456,-76.14569,-6.4403564E-4,0.23126347,-0.03760577,310.16815,310.1546,304.89423,304.89334,184.0,183.0,241.0,240.0,97.0,97.0,97.0,97.0,0.0,0.0,0.0,0.0,0.04287578,0.0429255,0.053100254,0.053196844,0.0,0.0,0.0,0.0,-80.801575,63.568325,50.65351,125.67489,0.0,0.0,0.0,2.0,1.0,-0.5650552,0.027483065,0.0016640425,97.0,97.0,97.0,97.0,21.302864,21.302864,24.666473,24.666473,0.016900515,0.01686714,-4.1656493E-4,-4.1691333E-4,1133.8346,0.0,0.0,0.0,0.0,0.0,0.0,0.0,0.0,0.0,0.0,0.0,0.0,0.0,-45.390945,0.030255638,71.54399,0.00404199,-6.739107E-5,0.003587053,549057.8,119984.9,0.011137186,0.016212149,7564.5205,7597.0664,6513.8213,6559.4414,0.3093109,0.0,0.0,0.0
134.25497,134.25497,1.633,0.0,0.0,305.4277,10979.0,100.0,0.0,-0.026609335,0.0,8.0,1.0,0.0,4000000.0,110.0,1.0,0.0,0.0,10.0,0.0,0.0,234.21193,-76.61439,-72.56595,0.0022696182,0.22879355,-0.024520576,310.56403,310.5507,305.29623,305.302,183.0,183.0,240.0,240.0,97.0,97.0,97.0,97.0,0.0,0.0,0.0,0.0,0.042612493,0.04278824,0.05314187,0.053255886,0.0,0.0,0.0,0.0,146.43517,88.31172,36.25005,8.301436,0.0,0.0,0.0,2.0,1.0,-0.5650261,0.02754807,0.0018470287,97.0,97.0,97.0,97.0,21.302864,21.302864,24.666473,24.666473,0.016866004,0.016810631,-4.167036E-4,-4.1640078E-4,1135.7876,0.0,0.0,0.0,0.0,0.0,0.0,0.0,0.0,0.0,0.0,0.0,0.0,0.0,-45.449924,0.01505231,71.6401,5.501196E-4,9.347081E-4,0.001913789,549302.2,119984.9,0.011113238,0.016461335,7582.095,7630.293,6570.4233,6621.515,0.30945015,0.0,0.0,0.0
138.50012,138.50012,1.683,0.0,0.0,305.829,10992.0,100.0,0.0,-0.02510571,0.0,8.0,1.0,0.0,4000000.0,110.0,1.0,0.0,0.0,10.0,0.0,0.0,231.9379,-76.61383,-68.98143,0.0040929615,0.22644785,-0.011809693,310.9422,310.9263,305.6973,305.7027,182.0,182.0,240.0,239.0,97.0,97.0,97.0,97.0,0.0,0.0,0.0,0.0,0.042776626,0.043009743,0.05320493,0.053301755,0.0,0.0,0.0,0.0,44.001644,-3.2454584,-41.037792,-90.108795,0.0,0.0,0.0,2.0,1.0,-0.5649826,0.02767016,0.001816392,97.0,97.0,97.0,97.0,21.302864,21.302864,24.666473,24.666473,0.016767872,0.016708642,-4.168852E-4,-4.160351E-4,1137.6144,0.0,0.0,0.0,0.0,0.0,0.0,0.0,0.0,0.0,0.0,0.0,0.0,0.0,-45.50785,0.00841223,71.73537,-0.0031095813,7.6118304E-4,0.002423833,549535.0,119984.89,0.0109156165,0.01613537,7638.6133,7690.5693,6594.956,6635.294,0.30920887,0.0,0.0,0.0
142.7508,142.7508,1.733,0.0,0.0,306.2264,11006.0,100.0,0.0,-0.026450606,0.0,8.0,1.0,0.0,4000000.0,110.0,1.0,0.0,0.0,10.0,0.0,0.0,229.66098,-76.61342,-65.39217,0.004014015,0.22422907,0.005595942,311.31943,311.30124,306.09637,306.09833,181.0,181.0,239.0,238.0,97.0,97.0,97.0,97.0,0.0,0.0,0.0,0.0,0.043084815,0.043364074,0.053257383,0.053362098,0.0,0.0,0.0,0.0,33.473965,-29.598167,7.429715,-14.175474,0.0,0.0,0.0,2.0,1.0,-0.56496704,0.02785818,0.001734376,97.0,97.0,97.0,97.0,21.302864,21.302864,24.666473,24.666473,0.016674718,0.016615305,-4.1571454E-4,-4.163974E-4,1139.3302,0.0,0.0,0.0,0.0,0.0,0.0,0.0,0.0,0.0,0.0,0.0,0.0,0.0,-45.56549,0.008819666,71.82953,-0.003453344,2.1568278E-4,0.0022839315,549663.75,119984.89,0.010681778,0.015656203,7693.121,7749.6787,6637.9395,6685.0327,0.30885983,0.0,0.0,0.0
147.00696,147.00696,1.783,0.0,0.0,306.61823,11019.0,100.0,0.0,-0.047403183,0.0,8.0,1.0,0.0,4000000.0,110.0,1.0,0.0,0.0,10.0,0.0,0.0,227.38124,-76.61276,-61.79822,0.0075704306,0.22067498,0.0109462775,311.69894,311.68527,306.4851,306.49374,181.0,180.0,238.0,237.0,97.0,97.0,97.0,97.0,0.0,0.0,0.0,0.0,0.043371726,0.043666154,0.053283796,0.05340932,0.0,0.0,0.0,0.0,-89.786934,-188.27765,-6.6921105,-58.28439,0.0,0.0,0.0,2.0,1.0,-0.56491905,0.027987698,0.0016368628,97.0,97.0,97.0,97.0,21.302864,21.302864,24.666473,24.666473,0.016618447,0.016553326,-4.1418578E-4,-4.1570712E-4,1140.7057,0.0,0.0,0.0,0.0,0.0,0.0,0.0,0.0,0.0,0.0,0.0,0.0,0.0,-45.620926,0.015985128,71.92325,-0.0023608785,0.0014103657,0.0014476147,549678.1,119984.89,0.010755887,0.0154583575,7720.499,7777.117,6644.2676,6698.584,0.3088169,0.0,0.0,0.0
151.26852,151.26852,1.833,0.0,0.0,307.00403,11033.0,100.0,0.0,-0.0570257,0.0,8.0,1.0,0.0,4000000.0,110.0,1.0,0.0,0.0,10.0,0.0,0.0,225.09879,-76.611885,-58.199593,0.012490958,0.21735305,0.0024556592,312.09012,312.07797,306.8688,306.88254,180.0,180.0,237.0,236.0,97.0,97.0,97.0,97.0,0.0,0.0,0.0,0.0,0.043382388,0.04368824,0.053258635,0.05342078,0.0,0.0,0.0,0.0,-12.995301,-63.648804,5.444884,13.478098,0.0,0.0,0.0,2.0,1.0,-0.56481886,0.028142205,0.0016266108,97.0,97.0,97.0,97.0,21.302864,21.302864,24.666473,24.666473,0.016622053,0.016545475,-4.1281062E-4,-4.1441733E-4,1142.1857,0.0,0.0,0.0,0.0,0.0,0.0,0.0,0.0,0.0,0.0,0.0,0.0,0.0,-45.673622,0.018261194,72.01673,-0.0010472783,0.0023219504,0.002427679,549692.9,119984.9,0.01095902,0.015631652,7704.3022,7768.3413,6629.958,6706.9976,0.3090067,0.0,0.0,0.0
155.53542,155.53542,1.883,0.0,0.0,307.38486,11047.0,100.0,0.0,-0.031702656,0.0,8.0,1.0,0.0,4000000.0,110.0,1.0,0.0,0.0,10.0,0.0,0.0,222.81375,-76.611145,-54.59632,0.011796139,0.21629041,-0.014544352,312.48544,312.46927,307.25217,307.2606,179.0,179.0,236.0,235.0,97.0,97.0,97.0,97.0,0.0,0.0,0.0,0.0,0.043221172,0.043471172,0.053237535,0.05341132,0.0,0.0,0.0,0.0,197.90675,443.44962,125.03116,431.6613,0.0,0.0,0.0,2.0,1.0,-0.56473106,0.028313711,0.0016669035,97.0,97.0,97.0,97.0,21.302864,21.302864,24.666473,24.666473,0.016651155,0.016577387,-4.1364768E-4,-4.1341255E-4,1143.6659,0.0,0.0,0.0,0.0,0.0,0.0,0.0,0.0,0.0,0.0,0.0,0.0,0.0,-45.725395,0.0099377185,72.10917,-0.0023798295,0.0013282618,0.0033950107,549707.7,119984.89,0.010795815,0.015729794,7672.1597,7738.4053,6633.5464,6724.7437,0.3089943,0.0,0.0,0.0
159.80759,159.80759,1.933,0.0,0.0,307.76303,11059.0,100.0,0.0,-0.055534624,0.0,8.0,1.0,0.0,4000000.0,110.0,1.0,0.0,0.0,10.0,0.0,0.0,220.52612,-76.61058,-50.988426,0.013832815,0.21339056,0.012599293,312.826,312.81802,307.6284,307.63962,178.0,178.0,235.0,235.0,97.0,97.0,97.0,97.0,0.0,0.0,0.0,0.0,0.043496024,0.04375695,0.053310145,0.053532492,0.0,0.0,0.0,0.0,125.044586,-128.81308,129.76524,43.478607,0.0,0.0,0.0,2.0,1.0,-0.5646568,0.028306402,0.0015538931,97.0,97.0,97.0,97.0,21.302864,21.302864,24.666473,24.666473,0.01650934,0.016454536,-4.124273E-4,-4.1453875E-4,1144.9353,0.0,0.0,0.0,0.0,0.0,0.0,0.0,0.0,0.0,0.0,0.0,0.0,0.0,-45.77613,0.012987591,72.201385,-0.0012662115,0.0018343717,-0.004192714,549720.7,119984.89,0.010097921,0.015100397,7761.8926,7807.894,6696.79,6795.5107,0.30830193,0.0,0.0,0.0
164.08461,164.08461,1.983,0.0,0.0,308.1386,11071.0,100.0,0.0,-0.029410817,0.0,8.0,1.0,0.0,4000000.0,110.0,1.0,0.0,0.0,10.0,0.0,0.0,218.23601,-76.609634,-47.37594,0.01178655,0.21210131,0.027266573,313.1712,313.16946,308.0045,308.01376,178.0,178.0,235.0,234.0,97.0,97.0,97.0,97.0,0.0,0.0,0.0,0.0,0.044004776,0.044121712,0.053374894,0.05363442,0.0,0.0,0.0,0.0,-42.92873,-148.00426,-52.651752,-93.82366,0.0,0.0,0.0,2.0,1.0,-0.5645692,0.028103251,0.0013250113,97.0,97.0,97.0,97.0,21.302864,21.302864,24.666473,24.666473,0.016385023,0.016356505,-4.1417763E-4,-4.1379296E-4,1146.2051,0.0,0.0,0.0,0.0,0.0,0.0,0.0,0.0,0.0,0.0,0.0,0.0,0.0,-45.826805,0.025120715,72.292786,-9.920858E-4,0.0013420904,-0.008107547,549733.9,119984.89,0.009299726,0.014081341,7840.0703,7865.67,6726.714,6847.228,0.30757523,0.0,0.0,0.0
168.36674,168.36674,2.033,0.0,0.0,308.51254,11083.0,100.0,0.0,-0.056176156,0.0,8.0,1.0,0.0,4000000.0,110.0,1.0,0.0,0.0,10.0,0.0,0.0,215.9433,-76.60802,-43.7589,0.015160136,0.2110832,0.08595959,313.4957,313.4958,308.37845,308.38794,177.0,177.0,234.0,233.0,97.0,97.0,97.0,97.0,0.0,0.0,0.0,0.0,0.044572223,0.044668224,0.053444803,0.05376707,0.0,0.0,0.0,0.0,748.0009,955.44293,412.01407,639.7872,0.0,0.0,0.0,2.0,1.0,-0.56450707,0.027710503,0.0011593103,97.0,97.0,97.0,97.0,21.302864,21.302864,24.666473,24.666473,0.016203284,0.016166916,-4.1124472E-4,-4.1568896E-4,1147.4731,0.0,0.0,0.0,0.0,0.0,0.0,0.0,0.0,0.0,0.0,0.0,0.0,0.0,-45.877377,0.045524828,72.3837,0.0034082318,0.0016453662,-0.012347713,549746.2,119984.91,0.009040628,0.013310608,7992.376,8032.6167,6857.1094,7022.0874,0.3071165,0.0,0.0,0.0
172.65396,172.65396,2.083,0.0,0.0,308.87628,11099.0,100.0,0.0,-0.065210536,0.0,8.0,1.0,0.0,4000000.0,110.0,1.0,0.0,0.0,10.0,0.0,0.0,213.64818,-76.60554,-40.137337,0.019112565,0.20542455,-0.04286342,313.95282,313.9528,308.74063,308.75848,176.0,176.0,233.0,232.0,97.0,97.0,97.0,97.0,0.0,0.0,0.0,0.0,0.044323534,0.044365052,0.053251907,0.053456917,0.0,0.0,0.0,0.0,-478.85474,-332.795,44.39054,150.47191,0.0,0.0,0.0,2.0,1.0,-0.56437445,0.027264807,0.0013090372,97.0,97.0,97.0,97.0,21.302864,21.302864,24.666473,24.666473,0.016476307,0.0164273,-4.0878876E-4,-4.101646E-4,1149.1655,0.0,0.0,0.0,0.0,0.0,0.0,0.0,0.0,0.0,0.0,0.0,0.0,0.0,-45.923916,0.043256264,72.47382,0.0109937405,0.0032944365,0.001217748,549763.3,119984.92,0.009981799,0.014178474,7734.8438,7772.418,6570.629,6660.8057,0.30792618,0.0,0.0,0.0
176.94617,176.94617,2.133,0.0,0.0,309.23636,11113.0,100.0,0.0,-0.06235991,0.0,8.0,1.0,0.0,4000000.0,110.0,1.0,0.0,0.0,10.0,0.0,0.0,211.35081,-76.60407,-36.511265,0.022107646,0.20320225,-0.049801677,314.34094,314.33292,309.10062,309.1183,175.0,175.0,232.0,231.0,97.0,97.0,97.0,97.0,0.0,0.0,0.0,0.0,0.043537486,0.04369647,0.053202696,0.053427488,0.0,0.0,0.0,0.0,316.50064,307.03244,91.959526,79.37997,0.0,0.0,0.0,2.0,1.0,-0.5642131,0.027185624,0.0016977787,97.0,97.0,97.0,97.0,21.302864,21.302864,24.666473,24.666473,0.016565256,0.016492255,-4.078626E-4,-4.0899994E-4,1150.6453,0.0,0.0,0.0,0.0,0.0,0.0,0.0,0.0,0.0,0.0,0.0,0.0,0.0,-45.968014,0.016945604,72.5643,0.0064738393,0.0031424107,0.002591947,549777.75,119984.9,0.010878481,0.01533106,7665.9697,7727.5938,6599.703,6704.295,0.30883503,0.0,0.0,0.0
181.24335,181.24335,2.183,0.0,0.0,309.5891,11125.0,100.0,0.0,-0.04728207,0.0,8.0,1.0,0.0,4000000.0,110.0,1.0,0.0,0.0,10.0,0.0,0.0,209.05127,-76.60386,-32.8807,0.020581774,0.19814049,-0.032239936,314.68936,314.67953,309.45532,309.46866,175.0,175.0,231.0,230.0,97.0,97.0,97.0,97.0,0.0,0.0,0.0,0.0,0.043264963,0.04346718,0.05324469,0.053466897,0.0,0.0,0.0,0.0,198.71143,142.13023,81.203865,61.717625,0.0,0.0,0.0,2.0,1.0,-0.5640739,0.027121415,0.0019807816,97.0,97.0,97.0,97.0,21.302864,21.302864,24.666473,24.666473,0.016530229,0.016466545,-4.0713276E-4,-4.0686427E-4,1151.9153,0.0,0.0,0.0,0.0,0.0,0.0,0.0,0.0,0.0,0.0,0.0,0.0,0.0,-46.011047,-0.0045642927,72.65303,0.0036569177,0.0022493617,9.4702246E-4,549790.9,119984.914,0.0115430765,0.016210219,7680.8335,7734.837,6651.416,6751.968,0.30957985,0.0,0.0,0.0
185.54532,185.54532,2.233,0.0,0.0,309.93658,11138.0,100.0,0.0,-0.06363949,0.0,8.0,1.0,0.0,4000000.0,110.0,1.0,0.0,0.0,10.0,0.0,0.0,206.74962,-76.60489,-29.245754,0.020371996,0.20019427,-0.062429246,315.047,315.03903,309.80276,309.8149,174.0,174.0,230.0,230.0,97.0,97.0,97.0,97.0,0.0,0.0,0.0,0.0,0.042914156,0.04314103,0.053191375,0.05342716,0.0,0.0,0.0,0.0,1021.4654,717.23596,1011.6218,717.9199,0.0,0.0,0.0,2.0,1.0,-0.56397283,0.026960395,0.002128005,97.0,97.0,97.0,97.0,21.302864,21.302864,24.666473,24.666473,0.016569195,0.016514592,-4.077026E-4,-4.1024626E-4,1153.2897,0.0,0.0,0.0,0.0,0.0,0.0,0.0,0.0,0.0,0.0,0.0,0.0,0.0,-46.053406,-0.03855822,72.74045,0.004033806,0.0021307194,-0.0032607925,549804.4,119984.91,0.011104628,0.016221195,7652.4365,7694.6357,6645.252,6743.14,0.30937386,0.0,0.0,0.0
189.85214,189.85214,2.283,0.0,0.0,310.28165,11145.0,100.0,0.0,-0.045973647,0.0,8.0,1.0,0.0,4000000.0,110.0,1.0,0.0,0.0,10.0,0.0,0.0,204.4458,-76.60622,-25.606443,0.019819506,0.19196653,0.09670873,315.26117,315.2485,310.1441,310.1588,173.0,173.0,230.0,229.0,97.0,97.0,97.0,97.0,0.0,0.0,0.0,0.0,0.044419084,0.04460834,0.053661603,0.053842075,0.0,0.0,0.0,0.0,-816.7997,-369.1122,-609.38434,-344.14078,0.0,0.0,0.0,2.0,1.0,-0.56386524,0.027003832,0.0016726255,97.0,97.0,97.0,97.0,21.302864,21.302864,24.666473,24.666473,0.016115015,0.016036643,-4.095708E-4,-4.0916709E-4,1154.0314,0.0,0.0,0.0,0.0,0.0,0.0,0.0,0.0,0.0,0.0,0.0,0.0,0.0,-46.096813,-0.006396705,72.826416,-0.01500589,0.0019776889,-0.004081386,549812.44,119984.91,0.010160603,0.014697251,7971.5234,8043.8477,6940.5283,7030.771,0.30830193,0.0,0.0,0.0
194.16368,194.16368,2.333,0.0,0.0,310.6196,11157.0,100.0,0.0,-0.049091604,0.0,8.0,1.0,0.0,4000000.0,110.0,1.0,0.0,0.0,10.0,0.0,0.0,202.1398,-76.605576,-21.96292,0.018099591,0.1912778,0.071670294,315.5964,315.5782,310.48523,310.49536,173.0,173.0,229.0,228.0,97.0,97.0,97.0,97.0,0.0,0.0,0.0,0.0,0.045054767,0.04541615,0.05364693,0.053795107,0.0,0.0,0.0,0.0,-74.51179,-178.99715,269.77655,232.13174,0.0,0.0,0.0,2.0,1.0,-0.5637914,0.027193833,0.0010581017,97.0,97.0,97.0,97.0,21.302864,21.302864,24.666473,24.666473,0.016071932,0.015992623,-4.083989E-4,-4.0895204E-4,1155.3004,0.0,0.0,0.0,0.0,0.0,0.0,0.0,0.0,0.0,0.0,0.0,0.0,0.0,-46.14037,0.028732426,72.90994,-0.010442669,0.0013602163,-0.0015245273,549825.0,119984.914,0.009703946,0.013735917,7992.2363,8069.285,6896.7803,6958.993,0.30781364,0.0,0.0,0.0
198.47987,198.47987,2.383,0.0,0.0,310.95596,11168.0,100.0,0.0,-0.088077754,0.0,8.0,1.0,0.0,4000000.0,110.0,1.0,0.0,0.0,10.0,0.0,0.0,199.83165,-76.6032,-18.315222,0.021668911,0.19034398,0.11405296,315.90588,315.88272,310.81802,310.83286,172.0,172.0,228.0,227.0,97.0,97.0,97.0,97.0,0.0,0.0,0.0,0.0,0.045326293,0.04582509,0.053846627,0.053888477,0.0,0.0,0.0,0.0,598.96405,575.7361,477.8891,438.80933,0.0,0.0,0.0,2.0,1.0,-0.56371415,0.027639735,5.1796436E-4,97.0,97.0,97.0,97.0,21.302864,21.302864,24.666473,24.666473,0.015983278,0.015875788,-4.0782217E-4,-4.1207913E-4,1156.4637,0.0,0.0,0.0,0.0,0.0,0.0,0.0,0.0,0.0,0.0,0.0,0.0,0.0,-46.183147,0.068671405,72.993416,-0.020472765,0.0021623713,0.003819747,549836.56,119984.9,0.008777046,0.012727861,8061.1787,8161.216,7098.3916,7109.177,0.30693817,0.0,0.0,0.0
202.80074,202.80074,2.433,0.0,0.0,311.2904,11179.0,100.0,0.0,-0.05943572,0.0,8.0,1.0,0.0,4000000.0,110.0,1.0,0.0,0.0,10.0,0.0,0.0,197.52136,-76.59855,-14.663359,0.019780114,0.18909457,0.085240096,316.2267,316.20804,311.15292,311.16904,171.0,171.0,227.0,226.0,97.0,97.0,97.0,97.0,0.0,0.0,0.0,0.0,0.04572732,0.046430457,0.05375672,0.053841997,0.0,0.0,0.0,0.0,-50.251175,-314.1403,56.058167,98.571175,0.0,0.0,0.0,2.0,1.0,-0.5635991,0.028449584,-1.347065E-4,97.0,97.0,97.0,97.0,21.302864,21.302864,24.666473,24.666473,0.015915051,0.01581092,-4.0887282E-4,-4.0891176E-4,1157.6284,0.0,0.0,0.0,0.0,0.0,0.0,0.0,0.0,0.0,0.0,0.0,0.0,0.0,-46.22542,0.113213375,73.076546,-0.014992664,0.0024133867,0.008926152,549848.75,119984.91,0.008485303,0.011703283,8084.0444,8196.3,6927.2393,6971.492,0.30614758,0.0,0.0,0.0
207.12622,207.12622,2.483,0.0,0.0,311.63116,11194.0,100.0,0.0,-0.06273814,0.0,8.0,1.0,0.0,4000000.0,110.0,1.0,0.0,0.0,10.0,0.0,0.0,195.209,-76.593796,-11.007301,0.017820887,0.19562857,-0.008816578,316.6348,316.6097,311.49863,311.50723,171.0,171.0,226.0,226.0,97.0,97.0,97.0,97.0,0.0,0.0,0.0,0.0,0.044817097,0.04553131,0.05354084,0.05359307,0.0,0.0,0.0,0.0,950.5748,574.5157,295.7135,240.48682,0.0,0.0,0.0,2.0,1.0,-0.56350285,0.028947549,1.2731552E-4,97.0,97.0,97.0,97.0,21.302864,21.302864,24.666473,24.666473,0.016110765,0.016014075,-4.0996273E-4,-4.1153538E-4,1159.2137,0.0,0.0,0.0,0.0,0.0,0.0,0.0,0.0,0.0,0.0,0.0,0.0,0.0,-46.267952,0.087854035,73.16168,4.152162E-4,0.0015958488,0.012140701,549863.94,119984.91,0.0067853224,0.010855186,7915.562,8014.3354,6864.986,6875.8667,0.30423546,0.0,0.0,0.0
211.4565,211.4565,2.533,0.0,0.0,311.97394,11206.0,100.0,0.0,-0.022768753,0.0,8.0,1.0,0.0,4000000.0,110.0,1.0,0.0,0.0,10.0,0.0,0.0,192.89445,-76.5895,-7.346966,0.012138993,0.19302042,-0.05504752,316.99283,316.97092,311.8441,311.85092,170.0,170.0,226.0,225.0,97.0,97.0,97.0,97.0,0.0,0.0,0.0,0.0,0.044803068,0.045427606,0.053415183,0.053575557,0.0,0.0,0.0,0.0,-443.77142,-638.0975,-175.7249,-205.41695,0.0,0.0,0.0,2.0,1.0,-0.56341463,0.029548971,6.2572956E-4,97.0,97.0,97.0,97.0,21.302864,21.302864,24.666473,24.666473,0.016112626,0.016026208,-4.089441E-4,-4.069128E-4,1160.4851,0.0,0.0,0.0,0.0,0.0,0.0,0.0,0.0,0.0,0.0,0.0,0.0,0.0,-46.311993,0.077630766,73.2465,0.0109315645,0.0015062665,0.016462943,549877.5,119984.91,0.0067048436,0.010289699,7878.6865,7971.556,6665.435,6747.802,0.30340004,0.0,0.0,0.0
215.79147,215.79147,2.583,0.0,0.0,312.30515,11220.0,100.0,0.0,-0.05106767,0.0,8.0,1.0,0.0,4000000.0,110.0,1.0,0.0,0.0,10.0,0.0,0.0,190.57767,-76.586136,-3.6824615,0.01319775,0.17956854,-0.07838254,317.39127,317.3711,312.1771,312.18457,169.0,169.0,225.0,224.0,97.0,97.0,97.0,97.0,0.0,0.0,0.0,0.0,0.044645976,0.04499199,0.05337569,0.05359685,0.0,0.0,0.0,0.0,-2301.1072,-1722.0182,-1496.0153,-1024.8451,0.0,0.0,0.0,2.0,1.0,-0.5633346,0.029902212,0.0016684532,97.0,97.0,97.0,97.0,21.302864,21.302864,24.666473,24.666473,0.016286142,0.016197577,-3.9865653E-4,-4.0233159E-4,1161.9666,0.0,0.0,0.0,0.0,0.0,0.0,0.0,0.0,0.0,0.0,0.0,0.0,0.0,-46.355507,0.057435255,73.32785,0.01661082,0.002051651,0.017300753,549892.5,119984.91,0.008829318,0.01280426,7721.424,7804.423,6608.038,6731.256,0.30549908,0.0,0.0,0.0
220.13087,220.13087,2.633,0.0,0.0,312.6217,11236.0,100.0,0.0,-0.057470992,0.0,8.0,1.0,0.0,4000000.0,110.0,1.0,0.0,0.0,10.0,0.0,0.0,188.25879,-76.58583,-0.014027625,0.009098455,0.18131053,-0.22317368,317.83847,317.83984,312.49677,312.50003,169.0,168.0,224.0,223.0,97.0,97.0,97.0,97.0,0.0,0.0,0.0,0.0,0.042771384,0.042947873,0.05290207,0.05321082,0.0,0.0,0.0,0.0,932.76495,630.7615,-12.727088,-83.61785,0.0,0.0,0.0,2.0,1.0,-0.563264,0.029631084,0.0029706955,97.0,97.0,97.0,97.0,21.302864,21.302864,24.666473,24.666473,0.016738715,0.016734425,-3.949602E-4,-4.0175297E-4,1163.6598,0.0,0.0,0.0,0.0,0.0,0.0,0.0,0.0,0.0,0.0,0.0,0.0,0.0,-46.39706,-0.04508592,73.405624,0.02796864,0.0015705151,0.0045794994,549909.6,119984.9,0.01220459,0.016622586,7435.831,7434.3164,6336.5176,6477.7764,0.30948162,0.0,0.0,0.0
224.4746,224.4746,2.683,0.0,0.0,312.92972,11247.0,100.0,0.0,-0.092267446,0.0,8.0,1.0,0.0,4000000.0,110.0,1.0,0.0,0.0,10.0,0.0,0.0,185.93793,-76.5908,3.658287,0.017528854,0.17465682,-0.14442392,318.13177,318.142,312.79504,312.81354,168.0,168.0,223.0,222.0,97.0,97.0,97.0,97.0,0.0,0.0,0.0,0.0,0.04186297,0.041785654,0.05303805,0.053392205,0.0,0.0,0.0,0.0,861.74005,1075.445,384.11908,427.11493,0.0,0.0,0.0,2.0,1.0,-0.5631309,0.029052421,0.0039924383,97.0,97.0,97.0,97.0,21.302864,21.302864,24.666473,24.666473,0.01672185,0.016699834,-3.946498E-4,-4.0273383E-4,1164.8229,0.0,0.0,0.0,0.0,0.0,0.0,0.0,0.0,0.0,0.0,0.0,0.0,0.0,-46.434772,-0.13897069,73.48289,0.01365835,0.0037271203,-0.0059779356,549920.9,119984.9,0.013177573,0.01917752,7455.683,7457.591,6609.4736,6774.783,0.3116541,0.0,0.0,0.0
228.82254,228.82254,2.733,0.0,0.0,313.23096,11254.0,100.0,0.0,-0.08064176,0.0,8.0,1.0,0.0,4000000.0,110.0,1.0,0.0,0.0,10.0,0.0,0.0,183.61528,-76.59868,7.3344703,0.026768945,0.17042404,-0.12655638,318.3292,318.34628,313.0857,313.1169,167.0,167.0,223.0,222.0,97.0,97.0,97.0,97.0,0.0,0.0,0.0,0.0,0.042577222,0.042483862,0.053248618,0.053647704,0.0,0.0,0.0,0.0,-1272.5605,-1215.6976,-1340.7153,-1279.0648,0.0,0.0,0.0,2.0,1.0,-0.5629063,0.028390592,0.0034230947,97.0,97.0,97.0,97.0,21.302864,21.302864,24.666473,24.666473,0.01642247,0.016387528,-4.0141994E-4,-4.0307216E-4,1165.564,0.0,0.0,0.0,0.0,0.0,0.0,0.0,0.0,0.0,0.0,0.0,0.0,0.0,-46.468117,-0.1768046,73.560715,-0.007010934,0.0048697395,-0.021674369,549928.5,119984.9,0.011651486,0.01733394,7591.7373,7602.9785,6501.293,6689.621,0.3102455,0.0,0.0,0.0
233.17473,233.17473,2.783,0.0,0.0,313.54257,11256.0,100.0,0.0,-0.066377975,0.0,8.0,1.0,0.0,4000000.0,110.0,1.0,0.0,0.0,10.0,0.0,0.0,181.29092,-76.606705,11.014633,0.03132534,0.17461102,0.19796821,318.38055,318.39215,313.39743,313.41913,167.0,166.0,222.0,221.0,97.0,97.0,97.0,97.0,0.0,0.0,0.0,0.0,0.045658853,0.04551302,0.05393859,0.054348737,0.0,0.0,0.0,0.0,358.51727,444.22757,-234.15686,-187.19135,0.0,0.0,0.0,2.0,1.0,-0.5627291,0.027600674,0.002082944,97.0,97.0,97.0,97.0,21.302864,21.302864,24.666473,24.666473,0.015538186,0.015517429,-4.0936982E-4,-4.1203282E-4,1165.7755,0.0,0.0,0.0,0.0,0.0,0.0,0.0,0.0,0.0,0.0,0.0,0.0,0.0,-46.503597,-0.12382386,73.64079,-0.022152487,0.0027499185,-0.032963242,549930.56,119984.9,0.008330679,0.012122418,8359.777,8368.178,7249.722,7439.394,0.30577183,0.0,0.0,0.0
237.53122,237.53122,2.833,0.0,0.0,313.85104,11266.0,100.0,0.0,0.024005616,0.0,8.0,1.0,0.0,4000000.0,110.0,1.0,0.0,0.0,10.0,0.0,0.0,178.96469,-76.6103,14.698686,0.014193714,0.17441984,0.1858247,318.66742,318.66837,313.7235,313.71658,166.0,166.0,221.0,220.0,97.0,97.0,97.0,97.0,0.0,0.0,0.0,0.0,0.048072126,0.047836103,0.053989522,0.054336246,0.0,0.0,0.0,0.0,-1338.6232,-1309.8431,-248.96263,-212.32364,0.0,0.0,0.0,2.0,1.0,-0.56272453,0.026646307,8.547306E-4,97.0,97.0,97.0,97.0,21.302864,21.302864,24.666473,24.666473,0.015361955,0.015394233,-4.0989503E-4,-4.0764862E-4,1166.8337,0.0,0.0,0.0,0.0,0.0,0.0,0.0,0.0,0.0,0.0,0.0,0.0,0.0,-46.544315,-0.02794065,73.71652,-0.0010257969,-0.0017438193,-0.024168959,549941.2,119984.91,0.006795189,0.008878927,8479.403,8458.576,7107.0913,7261.743,0.30316544,0.0,0.0,0.0
241.89226,241.89226,2.883,0.0,0.0,314.15613,11281.0,100.0,0.0,-0.013462556,0.0,8.0,1.0,0.0,4000000.0,110.0,1.0,0.0,0.0,10.0,0.0,0.0,176.63632,-76.60998,18.38645,0.0060015097,0.16997503,0.044318374,319.08694,319.0957,314.03418,314.02432,165.0,165.0,220.0,219.0,97.0,97.0,97.0,97.0,0.0,0.0,0.0,0.0,0.047574144,0.047354903,0.053740077,0.05411747,0.0,0.0,0.0,0.0,-599.2456,-998.70703,-232.86935,-223.54869,0.0,0.0,0.0,2.0,1.0,-0.5628182,0.025774894,8.7308884E-4,97.0,97.0,97.0,97.0,21.302864,21.302864,24.666473,24.666473,0.015685672,0.015738927,-3.9967056E-4,-4.0564072E-4,1168.421,0.0,0.0,0.0,0.0,0.0,0.0,0.0,0.0,0.0,0.0,0.0,0.0,0.0,-46.587433,0.024837065,73.78953,0.017491724,-0.0012780834,-0.012577016,549957.06,119984.91,0.0071571823,0.009507832,8163.7354,8110.6562,6884.111,7062.46,0.30340767,0.0,0.0,0.0
246.25758,246.25758,2.933,0.0,0.0,314.4562,11294.0,100.0,0.0,-0.08062285,0.0,8.0,1.0,0.0,4000000.0,110.0,1.0,0.0,0.0,10.0,0.0,0.0,174.30582,-76.60859,22.07784,0.010374561,0.16499846,-0.026372468,319.4396,319.4693,314.3251,314.33508,165.0,164.0,219.0,219.0,97.0,97.0,97.0,97.0,0.0,0.0,0.0,0.0,0.04653291,0.046168074,0.053593,0.053964313,0.0,0.0,0.0,0.0,-775.3729,-829.0975,-886.2688,-984.5315,0.0,0.0,0.0,2.0,1.0,-0.5628116,0.024701465,0.0012818575,97.0,97.0,97.0,97.0,21.302864,21.302864,24.666473,24.666473,0.015881365,0.015933933,-3.9345172E-4,-4.0363762E-4,1169.7965,0.0,0.0,0.0,0.0,0.0,0.0,0.0,0.0,0.0,0.0,0.0,0.0,0.0,-46.629,0.028443057,73.861855,0.01798386,0.0023168959,-0.015194679,549970.7,119984.9,0.008593204,0.011645543,7993.1562,7929.1797,6774.205,6940.367,0.30483246,0.0,0.0,0.0
250.627,250.627,2.983,0.0,0.0,314.75186,11308.0,100.0,0.0,-0.09282028,0.0,8.0,1.0,0.0,4000000.0,110.0,1.0,0.0,0.0,10.0,0.0,0.0,171.9734,-76.60879,25.772882,0.021806035,0.17037274,-0.17983136,319.8519,319.88376,314.6126,314.6415,164.0,164.0,219.0,218.0,97.0,97.0,97.0,97.0,0.0,0.0,0.0,0.0,0.044747476,0.044342745,0.05316917,0.05351574,0.0,0.0,0.0,0.0,381.42355,531.62726,397.90564,621.9908,0.0,0.0,0.0,2.0,1.0,-0.5626043,0.023831677,0.002014637,97.0,97.0,97.0,97.0,21.302864,21.302864,24.666473,24.666473,0.016295757,0.016314002,-3.9586402E-4,-4.0173877E-4,1171.2794,0.0,0.0,0.0,0.0,0.0,0.0,0.0,0.0,0.0,0.0,0.0,0.0,0.0,-46.66422,-0.043306112,73.93674,0.022696782,0.0055621197,-0.0022291215,549986.1,119984.91,0.009067492,0.013335675,7676.6953,7641.081,6533.8843,6700.879,0.30579948,0.0,0.0,0.0
255.00056,255.00056,3.033,0.0,0.0,315.05267,11316.0,100.0,0.0,-0.00940985,0.0,8.0,1.0,0.0,4000000.0,110.0,1.0,0.0,0.0,10.0,0.0,0.0,169.6393,-76.61221,29.471767,0.02005975,0.16955951,-0.072691575,320.06238,320.08316,314.91547,314.93427,163.0,163.0,218.0,217.0,97.0,97.0,97.0,97.0,0.0,0.0,0.0,0.0,0.04439751,0.044090685,0.053460807,0.053819206,0.0,0.0,0.0,0.0,560.3402,205.30966,-184.40184,-421.1202,0.0,0.0,0.0,2.0,1.0,-0.5623732,0.02298711,0.002537489,97.0,97.0,97.0,97.0,21.302864,21.302864,24.666473,24.666473,0.01598289,0.01601278,-4.057341E-4,-4.0002985E-4,1172.1248,0.0,0.0,0.0,0.0,0.0,0.0,0.0,0.0,0.0,0.0,0.0,0.0,0.0,-46.69866,-0.08569434,74.01377,0.013081993,0.0029929946,-0.013460248,549993.94,119984.91,0.0075792954,0.012507935,7903.8086,7867.289,6822.4395,6976.1934,0.30471134,0.0,0.0,0.0
259.3783,259.3783,3.083,0.0,0.0,315.35208,11321.0,100.0,0.0,0.020921206,0.0,8.0,1.0,0.0,4000000.0,110.0,1.0,0.0,0.0,10.0,0.0,0.0,167.3034,-76.616745,33.174454,0.01545722,0.16982631,0.11373351,320.2279,320.22797,315.2227,315.22226,163.0,162.0,217.0,216.0,97.0,97.0,97.0,97.0,0.0,0.0,0.0,0.0,0.045720614,0.04557863,0.053830765,0.05417675,0.0,0.0,0.0,0.0,2358.7344,2622.422,768.33215,1046.9465,0.0,0.0,0.0,2.0,1.0,-0.56232136,0.022105217,0.0024871826,97.0,97.0,97.0,97.0,21.302864,21.302864,24.666473,24.666473,0.015499511,0.015502569,-4.0686698E-4,-4.030078E-4,1172.6554,0.0,0.0,0.0,0.0,0.0,0.0,0.0,0.0,0.0,0.0,0.0,0.0,0.0,-46.735508,-0.07902827,74.088875,0.005963526,-4.1084152E-4,-0.0212665,549999.94,119984.9,0.0068958662,0.010854001,8357.625,8375.429,7211.298,7386.6953,0.30371952,0.0,0.0,0.0
263.76007,263.76007,3.133,0.0,0.0,315.63748,11336.0,100.0,0.0,-0.027729504,0.0,8.0,1.0,0.0,4000000.0,110.0,1.0,0.0,0.0,10.0,0.0,0.0,164.96565,-76.62072,36.88074,0.010842122,0.16252556,-0.13230029,320.67212,320.66147,315.51648,315.51105,162.0,162.0,216.0,216.0,97.0,97.0,97.0,97.0,0.0,0.0,0.0,0.0,0.045682114,0.045502126,0.053448237,0.053522006,0.0,0.0,0.0,0.0,-893.91315,-685.7469,23.335245,236.7854,0.0,0.0,0.0,2.0,1.0,-0.5623637,0.021384789,0.0028204918,97.0,97.0,97.0,97.0,21.302864,21.302864,24.666473,24.666473,0.015946632,0.01594503,-3.94806E-4,-3.9790606E-4,1174.2441,0.0,0.0,0.0,0.0,0.0,0.0,0.0,0.0,0.0,0.0,0.0,0.0,0.0,-46.772762,-0.10196484,74.15907,0.022001568,-3.7875978E-4,0.009418538,550016.3,119984.9,0.008895029,0.012048821,7883.57,7885.0244,6589.07,6613.9116,0.30547714,0.0,0.0,0.0
268.14578,268.14578,3.183,0.0,0.0,315.92444,11349.0,100.0,0.0,-0.011085488,0.0,8.0,1.0,0.0,4000000.0,110.0,1.0,0.0,0.0,10.0,0.0,0.0,162.62605,-76.62845,40.59054,0.005279772,0.16566266,-0.15786156,321.02936,321.0084,315.799,315.80026,161.0,161.0,216.0,215.0,97.0,97.0,97.0,97.0,0.0,0.0,0.0,0.0,0.043857895,0.043934263,0.053312562,0.0534273,0.0,0.0,0.0,0.0,1128.4456,1218.4736,357.76642,354.58798,0.0,0.0,0.0,2.0,1.0,-0.56233734,0.021450466,0.0040153265,97.0,97.0,97.0,97.0,21.302864,21.302864,24.666473,24.666473,0.016222924,0.016158048,-3.9909067E-4,-3.9837294E-4,1175.619,0.0,0.0,0.0,0.0,0.0,0.0,0.0,0.0,0.0,0.0,0.0,0.0,0.0,-46.81017,-0.19575271,74.22954,0.017025832,5.41386E-4,0.011446229,550029.56,119984.91,0.009430326,0.013747347,7682.882,7748.0156,6698.2646,6753.1987,0.30673504,0.0,0.0,0.0
272.53546,272.53546,3.233,0.0,0.0,316.2062,11357.0,100.0,0.0,-0.041481275,0.0,8.0,1.0,0.0,4000000.0,110.0,1.0,0.0,0.0,10.0,0.0,0.0,160.28455,-76.63975,44.30382,0.0073312297,0.15880206,-0.09314097,321.26312,321.24338,316.07825,316.08215,161.0,161.0,215.0,214.0,97.0,97.0,97.0,97.0,0.0,0.0,0.0,0.0,0.043665517,0.04393172,0.05356133,0.053576168,0.0,0.0,0.0,0.0,470.5399,658.0531,-140.65501,-24.770206,0.0,0.0,0.0,2.0,1.0,-0.5623064,0.021608932,0.004676461,97.0,97.0,97.0,97.0,21.302864,21.302864,24.666473,24.666473,0.01604391,0.015973438,-3.9629618E-4,-3.9846468E-4,1176.4667,0.0,0.0,0.0,0.0,0.0,0.0,0.0,0.0,0.0,0.0,0.0,0.0,0.0,-46.848343,-0.24998578,74.29783,0.0034656092,8.277094E-4,0.01039123,550038.4,119984.9,0.009787072,0.014313732,7801.1777,7870.247,6843.406,6846.3525,0.30727768,0.0,0.0,0.0
276.92896,276.92896,3.283,0.0,0.0,316.48154,11367.0,100.0,0.0,-0.024635721,0.0,8.0,1.0,0.0,4000000.0,110.0,1.0,0.0,0.0,10.0,0.0,0.0,157.94116,-76.65343,48.020477,0.006221853,0.156421,-0.090321414,321.53296,321.50314,316.35336,316.35687,160.0,160.0,214.0,213.0,97.0,97.0,97.0,97.0,0.0,0.0,0.0,0.0,0.043778446,0.04426684,0.053630892,0.05357412,0.0,0.0,0.0,0.0,51.350883,339.98334,58.445324,496.06107,0.0,0.0,0.0,2.0,1.0,-0.5622633,0.022343561,0.004996538,97.0,97.0,97.0,97.0,21.302864,21.302864,24.666473,24.666473,0.016016344,0.01591505,-3.9756272E-4,-3.968952E-4,1177.5239,0.0,0.0,0.0,0.0,0.0,0.0,0.0,0.0,0.0,0.0,0.0,0.0,0.0,-46.885536,-0.29529515,74.364624,-0.005477794,5.340548E-4,0.019625872,550048.4,119984.9,0.009682512,0.014296189,7803.7163,7912.0273,6859.892,6845.25,0.30726814,0.0,0.0,0.0
281.3263,281.3263,3.333,0.0,0.0,316.75522,11374.0,100.0,0.0,0.07262997,0.0,8.0,1.0,0.0,4000000.0,110.0,1.0,0.0,0.0,10.0,0.0,0.0,155.59583,-76.66871,51.74041,-0.0111300945,0.15509677,-0.018460562,321.73642,321.7077,316.63406,316.6194,159.0,159.0,213.0,213.0,97.0,97.0,97.0,97.0,0.0,0.0,0.0,0.0,0.044542547,0.045064636,0.053824976,0.053840995,0.0,0.0,0.0,0.0,499.44067,49.63428,93.56885,-211.85425,0.0,0.0,0.0,2.0,1.0,-0.56230825,0.022996444,0.004949808,97.0,97.0,97.0,97.0,21.302864,21.302864,24.666473,24.666473,0.015759792,0.01571983,-4.0466056E-4,-3.9474733E-4,1178.2656,0.0,0.0,0.0,0.0,0.0,0.0,0.0,0.0,0.0,0.0,0.0,0.0,0.0,-46.927197,-0.3117327,74.42817,-0.008306954,-0.0031740472,0.003314621,550056.1,119984.9,0.008792338,0.0131235495,8001.2495,8068.1064,7020.5127,7016.249,0.3063059,0.0,0.0,0.0
285.72745,285.72745,3.383,0.0,0.0,317.02713,11382.0,100.0,0.0,0.15676859,0.0,8.0,1.0,0.0,4000000.0,110.0,1.0,0.0,0.0,10.0,0.0,0.0,153.24815,-76.68412,55.463345,-0.038807362,0.15404627,0.020786952,321.96124,321.92438,316.9235,316.8735,159.0,159.0,213.0,212.0,97.0,97.0,97.0,97.0,0.0,0.0,0.0,0.0,0.045751806,0.045997344,0.053999748,0.05386292,0.0,0.0,0.0,0.0,18.051222,-139.78334,-42.942158,-79.19221,0.0,0.0,0.0,2.0,1.0,-0.5626261,0.023301166,0.0046288967,97.0,97.0,97.0,97.0,21.302864,21.302864,24.666473,24.666473,0.015533144,0.015573293,-4.056736E-4,-3.946016E-4,1178.9233,0.0,0.0,0.0,0.0,0.0,0.0,0.0,0.0,0.0,0.0,0.0,0.0,0.0,-46.979385,-0.30410093,74.48458,-0.007167755,-0.009211505,0.0022806316,549976.3,119984.91,0.008212366,0.011634697,8173.792,8187.6895,7088.119,7017.4316,0.30538082,0.0,0.0,0.0
290.13232,290.13232,3.433,0.0,0.0,317.2956,11391.0,100.0,0.0,0.22606894,0.0,8.0,1.0,0.0,4000000.0,110.0,1.0,0.0,0.0,10.0,0.0,0.0,150.8975,-76.69903,59.18884,-0.07540456,0.15148763,0.022603523,322.23248,322.1887,317.20944,317.1261,158.0,158.0,212.0,211.0,97.0,97.0,97.0,97.0,0.0,0.0,0.0,0.0,0.0463385,0.046333555,0.054092176,0.053803228,0.0,0.0,0.0,0.0,-42.486187,-91.677895,186.92314,38.47628,0.0,0.0,0.0,2.0,1.0,-0.56323755,0.023524052,0.004549861,97.0,97.0,97.0,97.0,21.302864,21.302864,24.666473,24.666473,0.015472002,0.015582708,-4.0412124E-4,-3.940229E-4,1179.4543,0.0,0.0,0.0,0.0,0.0,0.0,0.0,0.0,0.0,0.0,0.0,0.0,0.0,-47.04557,-0.2938467,74.53104,-0.0015497849,-0.014679476,0.003858058,549789.3,119984.9,0.008102879,0.011201779,8205.543,8169.12,7145.189,6997.3525,0.30518532,0.0,0.0,0.0
294.54092,294.54092,3.483,0.0,0.0,317.55902,11401.0,100.0,0.0,0.17301834,0.0,8.0,1.0,0.0,4000000.0,110.0,1.0,0.0,0.0,10.0,0.0,0.0,148.54323,-76.71368,62.916424,-0.09561405,0.14900577,-0.0083758,322.5139,322.4768,317.47534,317.38837,157.0,157.0,211.0,210.0,97.0,97.0,97.0,97.0,0.0,0.0,0.0,0.0,0.046267774,0.04614249,0.054116424,0.05368395,0.0,0.0,0.0,0.0,75.879684,11.238469,104.59273,98.78575,0.0,0.0,0.0,2.0,1.0,-0.56399894,0.023854502,0.004653573,97.0,97.0,97.0,97.0,21.302864,21.302864,24.666473,24.666473,0.015514941,0.015649268,-3.9702168E-4,-3.979688E-4,1180.0635,0.0,0.0,0.0,0.0,0.0,0.0,0.0,0.0,0.0,0.0,0.0,0.0,0.0,-47.122116,-0.29547477,74.56924,-0.0023828817,-0.014699324,0.010332607,549590.75,119984.91,0.008340722,0.011505385,8159.5596,8084.2803,7124.107,6919.177,0.3054371,0.0,0.0,0.0
298.95325,298.95325,3.533,0.0,0.0,317.8211,11411.0,100.0,0.0,0.09127845,0.0,8.0,1.0,0.0,4000000.0,110.0,1.0,0.0,0.0,10.0,0.0,0.0,146.18507,-76.72926,66.64587,-0.09300136,0.1491218,-0.040227443,322.7931,322.7726,317.72247,317.6659,157.0,157.0,210.0,210.0,97.0,97.0,97.0,97.0,0.0,0.0,0.0,0.0,0.04579416,0.04567059,0.054029312,0.053643353,0.0,0.0,0.0,0.0,356.14368,283.42896,248.46642,250.97427,0.0,0.0,0.0,2.0,1.0,-0.56458414,0.024302734,0.005023718,97.0,97.0,97.0,97.0,21.302864,21.302864,24.666473,24.666473,0.015607621,0.015702521,-3.9504236E-4,-4.004527E-4,1180.6678,0.0,0.0,0.0,0.0,0.0,0.0,0.0,0.0,0.0,0.0,0.0,0.0,0.0,-47.199543,-0.32372227,74.6063,5.1502325E-4,-0.009193183,0.011344969,549390.4,119984.9,0.0077181193,0.011650468,8079.8086,8013.6914,7112.002,6937.382,0.30517006,0.0,0.0,0.0
303.36917,303.36917,3.583,0.0,0.0,318.08362,11419.0,100.0,0.0,0.08672623,0.0,8.0,1.0,0.0,4000000.0,110.0,1.0,0.0,0.0,10.0,0.0,0.0,143.82315,-76.74587,70.37721,-0.081167,0.14906517,-0.010447416,323.0173,323.00327,317.97214,317.93735,156.0,156.0,210.0,209.0,97.0,97.0,97.0,97.0,0.0,0.0,0.0,0.0,0.045876276,0.04579915,0.05415817,0.053826474,0.0,0.0,0.0,0.0,274.65817,410.88757,-38.93227,12.244276,0.0,0.0,0.0,2.0,1.0,-0.5649365,0.024763547,0.00508368,97.0,97.0,97.0,97.0,21.302864,21.302864,24.666473,24.666473,0.015510476,0.015561284,-4.0013564E-4,-3.990894E-4,1181.1526,0.0,0.0,0.0,0.0,0.0,0.0,0.0,0.0,0.0,0.0,0.0,0.0,0.0,-47.273457,-0.33684304,74.64575,-0.008209763,-0.0060183317,0.005877332,549230.9,119984.89,0.006304851,0.010584193,8151.164,8118.7637,7200.683,7054.5186,0.30400562,0.0,0.0,0.0
