LapDistance [m],TotalDistance [m],LapTime [s],Sector1Time [s],Sector2Time [s],Speed [km/h],EngineRevs [rpm],ThrottlePercentage [%],BrakePercentage [%],Steer [%],Clutch [%],Gear [int],DRS [0/1],CanUseDRS [0/1],KERSLevel [J],EngineTemperature [C],RacePosition [int],Sector [int],InPits [int],FuelRemaining [kg],CurrentFlag [int],CurrentLapInvalid [int],X [m],Y [m],Z [m],GForceLatitudinal [G],GForceLongitudinal [G],GForceVertical [G],WheelSpeedRearLeft [km/h],WheelSpeedRearRight [km/h],WheelSpeedFrontLeft [km/h],WheelSpeedFrontRight [km/h],BrakeTemperatureRearLeft [C],BrakeTemperatureRearRight [C],BrakeTemperatureFrontLeft [C],BrakeTemperatureFrontRight [C],TyreTemperatureRearLeft [C],TyreTemperatureRearRight [C],TyreTemperatureFrontLeft [C],TyreTemperatureFrontRight [C],TyreWearRearLeft [%],TyreWearRearRight [%],TyreWearFrontLeft [%],TyreWearFrontRight [%],SuspensionPositionRearLeft [m],SuspensionPositionRearRight [m],SuspensionPositionFrontLeft [m],SuspensionPositionFrontRight [m],SuspensionVelocityRearLeft [m/s],SuspensionVelocityRearRight [m/s],SuspensionVelocityFrontLeft [m/s],SuspensionVelocityFrontRight [m/s],SuspensionAccelerationRearLeft [m/s^2],SuspensionAccelerationRearRight [m/s^2],SuspensionAccelerationFrontLeft [m/s^2],SuspensionAccelerationFrontRight [m/s^2],MGUKHarvested [J],MGUHHarvested [J],ERSSpent [J],ERSMode [int],FuelMixMode [int],Yaw [rad],Roll [rad],Pitch [rad],TyreCarcassTemperatureRearLeft [C],TyreCarcassTemperatureRearRight [C],TyreCarcassTemperatureFrontLeft [C],TyreCarcassTemperatureFrontRight [C],TyrePressureRearLeft [PSI],TyrePressureRearRight [PSI],TyrePressureFrontLeft [PSI],TyrePressureFrontRight [PSI],WheelSlipRearLeft [%],WheelSlipRearRight [%],WheelSlipFrontLeft [%],WheelSlipFrontRight [%],Torque [Nm],Handbrake [%],RearLeftInside [C],RearLeftMiddle [C],RearLeftOutside [C],RearRightInside [C],RearRightMiddle [C],RearRightOutside [C],FrontLeftInside [C],FrontLeftMiddle [C],FrontLeftOutside [C],FrontRightInside [C],FrontRightMiddle [C],FrontRightOutside [C],WoldSpeedX [km/h],WoldSpeedY [km/h],WoldSpeedZ [km/h],LocalAngularVelocityX [rad/s],LocalAngularVelocityY [rad/s],LocalAngularVelocityZ [rad/s],IcePower [W],MgukPower [W],FrontRideHeight [m],RearRideHeight [m],LoadRearLeft [N],LoadRearRight [N],LoadFrontLeft [N],LoadFrontRight [N],Extra1 [m],Extra2 [],Extra3 [],Extra4 []
1.265625,17513.703,0.033,0.0,0.0,263.14462,10828.0,100.0,0.0,0.024888566,0.0,7.0,1.0,0.0,4000000.0,110.0,1.0,0.0,0.0,10.0,0.0,0.0,-144.83601,38.395775,455.02945,0.001762554,0.49719054,0.05634574,269.05295,269.04196,263.004,262.9905,381.0,381.0,437.0,436.0,89.0,89.0,89.0,89.0,0.0,0.0,0.0,0.0,0.034451988,0.034361914,0.051477835,0.051740088,0.0,0.0,0.0,0.0,-262.52115,-180.27127,43.331085,147.10574,0.0,0.0,0.0,2.0,1.0,-2.2614596,0.0363385,0.0047466755,89.0,89.0,89.0,89.0,21.02244,21.02244,23.278507,23.278507,0.022468608,0.022479083,-5.472052E-4,-5.472911E-4,1114.8059,0.0,0.0,0.0,0.0,0.0,0.0,0.0,0.0,0.0,0.0,0.0,0.0,0.0,-56.314194,-0.064443335,-46.601433,0.01407977,-0.0027192761,-0.002139782,546673.5,119984.89,0.017964598,0.02850447,6625.0522,6628.67,5514.574,5638.412,0.3191967,0.0,0.0,0.0
4.9472656,17517.385,0.083,0.0,0.0,264.01932,10862.0,100.0,0.0,0.07504255,0.0,7.0,1.0,0.0,4000000.0,110.0,1.0,0.0,0.0,10.0,0.0,0.0,-147.65657,38.39335,452.69522,-0.011529937,0.49667013,0.0914152,269.87766,269.87024,263.8816,263.85953,379.0,379.0,436.0,435.0,89.0,89.0,89.0,89.0,0.0,0.0,0.0,0.0,0.034933414,0.034645155,0.05167427,0.05195059,0.0,0.0,0.0,0.0,554.5332,1123.9796,-205.44379,430.23965,0.0,0.0,0.0,2.0,1.0,-2.2616415,0.035907432,0.0039794445,89.0,89.0,89.0,89.0,21.02244,21.02244,23.278507,23.278507,0.02222659,0.022276377,-5.4860295E-4,-5.456016E-4,1119.4949,0.0,0.0,0.0,0.0,0.0,0.0,0.0,0.0,0.0,0.0,0.0,0.0,0.0,-56.498066,-0.031029176,-46.760372,0.019791286,-0.0046817316,-0.011342928,547254.5,119984.89,0.016431736,0.026999258,6747.619,6730.341,5666.867,5817.1636,0.31811237,0.0,0.0,0.0
8.642578,17521.08,0.133,0.0,0.0,264.8921,10896.0,100.0,0.0,0.14904848,0.0,7.0,1.0,0.0,4000000.0,110.0,1.0,0.0,0.0,10.0,0.0,0.0,-150.4862,38.392563,450.3529,-0.030836225,0.49728417,0.06784927,270.73285,270.73978,264.76416,264.7246,378.0,378.0,434.0,433.0,89.0,89.0,89.0,89.0,0.0,0.0,0.0,0.0,0.03537852,0.034960683,0.051644765,0.05193459,0.0,0.0,0.0,0.0,622.3663,510.45108,1199.0547,1524.849,0.0,0.0,0.0,2.0,1.0,-2.2619328,0.035088688,0.0032804012,89.0,89.0,89.0,89.0,21.02244,21.02244,23.278507,23.278507,0.022042306,0.022212723,-5.52148E-4,-5.44998E-4,1124.242,0.0,0.0,0.0,0.0,0.0,0.0,0.0,0.0,0.0,0.0,0.0,0.0,0.0,-56.67671,-0.005722199,-46.924774,0.022930678,-0.007359666,0.006358501,547860.1,119984.89,0.013441059,0.024329469,6807.1885,6724.5166,5696.74,5841.226,0.31512833,0.0,0.0,0.0
12.349609,17524.787,0.183,0.0,0.0,265.7672,10928.0,100.0,0.0,0.17749968,0.0,7.0,1.0,0.0,4000000.0,110.0,1.0,0.0,0.0,10.0,0.0,0.0,-153.32465,38.39353,448.00217,-0.045031905,0.49427652,0.05593189,271.51996,271.52496,265.64633,265.59525,376.0,376.0,433.0,432.0,89.0,89.0,89.0,89.0,0.0,0.0,0.0,0.0,0.036591046,0.03582924,0.051589955,0.051803656,0.0,0.0,0.0,0.0,-437.54868,201.43385,-589.30804,-393.41296,0.0,0.0,0.0,2.0,1.0,-2.262344,0.0339406,0.0028910637,89.0,89.0,89.0,89.0,21.02244,21.02244,23.278507,23.278507,0.021567537,0.02177476,-5.5527274E-4,-5.47557E-4,1128.6814,0.0,0.0,0.0,0.0,0.0,0.0,0.0,0.0,0.0,0.0,0.0,0.0,0.0,-56.850903,0.035563678,-47.095535,0.008490844,-0.008539971,0.025100786,548412.94,119984.9,0.013475167,0.021672964,7023.783,6917.1113,5419.748,5521.9937,0.31152153,0.0,0.0,0.0
16.06836,17528.506,0.233,0.0,0.0,266.61603,10974.0,100.0,0.0,0.24437904,0.0,7.0,1.0,0.0,4000000.0,110.0,1.0,0.0,0.0,10.0,0.0,0.0,-156.17155,38.394894,445.64285,-0.06506567,0.47827166,-0.0736943,272.64944,272.6717,266.51135,266.43884,375.0,375.0,431.0,430.0,89.0,89.0,89.0,89.0,0.0,0.0,0.0,0.0,0.035389323,0.034603894,0.051344544,0.05157658,0.0,0.0,0.0,0.0,-315.696,237.71094,310.3986,805.23926,0.0,0.0,0.0,2.0,1.0,-2.2628279,0.032603282,0.004866004,89.0,89.0,89.0,89.0,21.02244,21.02244,23.278507,23.278507,0.022460219,0.022761537,-5.397643E-4,-5.303362E-4,1135.0762,0.0,0.0,0.0,0.0,0.0,0.0,0.0,0.0,0.0,0.0,0.0,0.0,0.0,-57.01443,0.009175381,-47.267742,-0.002084829,-0.011173925,0.05680024,549208.25,119984.91,0.015870985,0.025749315,6509.829,6395.0557,5433.005,5570.177,0.31379223,0.0,0.0,0.0
19.800781,17532.238,0.283,0.0,0.0,267.44223,11019.0,100.0,0.0,0.24509044,0.0,7.0,1.0,0.0,4000000.0,110.0,1.0,0.0,0.0,10.0,0.0,0.0,-159.02637,38.392235,443.27496,-0.081303805,0.47248787,-0.30347833,273.75745,273.81473,267.33975,267.25558,373.0,373.0,430.0,429.0,89.0,89.0,89.0,89.0,0.0,0.0,0.0,0.0,0.032731812,0.03172278,0.051097192,0.050970152,0.0,0.0,0.0,0.0,526.7186,745.2651,218.34518,250.07576,0.0,0.0,0.0,2.0,1.0,-2.2634442,0.031170828,0.0068109035,89.0,89.0,89.0,89.0,21.02244,21.02244,23.278507,23.278507,0.02349886,0.024035985,-5.4040883E-4,-5.3698895E-4,1140.7048,0.0,0.0,0.0,0.0,0.0,0.0,0.0,0.0,0.0,0.0,0.0,0.0,0.0,-57.169956,-0.12115812,-47.43957,-0.0074087074,-0.013423175,0.03639271,549677.7,119984.9,0.018634066,0.030544871,6037.843,5837.302,5138.617,5060.7534,0.31958675,0.0,0.0,0.0
23.542969,17535.98,0.333,0.0,0.0,268.27347,11041.0,100.0,0.0,0.20610115,0.0,7.0,1.0,0.0,4000000.0,110.0,1.0,0.0,0.0,10.0,0.0,0.0,-161.88893,38.384552,440.89825,-0.08732681,0.465411,-0.10544899,274.33875,274.3497,268.1663,268.08536,372.0,371.0,428.0,427.0,89.0,89.0,89.0,89.0,0.0,0.0,0.0,0.0,0.032780472,0.031968303,0.051518902,0.05137771,0.0,0.0,0.0,0.0,801.0684,737.8488,-130.28828,-428.57672,0.0,0.0,0.0,2.0,1.0,-2.264155,0.030612785,0.0069913864,89.0,89.0,89.0,89.0,21.02244,21.02244,23.278507,23.278507,0.022551741,0.02289437,-5.346753E-4,-5.34994E-4,1143.0325,0.0,0.0,0.0,0.0,0.0,0.0,0.0,0.0,0.0,0.0,0.0,0.0,0.0,-57.322075,-0.18021482,-47.61763,0.011784958,-0.014057874,-0.0015630159,549701.8,119984.9,0.020268247,0.031556435,6448.406,6294.1045,5484.0327,5407.7437,0.3213377,0.0,0.0,0.0
27.296875,17539.734,0.383,0.0,0.0,269.0836,11067.0,100.0,0.0,0.17548262,0.0,7.0,1.0,0.0,4000000.0,110.0,1.0,0.0,0.0,10.0,0.0,0.0,-164.7589,38.3749,438.51266,-0.090622604,0.45516312,0.048287574,274.99155,274.98508,268.97513,268.89767,370.0,370.0,427.0,426.0,89.0,89.0,89.0,89.0,0.0,0.0,0.0,0.0,0.034175005,0.033676144,0.051912036,0.051623847,0.0,0.0,0.0,0.0,497.30823,50.358578,344.78452,335.89297,0.0,0.0,0.0,2.0,1.0,-2.2648618,0.030280441,0.0063523054,89.0,89.0,89.0,89.0,21.02244,21.02244,23.278507,23.278507,0.021906411,0.02216359,-5.292119E-4,-5.3115183E-4,1145.782,0.0,0.0,0.0,0.0,0.0,0.0,0.0,0.0,0.0,0.0,0.0,0.0,0.0,-57.466763,-0.1903575,-47.795567,0.015214627,-0.013793491,-0.014062749,549729.56,119984.89,0.020014664,0.030525295,6746.5176,6615.9727,5852.5166,5712.507,0.32163715,0.0,0.0,0.0
31.0625,17543.5,0.433,0.0,0.0,269.8834,11097.0,100.0,0.0,0.16428047,0.0,7.0,1.0,0.0,4000000.0,110.0,1.0,0.0,0.0,10.0,0.0,0.0,-167.63597,38.36537,436.1183,-0.089825004,0.4644755,0.041764013,275.73706,275.71143,269.77045,269.7011,369.0,368.0,425.0,424.0,89.0,89.0,89.0,89.0,0.0,0.0,0.0,0.0,0.034801632,0.034506515,0.051989168,0.05164994,0.0,0.0,0.0,0.0,2559.149,2884.9167,2201.651,2589.7932,0.0,0.0,0.0,2.0,1.0,-2.2655098,0.030530559,0.00532341,89.0,89.0,89.0,89.0,21.02244,21.02244,23.278507,23.278507,0.021711515,0.021856224,-5.3506193E-4,-5.361998E-4,1148.954,0.0,0.0,0.0,0.0,0.0,0.0,0.0,0.0,0.0,0.0,0.0,0.0,0.0,-57.609356,-0.19466336,-47.97152,0.0063361176,-0.012508382,-0.022887176,549761.2,119984.9,0.01713673,0.027396044,6864.788,6797.5664,5931.1343,5787.8174,0.31913185,0.0,0.0,0.0
34.839844,17547.277,0.483,0.0,0.0,270.6847,11117.0,100.0,0.0,0.11573088,0.0,7.0,1.0,0.0,4000000.0,110.0,1.0,0.0,0.0,10.0,0.0,0.0,-170.52025,38.358837,433.71506,-0.080434695,0.44789755,0.32804543,276.2165,276.2076,270.5577,270.51367,367.0,367.0,424.0,423.0,89.0,89.0,89.0,89.0,0.0,0.0,0.0,0.0,0.038339343,0.038451653,0.05272811,0.052579276,0.0,0.0,0.0,0.0,-1316.5621,-2059.2388,-355.31216,-309.40622,0.0,0.0,0.0,2.0,1.0,-2.2660232,0.03099242,0.0035283566,89.0,89.0,89.0,89.0,21.02244,21.02244,23.278507,23.278507,0.02041451,0.0205626,-5.300888E-4,-5.3130364E-4,1151.0691,0.0,0.0,0.0,0.0,0.0,0.0,0.0,0.0,0.0,0.0,0.0,0.0,0.0,-57.752712,-0.05993613,-48.14754,0.019228866,-0.008633372,-0.030798621,549782.4,119984.914,0.013600338,0.022434754,7482.2847,7389.9995,6359.523,6301.1123,0.3143444,0.0,0.0,0.0
38.626953,17551.064,0.533,0.0,0.0,271.46487,11152.0,100.0,0.0,0.1498918,0.0,7.0,1.0,0.0,4000000.0,110.0,1.0,0.0,0.0,10.0,0.0,0.0,-173.4116,38.359245,431.3032,-0.07530819,0.44058698,0.19533212,277.08035,277.06982,271.34277,271.29556,366.0,365.0,422.0,421.0,89.0,89.0,89.0,89.0,0.0,0.0,0.0,0.0,0.039148726,0.039055794,0.052602887,0.052383628,0.0,0.0,0.0,0.0,-773.45514,-749.0738,248.73463,163.73541,0.0,0.0,0.0,2.0,1.0,-2.266428,0.031077346,0.0023940802,89.0,89.0,89.0,89.0,21.02244,21.02244,23.278507,23.278507,0.020606615,0.02073187,-5.2980287E-4,-5.2472635E-4,1154.7706,0.0,0.0,0.0,0.0,0.0,0.0,0.0,0.0,0.0,0.0,0.0,0.0,0.0,-57.893574,0.056845453,-48.316998,0.0052226423,-0.008576323,-0.008506049,549819.3,119984.914,0.012699321,0.020947605,7314.437,7258.474,6132.7793,6022.3335,0.31311607,0.0,0.0,0.0
42.42578,17554.863,0.583,0.0,0.0,272.23944,11184.0,100.0,0.0,0.30813926,0.0,7.0,1.0,0.0,4000000.0,110.0,1.0,0.0,0.0,10.0,0.0,0.0,-176.3099,38.363853,428.88284,-0.095769,0.44481057,0.21988155,277.884,277.855,272.1363,272.04977,364.0,364.0,421.0,420.0,89.0,89.0,89.0,89.0,0.0,0.0,0.0,0.0,0.038458288,0.038282417,0.052712124,0.052415557,0.0,0.0,0.0,0.0,2139.9734,1989.7965,1100.8589,1136.7603,0.0,0.0,0.0,2.0,1.0,-2.2670276,0.031202221,0.0019658804,89.0,89.0,89.0,89.0,21.02244,21.02244,23.278507,23.278507,0.0206392,0.020834783,-5.32051E-4,-5.1703845E-4,1158.156,0.0,0.0,0.0,0.0,0.0,0.0,0.0,0.0,0.0,0.0,0.0,0.0,0.0,-58.02975,0.12950745,-48.489464,0.008132613,-0.015841866,-0.011698755,549853.4,119984.9,0.012585131,0.02141141,7338.16,7262.236,6406.939,6270.414,0.31269073,0.0,0.0,0.0
46.234375,17558.672,0.633,0.0,0.0,272.99463,11222.0,100.0,0.0,0.23693624,0.0,7.0,1.0,0.0,4000000.0,110.0,1.0,0.0,0.0,10.0,0.0,0.0,-179.21475,38.371433,426.45374,-0.105115175,0.4269665,-0.04760081,278.86475,278.80347,272.9076,272.79517,363.0,362.0,419.0,418.0,89.0,89.0,89.0,89.0,0.0,0.0,0.0,0.0,0.037471976,0.037222695,0.05219188,0.05177507,0.0,0.0,0.0,0.0,-847.25604,-564.0819,-144.66493,-100.71699,0.0,0.0,0.0,2.0,1.0,-2.2679472,0.031372037,0.0018445253,89.0,89.0,89.0,89.0,21.02244,21.02244,23.278507,23.278507,0.021302272,0.021464275,-5.186557E-4,-5.2238454E-4,1162.1781,0.0,0.0,0.0,0.0,0.0,0.0,0.0,0.0,0.0,0.0,0.0,0.0,0.0,-58.157177,0.14939389,-48.664043,-0.012490361,-0.018715408,0.005838743,549894.56,119984.9,0.014529448,0.023232987,6845.202,6778.741,5717.4746,5520.4766,0.31428242,0.0,0.0,0.0
50.052734,17562.49,0.683,0.0,0.0,273.74948,11258.0,100.0,0.0,0.12866928,0.0,7.0,1.0,0.0,4000000.0,110.0,1.0,0.0,0.0,10.0,0.0,0.0,-182.12599,38.376644,424.016,-0.10569437,0.42782784,-0.12564258,279.7371,279.71515,273.65207,273.56406,361.0,361.0,418.0,417.0,89.0,89.0,89.0,89.0,0.0,0.0,0.0,0.0,0.03533774,0.035117645,0.05187147,0.05147795,0.0,0.0,0.0,0.0,632.16974,576.5542,404.90622,545.0382,0.0,0.0,0.0,2.0,1.0,-2.268765,0.031597555,0.0031210184,89.0,89.0,89.0,89.0,21.02244,21.02244,23.278507,23.278507,0.021752875,0.021961426,-5.122248E-4,-5.2482926E-4,1165.9872,0.0,0.0,0.0,0.0,0.0,0.0,0.0,0.0,0.0,0.0,0.0,0.0,0.0,-58.285664,0.07021809,-48.837383,-0.021980453,-0.013686934,0.016897898,549932.7,119984.91,0.015006455,0.025043173,6594.986,6494.7266,5728.5947,5554.3066,0.3153677,0.0,0.0,0.0
53.88086,17566.318,0.733,0.0,0.0,274.49893,11286.0,100.0,0.0,-0.205334,0.0,7.0,1.0,0.0,4000000.0,110.0,1.0,0.0,0.0,10.0,0.0,0.0,-185.04385,38.378643,421.5698,-0.053725466,0.42331243,-0.08335219,280.42377,280.42697,274.35364,274.35617,360.0,359.0,416.0,415.0,89.0,89.0,89.0,89.0,0.0,0.0,0.0,0.0,0.03457686,0.03453661,0.051979285,0.051819675,0.0,0.0,0.0,0.0,472.632,722.26514,-194.99657,-11.815108,0.0,0.0,0.0,2.0,1.0,-2.2690706,0.032116823,0.0039395094,89.0,89.0,89.0,89.0,21.02244,21.02244,23.278507,23.278507,0.021665106,0.021634677,-5.018075E-4,-5.3491356E-4,1168.951,0.0,0.0,0.0,0.0,0.0,0.0,0.0,0.0,0.0,0.0,0.0,0.0,0.0,-58.423355,0.017730143,-48.997227,-0.013407042,0.0020377024,-0.0012478242,549962.75,119984.91,0.014828702,0.025660487,6640.6387,6635.2007,5808.9805,5757.7676,0.3155346,0.0,0.0,0.0
57.720703,17570.158,0.783,0.0,0.0,275.23724,11314.0,100.0,0.0,-0.35443717,0.0,7.0,1.0,0.0,4000000.0,110.0,1.0,0.0,0.0,10.0,0.0,0.0,-187.96906,38.378544,419.11627,0.012861118,0.41344437,-0.05253515,281.09225,281.14066,275.04468,275.14355,358.0,358.0,415.0,414.0,89.0,89.0,89.0,89.0,0.0,0.0,0.0,0.0,0.034943193,0.035146754,0.05184064,0.05207126,0.0,0.0,0.0,0.0,-698.3129,-664.0612,4.372,-158.57219,0.0,0.0,0.0,2.0,1.0,-2.2684977,0.03252532,0.004343033,89.0,89.0,89.0,89.0,21.02244,21.02244,23.278507,23.278507,0.021474427,0.021297501,-5.029273E-4,-5.2505813E-4,1171.9144,0.0,0.0,0.0,0.0,0.0,0.0,0.0,0.0,0.0,0.0,0.0,0.0,0.0,-58.578415,-0.0150498105,-49.1315,-0.009825079,0.018150631,0.004000276,549992.44,119984.9,0.015177305,0.025622236,6701.5054,6758.753,5734.7275,5855.3,0.3157816,0.0,0.0,0.0
61.56836,17574.006,0.816,0.0,0.0,275.96207,11344.0,100.0,0.0,-0.27512306,0.0,7.0,1.0,0.0,4000000.0,110.0,1.0,0.0,0.0,10.0,0.0,0.0,-190.90239,38.37659,416.65668,0.06260383,0.41095728,-0.071303755,281.8326,281.87286,275.75824,275.8785,357.0,356.0,413.0,413.0,89.0,89.0,89.0,89.0,0.0,0.0,0.0,0.0,0.03474083,0.03501575,0.05174878,0.052183438,1.381114,1.9966809,2.3438034,4.3243914,564.4708,584.42645,285.6552,177.91092,0.0,0.0,0.0,2.0,1.0,-2.267478,0.032540236,0.0047898293,89.0,89.0,89.0,89.0,21.02244,21.02244,23.278507,23.278507,0.02152104,0.021275314,-5.13311E-4,-5.136548E-4,1175.0892,0.0,0.0,0.0,0.0,0.0,0.0,0.0,0.0,0.0,0.0,0.0,0.0,0.0,-58.748184,-0.05838544,-49.24235,-0.0041139293,0.020754281,0.00425836,550024.0,119984.9,0.015453062,0.025916323,6661.806,6770.4116,5718.245,5921.174,0.3161602,0.0,0.0,0.0
65.427734,17577.865,0.883,0.0,0.0,276.67844,11370.0,100.0,0.0,-0.22030848,0.0,7.0,1.0,0.0,4000000.0,110.0,1.0,0.0,0.0,10.0,0.0,0.0,-193.84454,38.37295,414.192,0.09447768,0.4042198,-0.023183133,282.50394,282.51355,276.48105,276.58694,355.0,355.0,412.0,411.0,89.0,89.0,89.0,89.0,0.0,0.0,0.0,0.0,0.03509688,0.03560547,0.051830243,0.05239518,0.0,0.0,0.0,0.0,506.44116,291.2476,103.69419,-12.311324,0.0,0.0,0.0,2.0,1.0,-2.266511,0.032511137,0.0048589706,89.0,89.0,89.0,89.0,21.02244,21.02244,23.278507,23.278507,0.02127783,0.02097942,-5.143969E-4,-5.0892396E-4,1177.8429,0.0,0.0,0.0,0.0,0.0,0.0,0.0,0.0,0.0,0.0,0.0,0.0,0.0,-58.928394,-0.080675066,-49.337082,0.001688866,0.017754894,-9.426759E-4,550052.2,119984.9,0.015412271,0.025531985,6759.8667,6924.6323,5787.728,6047.3022,0.31594086,0.0,0.0,0.0
69.29492,17581.732,0.933,0.0,0.0,277.38248,11399.0,100.0,0.0,-0.050191894,0.0,7.0,1.0,0.0,4000000.0,110.0,1.0,0.0,0.0,10.0,0.0,0.0,-196.7957,38.36862,411.72272,0.08467974,0.39596283,-0.069215484,283.23038,283.20676,277.211,277.26773,354.0,353.0,410.0,410.0,89.0,89.0,89.0,89.0,0.0,0.0,0.0,0.0,0.03550532,0.036054645,0.0517709,0.05232789,0.0,0.0,0.0,0.0,-870.7522,-1022.25684,-360.31448,-461.8629,0.0,0.0,0.0,2.0,1.0,-2.2658377,0.032299202,0.004874587,89.0,89.0,89.0,89.0,21.02244,21.02244,23.278507,23.278507,0.021202188,0.020954952,-5.176468E-4,-5.015725E-4,1179.9628,0.0,0.0,0.0,0.0,0.0,0.0,0.0,0.0,0.0,0.0,0.0,0.0,0.0,-59.10698,-0.09697152,-49.428375,0.0011567678,0.009127082,0.008545864,549640.3,119984.9,0.0155059565,0.025185278,6714.993,6875.3145,5631.2188,5879.382,0.31589985,0.0,0.0,0.0
73.17383,17585.611,0.983,0.0,0.0,278.07877,11424.0,100.0,0.0,-0.122357994,0.0,7.0,1.0,0.0,4000000.0,110.0,1.0,0.0,0.0,10.0,0.0,0.0,-199.75568,38.363556,409.24884,0.07781525,0.39130592,0.030299898,283.8517,283.8487,277.91855,277.95117,352.0,352.0,409.0,408.0,89.0,89.0,89.0,89.0,0.0,0.0,0.0,0.0,0.035859946,0.036517423,0.052136034,0.052561503,0.0,0.0,0.0,0.0,522.0785,139.42125,-5.190067,-91.87906,0.0,0.0,0.0,2.0,1.0,-2.2655187,0.0320006,0.0048929453,89.0,89.0,89.0,89.0,21.02244,21.02244,23.278507,23.278507,0.020870918,0.020704972,-5.047862E-4,-5.080151E-4,1181.4679,0.0,0.0,0.0,0.0,0.0,0.0,0.0,0.0,0.0,0.0,0.0,0.0,0.0,-59.28102,-0.09746224,-49.52174,0.008193795,0.005413587,-0.0016159886,549137.06,119984.91,0.01457709,0.024575321,6900.5947,7024.2803,6008.933,6190.8765,0.31508446,0.0,0.0,0.0
77.06055,17589.498,1.033,0.0,0.0,278.76044,11449.0,100.0,0.0,-0.15690973,0.0,7.0,1.0,0.0,4000000.0,110.0,1.0,0.0,0.0,10.0,0.0,0.0,-202.72423,38.359875,406.7703,0.0727687,0.38173616,0.051241323,284.47647,284.4334,278.59415,278.63934,351.0,350.0,408.0,407.0,89.0,89.0,89.0,89.0,0.0,0.0,0.0,0.0,0.03701828,0.037615996,0.052199613,0.052689806,0.0,0.0,0.0,0.0,-802.2084,-715.3049,-154.20016,-185.21991,0.0,0.0,0.0,2.0,1.0,-2.265196,0.0320805,0.0043222904,89.0,89.0,89.0,89.0,21.02244,21.02244,23.278507,23.278507,0.020611312,0.020312604,-5.0263514E-4,-5.0612143E-4,1183.014,0.0,0.0,0.0,0.0,0.0,0.0,0.0,0.0,0.0,0.0,0.0,0.0,0.0,-59.449917,-0.058389407,-49.61496,0.0044537513,0.0075312406,-0.005825448,548655.0,119984.9,0.015242749,0.024073718,7019.7773,7178.2495,5927.427,6157.5645,0.3153305,0.0,0.0,0.0
80.95703,17593.395,1.083,0.0,0.0,279.42636,11476.0,100.0,0.0,-0.13671076,0.0,7.0,1.0,0.0,4000000.0,110.0,1.0,0.0,0.0,10.0,0.0,0.0,-205.70105,38.35754,404.28708,0.06651676,0.37589493,0.036532156,285.15152,285.11972,279.2577,279.30774,349.0,349.0,406.0,405.0,89.0,89.0,89.0,89.0,0.0,0.0,0.0,0.0,0.036966287,0.03753392,0.052248314,0.052681774,0.0,0.0,0.0,0.0,67.63189,59.65231,-43.34449,-48.547977,0.0,0.0,0.0,2.0,1.0,-2.2647877,0.031994846,0.003936887,89.0,89.0,89.0,89.0,21.02244,21.02244,23.278507,23.278507,0.020626273,0.020361781,-5.032982E-4,-5.015298E-4,1184.6342,0.0,0.0,0.0,0.0,0.0,0.0,0.0,0.0,0.0,0.0,0.0,0.0,0.0,-59.613316,-0.037087966,-49.707867,0.0075430064,0.008080684,-0.0061485483,548113.75,119984.9,0.015236283,0.024390725,6986.4463,7126.872,6006.0205,6198.2754,0.31547928,0.0,0.0,0.0
84.86328,17597.3,1.133,0.0,0.0,280.08646,11501.0,100.0,0.0,-0.13778287,0.0,7.0,1.0,0.0,4000000.0,110.0,1.0,0.0,0.0,10.0,0.0,0.0,-208.68597,38.356155,401.79926,0.06575899,0.37640312,0.030613035,285.78137,285.7467,279.91873,279.966,348.0,347.0,405.0,404.0,89.0,89.0,89.0,89.0,0.0,0.0,0.0,0.0,0.03696734,0.037524078,0.052276548,0.05266839,0.0,0.0,0.0,0.0,883.4659,855.638,441.89386,390.1407,0.0,0.0,0.0,2.0,1.0,-2.2644005,0.031974193,0.0033664703,89.0,89.0,89.0,89.0,21.02244,21.02244,23.278507,23.278507,0.020492056,0.020225342,-5.0391734E-4,-5.031346E-4,1186.1312,0.0,0.0,0.0,0.0,0.0,0.0,0.0,0.0,0.0,0.0,0.0,0.0,0.0,-59.774677,-0.022183502,-49.800667,0.007184775,0.0075571705,-0.00975302,547613.5,119984.89,0.014273806,0.023365304,7039.779,7183.043,6038.742,6213.0273,0.3144226,0.0,0.0,0.0
88.7793,17601.217,1.183,0.0,0.0,280.74152,11525.0,100.0,0.0,-0.13179992,0.0,7.0,1.0,0.0,4000000.0,110.0,1.0,0.0,0.0,10.0,0.0,0.0,-211.67899,38.35627,399.30682,0.06638329,0.36658704,0.08322302,286.3649,286.33508,280.572,280.62543,346.0,346.0,403.0,402.0,89.0,89.0,89.0,89.0,0.0,0.0,0.0,0.0,0.037879653,0.03852072,0.05240172,0.05283173,0.0,0.0,0.0,0.0,-962.29596,-1042.0918,-11.748074,-78.3339,0.0,0.0,0.0,2.0,1.0,-2.2639704,0.03211427,0.0028494596,89.0,89.0,89.0,89.0,21.02244,21.02244,23.278507,23.278507,0.020153394,0.019883126,-5.0112087E-4,-4.9759756E-4,1187.5931,0.0,0.0,0.0,0.0,0.0,0.0,0.0,0.0,0.0,0.0,0.0,0.0,0.0,-59.93561,0.023215374,-49.891766,0.0024044532,0.008710834,-0.00497662,547146.7,119984.9,0.013050195,0.021890089,7155.13,7309.87,6109.789,6305.3174,0.31303978,0.0,0.0,0.0
92.703125,17605.14,1.233,0.0,0.0,281.38522,11551.0,100.0,0.0,1.149901,0.0,7.0,1.0,0.0,4000000.0,110.0,1.0,0.0,0.0,10.0,0.0,0.0,-214.67986,38.358555,396.80978,-0.07084566,0.36235517,0.05480898,287.0192,286.99905,281.26382,281.2174,345.0,345.0,402.0,401.0,89.0,89.0,89.0,89.0,0.0,0.0,0.0,0.0,0.03795182,0.038511798,0.052542716,0.052871153,0.0,0.0,0.0,0.0,-360.4486,-217.56737,-138.26785,-35.673378,0.0,0.0,0.0,2.0,1.0,-2.2636964,0.03197349,0.002498746,89.0,89.0,89.0,89.0,21.02244,21.02244,23.278507,23.278507,0.019979307,0.0200926,-5.838424E-4,-4.1436622E-4,1189.1326,0.0,0.0,0.0,0.0,0.0,0.0,0.0,0.0,0.0,0.0,0.0,0.0,0.0,-60.08073,0.06114518,-49.996876,0.027519392,-0.01502331,0.012554212,546622.75,119984.91,0.011756019,0.021068314,7156.4395,7229.752,6179.4316,6307.9893,0.31187057,0.0,0.0,0.0
96.61914,17609.057,1.266,0.0,0.0,282.0276,11574.0,100.0,0.0,0.63202655,0.0,7.0,1.0,0.0,4000000.0,110.0,1.0,0.0,0.0,10.0,0.0,0.0,-217.6868,38.362206,394.306,-0.114703,0.3634052,0.1622844,287.62817,287.48895,282.01028,281.76077,343.0,343.0,400.0,400.0,89.0,89.0,89.0,89.0,0.0,0.0,0.0,0.0,0.038993053,0.038404018,0.053097084,0.052588537,31.713541,19.54615,19.297823,10.873228,1181.9554,1914.0643,833.9926,1364.8018,0.0,0.0,0.0,2.0,1.0,-2.2654595,0.031071067,0.0023890734,89.0,89.0,89.0,89.0,21.02244,21.02244,23.278507,23.278507,0.019461399,0.019824289,-5.013577E-4,-4.8730243E-4,1190.545,0.0,0.0,0.0,0.0,0.0,0.0,0.0,0.0,0.0,0.0,0.0,0.0,0.0,-60.186985,0.09625373,-50.14807,0.0029178294,-0.04354784,-0.0022925644,546184.5,119984.9,0.011543423,0.020348607,7518.5166,7378.413,6664.9277,6418.8184,0.31143284,0.0,0.0,0.0
100.53125,17612.969,1.316,0.0,0.0,282.64462,11607.0,100.0,0.0,0.16036098,0.0,7.0,1.0,0.0,4000000.0,110.0,1.0,0.0,0.0,10.0,0.0,0.0,-220.69846,38.36723,391.7943,-0.14710516,0.34833103,-0.09198099,288.42746,288.3423,282.60068,282.41083,342.0,342.0,399.0,398.0,89.0,89.0,89.0,89.0,0.0,0.0,0.0,0.0,0.038180098,0.037668012,0.052600823,0.052096143,-31.329096,-29.114037,-10.691508,-9.600073,-731.5858,-760.48663,127.136696,179.58727,0.0,0.0,0.0,2.0,1.0,-2.267398,0.031207548,0.002809167,89.0,89.0,89.0,89.0,21.02244,21.02244,23.278507,23.278507,0.02015396,0.020447852,-4.6916408E-4,-5.102305E-4,1192.5105,0.0,0.0,0.0,0.0,0.0,0.0,0.0,0.0,0.0,0.0,0.0,0.0,0.0,-60.273697,0.08542029,-50.311737,-0.01462731,-0.030119918,0.014378112,545530.75,119984.9,0.013463008,0.022272212,7031.7417,6864.4756,6018.898,5791.3926,0.31340504,0.0,0.0,0.0
104.453125,17616.89,1.383,0.0,0.0,283.25928,11632.0,100.0,0.0,-0.034404833,0.0,7.0,1.0,0.0,4000000.0,110.0,1.0,0.0,0.0,10.0,0.0,0.0,-223.71439,38.369907,389.27444,-0.1354939,0.34915698,-0.08883644,289.0164,289.02206,283.1526,283.08487,340.0,340.0,398.0,397.0,89.0,89.0,89.0,89.0,0.0,0.0,0.0,0.0,0.036815062,0.03631474,0.05256986,0.052085705,0.0,0.0,0.0,0.0,799.1641,936.49316,88.44583,219.25714,0.0,0.0,0.0,2.0,1.0,-2.2683454,0.031332944,0.0034644604,89.0,89.0,89.0,89.0,21.02244,21.02244,23.278507,23.278507,0.020292658,0.0204985,-4.752191E-4,-5.0686614E-4,1193.9739,0.0,0.0,0.0,0.0,0.0,0.0,0.0,0.0,0.0,0.0,0.0,0.0,0.0,-60.360546,0.02905904,-50.474136,-0.008122126,-0.009892922,0.003430797,545026.25,119984.9,0.014313578,0.023766398,6981.736,6828.898,6139.816,5924.423,0.31458855,0.0,0.0,0.0
108.38281,17620.82,1.433,0.0,0.0,283.86438,11655.0,100.0,0.0,-0.0469344,0.0,7.0,1.0,0.0,4000000.0,110.0,1.0,0.0,0.0,10.0,0.0,0.0,-226.73494,38.370193,386.74683,-0.08969195,0.34027702,-0.060233455,289.56314,289.61014,283.71735,283.7336,339.0,339.0,396.0,395.0,89.0,89.0,89.0,89.0,0.0,0.0,0.0,0.0,0.03667467,0.036330763,0.05243848,0.05219406,0.0,0.0,0.0,0.0,150.88763,364.41827,258.927,242.64603,0.0,0.0,0.0,2.0,1.0,-2.2684095,0.03162784,0.004001856,89.0,89.0,89.0,89.0,21.02244,21.02244,23.278507,23.278507,0.020148732,0.02024509,-4.8448882E-4,-4.899768E-4,1195.343,0.0,0.0,0.0,0.0,0.0,0.0,0.0,0.0,0.0,0.0,0.0,0.0,0.0,-60.458202,-0.011822112,-50.619366,-0.012781271,0.0035487527,0.0067375535,544574.5,119984.9,0.015564096,0.024574546,7022.8564,6942.6084,6084.732,5986.1064,0.3157177,0.0,0.0,0.0
112.31055,17624.748,1.483,0.0,0.0,282.96387,11198.0,100.0,0.0,0.6273835,0.0,7.0,1.0,0.0,4000000.0,110.0,1.0,0.0,0.0,10.0,0.0,0.0,-229.75305,38.368923,384.2182,-0.13650286,-0.65850043,-0.029167708,282.98016,282.938,283.0087,282.92163,338.0,337.0,395.0,394.0,89.0,89.0,89.0,89.0,0.0,0.0,0.0,0.0,0.033528026,0.03307196,0.053053655,0.052737,0.0,0.0,0.0,0.0,850.89014,404.78574,1412.5316,1003.97754,0.0,0.0,0.0,2.0,1.0,-2.268596,0.031333417,0.0059900284,89.0,89.0,89.0,89.0,21.02244,21.02244,23.278507,23.278507,-6.800454E-5,1.02199214E-4,-3.098192E-5,3.7964353E-5,1159.637,0.0,0.0,0.0,0.0,0.0,0.0,0.0,0.0,0.0,0.0,0.0,0.0,0.0,-60.231182,-0.03712094,-50.50081,-0.017573066,-0.016297083,0.042595215,549868.2,0.0,0.014248041,0.028239287,6699.4375,6534.082,6742.6284,6578.6304,0.3167982,0.0,0.0,0.0
116.228516,17628.666,1.533,0.0,0.0,282.8536,10794.0,100.0,0.0,0.76381105,0.0,8.0,1.0,0.0,4000000.0,110.0,1.0,0.0,0.0,10.0,0.0,0.0,-232.76067,38.366665,381.69363,-0.1961068,0.34110504,-0.07177681,289.14996,289.0718,282.82007,282.56473,336.0,336.0,393.0,393.0,89.0,89.0,89.0,89.0,0.0,0.0,0.0,0.0,0.033512395,0.032553505,0.053527635,0.05281896,0.0,0.0,0.0,0.0,4192.6274,4254.761,-190.1686,-48.320015,0.0,0.0,0.0,2.0,1.0,-2.2703176,0.030752119,0.005498171,89.0,89.0,89.0,89.0,21.02244,21.02244,23.278507,23.278507,0.0218438,0.02242409,-5.3090707E-4,-5.0100975E-4,1110.0728,0.0,0.0,0.0,0.0,0.0,0.0,0.0,0.0,0.0,0.0,0.0,0.0,0.0,-60.15186,-0.062879845,-50.547646,0.04498247,-0.04679268,-0.04140167,546067.1,119984.9,0.012229064,0.02692555,6895.921,6633.7,6671.367,6335.0835,0.31505394,0.0,0.0,0.0
120.1543,17632.592,1.583,0.0,0.0,283.5977,10468.0,100.0,0.0,0.23406056,0.0,8.0,1.0,0.0,4000000.0,110.0,1.0,0.0,0.0,10.0,0.0,0.0,-235.77066,38.36337,379.16068,-0.20377919,0.4244908,0.036310032,289.49875,289.42853,283.54834,283.33585,335.0,335.0,392.0,391.0,89.0,89.0,89.0,89.0,0.0,0.0,0.0,0.0,0.039505646,0.03848178,0.052797414,0.051987085,0.0,0.0,0.0,0.0,-1572.1361,-1195.9427,-252.86525,15.583648,0.0,0.0,0.0,2.0,1.0,-2.2725499,0.030628249,0.0026785135,89.0,89.0,89.0,89.0,21.02244,21.02244,23.278507,23.278507,0.020528596,0.020948056,-5.1331293E-4,-5.572739E-4,1063.3097,0.0,0.0,0.0,0.0,0.0,0.0,0.0,0.0,0.0,0.0,0.0,0.0,0.0,-60.243916,-0.06142928,-50.759277,0.008792954,-0.035050966,-0.01805028,539352.94,119984.9,0.013113965,0.018879278,7680.294,7398.3193,6009.834,5646.784,0.30981922,0.0,0.0,0.0
124.08984,17636.527,1.633,0.0,0.0,284.30533,10253.0,100.0,0.0,-0.44082198,0.0,8.0,1.0,0.0,4000000.0,110.0,1.0,0.0,0.0,10.0,0.0,0.0,-238.78558,38.36067,376.61774,-0.105879486,0.36853454,-0.19522592,290.01495,290.05725,284.16776,284.17804,333.0,333.0,391.0,390.0,89.0,89.0,89.0,89.0,0.0,0.0,0.0,0.0,0.03923686,0.03871543,0.05216642,0.05172726,0.0,0.0,0.0,0.0,-4257.9927,-4179.592,-1029.606,-924.22205,0.0,0.0,0.0,2.0,1.0,-2.2732065,0.031225668,0.004285097,89.0,89.0,89.0,89.0,21.02244,21.02244,23.278507,23.278507,0.02038993,0.020418,-4.6133186E-4,-5.324302E-4,1021.05304,0.0,0.0,0.0,0.0,0.0,0.0,0.0,0.0,0.0,0.0,0.0,0.0,0.0,-60.34905,-0.076094046,-50.939495,-0.051644206,0.0067580277,0.036905844,528779.2,119984.92,0.014959707,0.021315543,6808.1094,6704.995,5628.736,5461.408,0.30979633,0.0,0.0,0.0
128.03516,17640.473,1.683,0.0,0.0,284.8573,10271.0,100.0,0.0,-0.6133345,0.0,8.0,1.0,0.0,4000000.0,110.0,1.0,0.0,0.0,10.0,0.0,0.0,-241.8058,38.35441,374.0678,0.015734032,0.3112504,-0.15191083,290.49414,290.59717,284.62747,284.81583,332.0,332.0,389.0,388.0,89.0,89.0,89.0,89.0,0.0,0.0,0.0,0.0,0.035899576,0.036041237,0.05229258,0.052384578,0.0,0.0,0.0,0.0,1683.9307,1642.6383,-450.4367,-516.7409,0.0,0.0,0.0,2.0,1.0,-2.2720315,0.032053765,0.006241083,89.0,89.0,89.0,89.0,21.02244,21.02244,23.278507,23.278507,0.020203846,0.019915562,-4.5459202E-4,-4.8836594E-4,1024.5646,0.0,0.0,0.0,0.0,0.0,0.0,0.0,0.0,0.0,0.0,0.0,0.0,0.0,-60.46026,-0.16290358,-51.045246,-0.021191724,0.034117155,-3.2773148E-4,529667.9,119984.92,0.015660293,0.025575304,6636.671,6731.0674,6048.9424,6115.113,0.31446075,0.0,0.0,0.0
131.98633,17644.424,1.733,0.0,0.0,285.3893,10287.0,100.0,0.0,-0.43783817,0.0,8.0,1.0,0.0,4000000.0,110.0,1.0,0.0,0.0,10.0,0.0,0.0,-244.83243,38.34614,371.51364,0.1092471,0.2935334,-0.014730484,290.95483,291.03445,285.1427,285.35745,331.0,330.0,388.0,387.0,89.0,89.0,89.0,89.0,0.0,0.0,0.0,0.0,0.035995174,0.036740683,0.052568324,0.05312849,0.0,0.0,0.0,0.0,-753.9018,-1153.846,-275.40918,-493.90192,0.0,0.0,0.0,2.0,1.0,-2.2701888,0.03278358,0.006097913,89.0,89.0,89.0,89.0,21.02244,21.02244,23.278507,23.278507,0.01986445,0.019456953,-4.6752323E-4,-4.6320455E-4,1027.683,0.0,0.0,0.0,0.0,0.0,0.0,0.0,0.0,0.0,0.0,0.0,0.0,0.0,-60.599075,-0.16624795,-51.10988,0.0076394947,0.03564253,-0.02678609,530453.6,119984.92,0.014404189,0.026508145,6780.6113,7002.336,6296.797,6566.9814,0.31612492,0.0,0.0,0.0
135.94727,17648.385,1.783,0.0,0.0,285.92856,10296.0,100.0,0.0,-0.47923875,0.0,8.0,1.0,0.0,4000000.0,110.0,1.0,0.0,0.0,10.0,0.0,0.0,-247.86665,38.338844,368.95712,0.18571931,0.3048606,0.18084009,291.20538,291.24612,285.68527,285.87952,329.0,329.0,386.0,386.0,89.0,89.0,89.0,89.0,0.0,0.0,0.0,0.0,0.038067706,0.03926089,0.052883066,0.05376783,0.0,0.0,0.0,0.0,510.04892,316.9837,-414.49515,-523.36597,0.0,0.0,0.0,2.0,1.0,-2.26855,0.033334978,0.0037286282,89.0,89.0,89.0,89.0,21.02244,21.02244,23.278507,23.278507,0.018843494,0.01837596,-4.759067E-4,-4.7850457E-4,1029.3868,0.0,0.0,0.0,0.0,0.0,0.0,0.0,0.0,0.0,0.0,0.0,0.0,0.0,-60.764446,-0.10869958,-51.14624,0.030169033,0.031205617,-0.05195169,530868.7,119984.91,0.009458208,0.020321364,7412.728,7738.0894,6528.295,6943.257,0.3104763,0.0,0.0,0.0
139.91406,17652.352,1.833,0.0,0.0,286.47018,10307.0,100.0,0.0,-0.7353237,0.0,8.0,1.0,0.0,4000000.0,110.0,1.0,0.0,0.0,10.0,0.0,0.0,-250.90971,38.33753,366.39926,0.25393528,0.3025049,0.3674588,291.51913,291.58405,286.2103,286.44113,328.0,328.0,385.0,384.0,89.0,89.0,89.0,89.0,0.0,0.0,0.0,0.0,0.042746473,0.044447925,0.05298316,0.054164447,0.0,0.0,0.0,0.0,-4155.17,-4185.68,-2070.2764,-2071.4966,0.0,0.0,0.0,2.0,1.0,-2.266835,0.033894036,0.0013047457,89.0,89.0,89.0,89.0,21.02244,21.02244,23.278507,23.278507,0.018019306,0.017518347,-4.670887E-4,-4.9302727E-4,1031.6079,0.0,0.0,0.0,0.0,0.0,0.0,0.0,0.0,0.0,0.0,0.0,0.0,0.0,-60.949303,0.06355442,-51.16021,0.008800692,0.03944727,-0.028651739,531446.3,119984.92,0.008667365,0.0136865005,7949.6714,8352.383,6442.5796,6996.933,0.30697823,0.0,0.0,0.0
143.88867,17656.326,1.883,0.0,0.0,286.98926,10340.0,100.0,0.0,-0.9659241,0.0,8.0,1.0,0.0,4000000.0,110.0,1.0,0.0,0.0,10.0,0.0,0.0,-253.96245,38.34256,363.8416,0.3260051,0.2940783,-0.035629477,292.4564,292.48965,286.6958,287.00943,326.0,326.0,384.0,383.0,89.0,89.0,89.0,89.0,0.0,0.0,0.0,0.0,0.040506493,0.042515296,0.052012067,0.053498056,0.0,0.0,0.0,0.0,-881.2264,-843.3535,231.05888,333.7338,0.0,0.0,0.0,2.0,1.0,-2.2644265,0.03447433,0.0017955303,89.0,89.0,89.0,89.0,21.02244,21.02244,23.278507,23.278507,0.019519554,0.018630104,-4.497191E-4,-4.822049E-4,1038.0101,0.0,0.0,0.0,0.0,0.0,0.0,0.0,0.0,0.0,0.0,0.0,0.0,0.0,-61.154335,0.10548122,-51.139935,-0.02634973,0.055788707,0.013939958,533037.9,119984.9,0.011585115,0.017405702,6981.4365,7517.212,5796.1206,6494.5273,0.31039047,0.0,0.0,0.0
147.8711,17660.309,1.933,0.0,0.0,287.50433,10364.0,100.0,0.0,-0.90665555,0.0,8.0,1.0,0.0,4000000.0,110.0,1.0,0.0,0.0,10.0,0.0,0.0,-257.02603,38.346474,361.28574,0.37687433,0.29402742,-0.14929265,293.14337,293.18268,287.18634,287.54495,325.0,325.0,382.0,381.0,89.0,89.0,89.0,89.0,0.0,0.0,0.0,0.0,0.037090145,0.0393597,0.051614664,0.053337593,0.0,0.0,0.0,0.0,880.8641,821.9899,304.8062,140.41362,0.0,0.0,0.0,2.0,1.0,-2.2614052,0.034876946,0.0030964613,89.0,89.0,89.0,89.0,21.02244,21.02244,23.278507,23.278507,0.020221353,0.019235548,-4.6012714E-4,-4.6930654E-4,1042.7594,0.0,0.0,0.0,0.0,0.0,0.0,0.0,0.0,0.0,0.0,0.0,0.0,0.0,-61.379196,0.04780506,-51.093853,-0.018390216,0.062228434,0.011938343,534236.7,119984.91,0.013709347,0.022085316,6575.6055,7195.757,5686.39,6474.064,0.313529,0.0,0.0,0.0
151.86133,17664.299,1.983,0.0,0.0,288.01434,10383.0,100.0,0.0,-0.7240969,0.0,8.0,1.0,0.0,4000000.0,110.0,1.0,0.0,0.0,10.0,0.0,0.0,-260.10114,38.347084,358.73264,0.39829472,0.28950053,-0.19806151,293.69443,293.69476,287.7125,288.03732,324.0,323.0,381.0,380.0,89.0,89.0,89.0,89.0,0.0,0.0,0.0,0.0,0.035456117,0.037921347,0.05143529,0.053211547,0.0,0.0,0.0,0.0,181.14302,-41.493755,-290.44296,-532.27094,0.0,0.0,0.0,2.0,1.0,-2.258444,0.03520743,0.0038704872,89.0,89.0,89.0,89.0,21.02244,21.02244,23.278507,23.278507,0.02028066,0.01929239,-4.6982447E-4,-4.599118E-4,1046.4836,0.0,0.0,0.0,0.0,0.0,0.0,0.0,0.0,0.0,0.0,0.0,0.0,0.0,-61.61379,-0.02490585,-51.033104,-0.016000066,0.05536616,0.008281166,535163.6,119984.9,0.014739045,0.024053255,6503.8174,7160.9316,5507.5645,6307.2285,0.31488514,0.0,0.0,0.0
155.85742,17668.295,2.033,0.0,0.0,288.52243,10396.0,100.0,0.0,-0.61014915,0.0,8.0,1.0,0.0,4000000.0,110.0,1.0,0.0,0.0,10.0,0.0,0.0,-263.188,38.344666,356.1826,0.3913743,0.28810292,-0.02085439,294.09885,294.05075,288.2506,288.50818,322.0,322.0,380.0,379.0,89.0,89.0,89.0,89.0,0.0,0.0,0.0,0.0,0.035508417,0.038100466,0.05192725,0.053689495,0.0,0.0,0.0,0.0,1321.7522,747.6791,52.58474,-252.11424,0.0,0.0,0.0,2.0,1.0,-2.2560115,0.03559263,0.0041030645,89.0,89.0,89.0,89.0,21.02244,21.02244,23.278507,23.278507,0.019805793,0.018865213,-4.7203418E-4,-4.635049E-4,1049.102,0.0,0.0,0.0,0.0,0.0,0.0,0.0,0.0,0.0,0.0,0.0,0.0,0.0,-61.84729,-0.05579457,-50.972046,0.0025170217,0.0429082,-0.0117799,535831.8,119984.91,0.013345782,0.023543268,6813.003,7454.3135,6051.513,6840.0703,0.3140068,0.0,0.0,0.0
159.86133,17672.299,2.083,0.0,0.0,289.02686,10410.0,100.0,0.0,-0.6470636,0.0,8.0,1.0,0.0,4000000.0,110.0,1.0,0.0,0.0,10.0,0.0,0.0,-266.2864,38.342377,353.63556,0.3751765,0.28642744,0.078181595,294.46768,294.4296,288.76456,288.99982,321.0,321.0,378.0,377.0,89.0,89.0,89.0,89.0,0.0,0.0,0.0,0.0,0.03722447,0.039757963,0.0522631,0.05396735,0.0,0.0,0.0,0.0,352.18732,-439.1178,-12.123555,-418.25024,0.0,0.0,0.0,2.0,1.0,-2.253988,0.03565934,0.003207922,89.0,89.0,89.0,89.0,21.02244,21.02244,23.278507,23.278507,0.019253965,0.018410191,-4.6831617E-4,-4.712122E-4,1051.803,0.0,0.0,0.0,0.0,0.0,0.0,0.0,0.0,0.0,0.0,0.0,0.0,0.0,-62.075317,-0.027856471,-50.915356,0.014773781,0.039177667,-0.018288335,536488.8,119984.9,0.011437459,0.020749647,7136.078,7727.711,6207.6714,6954.964,0.31164455,0.0,0.0,0.0
163.8711,17676.309,2.133,0.0,0.0,289.5302,10426.0,100.0,0.0,-0.6722065,0.0,8.0,1.0,0.0,4000000.0,110.0,1.0,0.0,0.0,10.0,0.0,0.0,-269.396,38.34227,351.09106,0.354082,0.28407475,0.0731873,294.91324,294.90112,289.27554,289.50235,320.0,319.0,377.0,376.0,89.0,89.0,89.0,89.0,0.0,0.0,0.0,0.0,0.038828485,0.04108296,0.052140746,0.053894516,0.0,0.0,0.0,0.0,-708.1701,-1429.0674,-21.430862,-20.720064,0.0,0.0,0.0,2.0,1.0,-2.252072,0.03570095,0.0025535822,89.0,89.0,89.0,89.0,21.02244,21.02244,23.278507,23.278507,0.018962808,0.018231606,-4.6227634E-4,-4.746482E-4,1054.9932,0.0,0.0,0.0,0.0,0.0,0.0,0.0,0.0,0.0,0.0,0.0,0.0,0.0,-62.294685,0.0190865,-50.86808,0.0023589954,0.039024934,0.0030475007,537290.2,119984.9,0.011470476,0.018697917,7288.913,7815.083,6018.8896,6826.482,0.3101511,0.0,0.0,0.0
167.88672,17680.324,2.183,0.0,0.0,290.02124,10449.0,100.0,0.0,-0.6891305,0.0,8.0,1.0,0.0,4000000.0,110.0,1.0,0.0,0.0,10.0,0.0,0.0,-272.51642,38.34357,348.54892,0.34713653,0.278407,-0.03516729,295.5666,295.5481,289.7575,290.0069,318.0,318.0,375.0,375.0,89.0,89.0,89.0,89.0,0.0,0.0,0.0,0.0,0.03820139,0.04025534,0.05193831,0.053793803,0.0,0.0,0.0,0.0,-499.21265,-290.73804,28.94102,401.41934,0.0,0.0,0.0,2.0,1.0,-2.2499962,0.035400115,0.0030902624,89.0,89.0,89.0,89.0,21.02244,21.02244,23.278507,23.278507,0.019529756,0.018686296,-4.5770462E-4,-4.6926638E-4,1059.5417,0.0,0.0,0.0,0.0,0.0,0.0,0.0,0.0,0.0,0.0,0.0,0.0,0.0,-62.509335,0.023508463,-50.820568,0.0015865816,0.043395966,0.018786643,538419.0,119984.89,0.012353553,0.020447314,6957.0503,7502.941,5912.535,6784.8525,0.31147957,0.0,0.0,0.0
171.91016,17684.348,2.233,0.0,0.0,290.50934,10467.0,100.0,0.0,-0.5546619,0.0,8.0,1.0,0.0,4000000.0,110.0,1.0,0.0,0.0,10.0,0.0,0.0,-275.64743,38.344055,346.00903,0.3327724,0.27795234,-0.06961493,296.09644,296.07065,290.25336,290.48587,317.0,317.0,374.0,373.0,89.0,89.0,89.0,89.0,0.0,0.0,0.0,0.0,0.03736277,0.039084733,0.05188049,0.053745307,0.0,0.0,0.0,0.0,-224.15215,1045.9407,-774.43414,952.3987,0.0,0.0,0.0,2.0,1.0,-2.247904,0.034842044,0.0035545826,89.0,89.0,89.0,89.0,21.02244,21.02244,23.278507,23.278507,0.019650668,0.01882539,-4.629899E-4,-4.6453622E-4,1063.1749,0.0,0.0,0.0,0.0,0.0,0.0,0.0,0.0,0.0,0.0,0.0,0.0,0.0,-62.718777,-0.004129899,-50.777622,0.007922993,0.039820895,0.014080008,539336.1,119984.9,0.012982935,0.022008628,6886.7334,7433.051,5855.5967,6790.1494,0.31310654,0.0,0.0,0.0
175.9414,17688.379,2.283,0.0,0.0,290.9958,10482.0,100.0,0.0,-0.49970677,0.0,8.0,1.0,0.0,4000000.0,110.0,1.0,0.0,0.0,10.0,0.0,0.0,-278.7887,38.343567,343.4712,0.31820756,0.2774014,0.0012258713,296.5084,296.4741,290.7497,290.95572,315.0,315.0,373.0,372.0,89.0,89.0,89.0,89.0,0.0,0.0,0.0,0.0,0.03746486,0.039073445,0.05222018,0.053918414,0.0,0.0,0.0,0.0,-129.73843,1606.6296,-310.21082,-12.16381,0.0,0.0,0.0,2.0,1.0,-2.2460449,0.033930324,0.0032289028,89.0,89.0,89.0,89.0,21.02244,21.02244,23.278507,23.278507,0.019372232,0.01858437,-4.6910814E-4,-4.6535238E-4,1066.1093,0.0,0.0,0.0,0.0,0.0,0.0,0.0,0.0,0.0,0.0,0.0,0.0,0.0,-62.92357,-0.009327678,-50.73917,0.025700826,0.034313258,-5.057119E-4,540050.75,119984.89,0.011595945,0.021199524,7060.663,7601.3037,6149.9253,6918.5405,0.3119793,0.0,0.0,0.0
178.63086,17691.068,2.316,0.0,0.0,291.322,10490.0,100.0,0.0,-0.4654944,0.0,8.0,1.0,0.0,4000000.0,110.0,1.0,0.0,0.0,10.0,0.0,0.0,-280.88864,38.343525,341.78024,0.30188072,0.27713025,0.051982205,296.74384,296.71893,291.08728,291.2723,315.0,314.0,372.0,371.0,89.0,89.0,89.0,89.0,0.0,0.0,0.0,0.0,0.038514756,0.0399886,0.052413642,0.053830747,0.0,0.0,0.0,0.0,174.81296,-1.2203978,-109.48776,-22.999933,0.0,0.0,0.0,2.0,1.0,-2.2449672,0.033417616,0.002714038,89.0,89.0,89.0,89.0,21.02244,21.02244,23.278507,23.278507,0.018930368,0.01832031,-4.6947564E-4,-4.6585023E-4,1067.7562,0.0,0.0,0.0,0.0,0.0,0.0,0.0,0.0,0.0,0.0,0.0,0.0,0.0,-63.056446,0.0077537606,-50.71864,0.01398945,0.030757932,-0.0045791124,540472.56,119984.91,0.010849253,0.019342994,7308.8643,7749.421,6226.663,6850.4688,0.31048965,0.0,0.0,0.0
184.01953,17696.457,2.383,0.0,0.0,291.96118,10515.0,100.0,0.0,-0.509709,0.0,8.0,1.0,0.0,4000000.0,110.0,1.0,0.0,0.0,10.0,0.0,0.0,-285.1013,38.345863,338.40027,0.27912897,0.26852205,-0.011486011,297.47427,297.40707,291.73737,291.90897,313.0,313.0,370.0,369.0,89.0,89.0,89.0,89.0,0.0,0.0,0.0,0.0,0.038982492,0.04088449,0.052410625,0.053577818,0.0,0.0,0.0,0.0,-788.2341,-841.34174,82.04875,-60.43015,0.0,0.0,0.0,2.0,1.0,-2.2429993,0.033646967,0.0026245117,89.0,89.0,89.0,89.0,21.02244,21.02244,23.278507,23.278507,0.019133436,0.018409975,-4.5859406E-4,-4.648677E-4,1071.7714,0.0,0.0,0.0,0.0,0.0,0.0,0.0,0.0,0.0,0.0,0.0,0.0,0.0,-63.31222,0.044665515,-50.683563,-0.016815573,0.029690465,0.0023738118,541215.06,119984.91,0.01176702,0.019320935,7152.4155,7659.0576,6131.0586,6643.789,0.31092548,0.0,0.0,0.0
188.06836,17700.506,2.433,0.0,0.0,292.42593,10535.0,100.0,0.0,-0.5936453,0.0,8.0,1.0,0.0,4000000.0,110.0,1.0,0.0,0.0,10.0,0.0,0.0,-288.27182,38.348198,335.86676,0.27527824,0.26155803,-0.062124185,298.03534,297.96576,292.1942,292.38107,311.0,311.0,369.0,368.0,89.0,89.0,89.0,89.0,0.0,0.0,0.0,0.0,0.03807692,0.040091127,0.05241008,0.053521298,0.0,0.0,0.0,0.0,-340.89532,-351.8923,110.29242,8.288011,0.0,0.0,0.0,2.0,1.0,-2.2414598,0.03416992,0.0031257868,89.0,89.0,89.0,89.0,21.02244,21.02244,23.278507,23.278507,0.019480122,0.018695155,-4.5052246E-4,-4.6618687E-4,1074.4928,0.0,0.0,0.0,0.0,0.0,0.0,0.0,0.0,0.0,0.0,0.0,0.0,0.0,-63.49744,0.038664233,-50.658592,-0.017803025,0.032577578,-0.004162191,541559.25,119984.9,0.013184314,0.021744072,6950.779,7458.1597,6144.3003,6636.032,0.31343937,0.0,0.0,0.0
192.12305,17704.56,2.483,0.0,0.0,292.88818,10549.0,100.0,0.0,-0.5829279,0.0,8.0,1.0,0.0,4000000.0,110.0,1.0,0.0,0.0,10.0,0.0,0.0,-291.4516,38.349606,333.33453,0.27896422,0.2651637,-0.004823653,298.40457,298.35568,292.64215,292.84952,310.0,310.0,367.0,367.0,89.0,89.0,89.0,89.0,0.0,0.0,0.0,0.0,0.03759467,0.03962854,0.052526087,0.053767808,0.0,0.0,0.0,0.0,1174.6465,1299.5435,-37.00105,71.21266,0.0,0.0,0.0,2.0,1.0,-2.239749,0.03480863,0.0027759075,89.0,89.0,89.0,89.0,21.02244,21.02244,23.278507,23.278507,0.019243943,0.018451372,-4.5888734E-4,-4.6775615E-4,1076.3883,0.0,0.0,0.0,0.0,0.0,0.0,0.0,0.0,0.0,0.0,0.0,0.0,0.0,-63.6829,0.025290929,-50.631844,6.0464814E-4,0.034925938,-0.023050282,541794.6,119984.91,0.012133265,0.021617053,7118.4307,7640.842,6300.5815,6874.293,0.31285477,0.0,0.0,0.0
196.1836,17708.621,2.533,0.0,0.0,293.3517,10560.0,100.0,0.0,-0.21601091,0.0,8.0,1.0,0.0,4000000.0,110.0,1.0,0.0,0.0,10.0,0.0,0.0,-294.64047,38.351875,330.8035,0.23688239,0.2628777,0.11607468,298.71228,298.66336,293.13565,293.28366,309.0,309.0,366.0,365.0,89.0,89.0,89.0,89.0,0.0,0.0,0.0,0.0,0.03937102,0.04118129,0.052838773,0.053950917,0.0,0.0,0.0,0.0,-117.05154,737.1246,-615.79486,61.14095,0.0,0.0,0.0,2.0,1.0,-2.2382326,0.035278425,0.0016368628,89.0,89.0,89.0,89.0,21.02244,21.02244,23.278507,23.278507,0.018551927,0.017962577,-4.7899975E-4,-4.5212443E-4,1077.8921,0.0,0.0,0.0,0.0,0.0,0.0,0.0,0.0,0.0,0.0,0.0,0.0,0.0,-63.860287,0.07127642,-50.61544,0.006621189,0.023085956,-0.023487858,541986.4,119984.9,0.01062204,0.018487642,7485.9707,7983.7925,6472.8867,6993.174,0.31056976,0.0,0.0,0.0
200.25,17712.688,2.583,0.0,0.0,293.81372,10578.0,100.0,0.0,0.32961422,0.0,8.0,1.0,0.0,4000000.0,110.0,1.0,0.0,0.0,10.0,0.0,0.0,-297.8376,38.35643,328.27246,0.11894112,0.26364797,0.022863664,299.2555,299.1654,293.68906,293.66446,308.0,307.0,365.0,364.0,89.0,89.0,89.0,89.0,0.0,0.0,0.0,0.0,0.040092364,0.041363914,0.052782148,0.053586546,0.0,0.0,0.0,0.0,-284.58234,-447.08395,1018.15295,785.4177,0.0,0.0,0.0,2.0,1.0,-2.2378366,0.034880575,0.0013263226,89.0,89.0,89.0,89.0,21.02244,21.02244,23.278507,23.278507,0.018481078,0.018317282,-4.906682E-4,-4.3866853E-4,1080.3694,0.0,0.0,0.0,0.0,0.0,0.0,0.0,0.0,0.0,0.0,0.0,0.0,0.0,-64.008995,0.09841996,-50.634315,0.008943242,-0.006495689,0.015555561,542307.6,119984.9,0.0092881955,0.01700223,7469.515,7709.995,6408.425,6742.509,0.30916595,0.0,0.0,0.0
204.32227,17716.76,2.633,0.0,0.0,294.2792,10594.0,100.0,0.0,0.9747927,0.0,8.0,1.0,0.0,4000000.0,110.0,1.0,0.0,0.0,10.0,0.0,0.0,-301.0409,38.361736,325.7389,-0.0731011,0.2639414,7.1399845E-5,299.74072,299.59308,294.2631,294.01993,306.0,306.0,364.0,363.0,89.0,89.0,89.0,89.0,0.0,0.0,0.0,0.0,0.040470157,0.040532492,0.053200956,0.053296667,0.0,0.0,0.0,0.0,294.03714,195.78786,-304.36365,-509.72693,0.0,0.0,0.0,2.0,1.0,-2.2391474,0.033690844,0.0015500784,89.0,89.0,89.0,89.0,21.02244,21.02244,23.278507,23.278507,0.018180171,0.018509654,-5.020654E-4,-4.2668157E-4,1082.5652,0.0,0.0,0.0,0.0,0.0,0.0,0.0,0.0,0.0,0.0,0.0,0.0,0.0,-64.10937,0.10853609,-50.715824,0.019055203,-0.044836204,0.023766859,542589.1,119984.9,0.00821375,0.016122753,7624.7363,7544.1924,6566.896,6557.5996,0.3074398,0.0,0.0,0.0
208.40039,17720.838,2.683,0.0,0.0,294.74048,10609.0,100.0,0.0,1.6050687,0.0,8.0,1.0,0.0,4000000.0,110.0,1.0,0.0,0.0,10.0,0.0,0.0,-304.2475,38.36688,323.199,-0.3261475,0.2603221,0.14701724,300.19244,299.971,294.84662,294.3539,305.0,305.0,362.0,362.0,89.0,89.0,89.0,89.0,0.0,0.0,0.0,0.0,0.041423433,0.040040925,0.053956788,0.05295229,0.0,0.0,0.0,0.0,3012.6033,2245.183,1614.8103,1309.1458,0.0,0.0,0.0,2.0,1.0,-2.2424843,0.031981934,0.0022507906,89.0,89.0,89.0,89.0,21.02244,21.02244,23.278507,23.278507,0.017690988,0.018559977,-5.007169E-4,-4.1681467E-4,1084.6107,0.0,0.0,0.0,0.0,0.0,0.0,0.0,0.0,0.0,0.0,0.0,0.0,0.0,-64.138306,0.1145944,-50.885624,0.024262931,-0.08777992,0.032441046,542845.75,119984.91,0.008732977,0.0166905,8092.249,7618.7266,7276.4526,6754.472,0.30791283,0.0,0.0,0.0
212.48633,17724.924,2.733,0.0,0.0,295.17197,10634.0,100.0,0.0,1.6791688,0.0,8.0,1.0,0.0,4000000.0,110.0,1.0,0.0,0.0,10.0,0.0,0.0,-307.45343,38.37166,320.64838,-0.53282,0.24804306,-0.21760044,300.92493,300.67444,295.35898,294.70468,304.0,303.0,361.0,360.0,89.0,89.0,89.0,89.0,0.0,0.0,0.0,0.0,0.0406872,0.038138382,0.053699594,0.05177122,0.0,0.0,0.0,0.0,-1154.7444,-116.46148,48.320015,-119.85454,0.0,0.0,0.0,2.0,1.0,-2.247645,0.030132793,0.0033773184,89.0,89.0,89.0,89.0,21.02244,21.02244,23.278507,23.278507,0.018465897,0.019662507,-4.7001377E-4,-4.2808848E-4,1088.0458,0.0,0.0,0.0,0.0,0.0,0.0,0.0,0.0,0.0,0.0,0.0,0.0,0.0,-64.090324,0.052127272,-51.138546,0.0062795095,-0.11251939,0.05396842,543284.75,119984.9,0.011863751,0.019826943,7476.7124,6787.7554,6540.297,5597.909,0.31117725,0.0,0.0,0.0
216.57812,17729.016,2.783,0.0,0.0,295.5975,10652.0,100.0,0.0,1.6719583,0.0,8.0,1.0,0.0,4000000.0,110.0,1.0,0.0,0.0,10.0,0.0,0.0,-310.65527,38.370758,318.0832,-0.70951843,0.24748957,-0.23195489,301.36026,301.2473,295.80222,295.097,302.0,302.0,360.0,359.0,89.0,89.0,89.0,89.0,0.0,0.0,0.0,0.0,0.03924543,0.035454128,0.053991023,0.05126019,0.0,0.0,0.0,0.0,830.51904,1440.5339,-215.0729,137.90576,0.0,0.0,0.0,2.0,1.0,-2.253565,0.028521525,0.004892111,89.0,89.0,89.0,89.0,21.02244,21.02244,23.278507,23.278507,0.018486705,0.020292036,-4.554663E-4,-4.403916E-4,1090.5101,0.0,0.0,0.0,0.0,0.0,0.0,0.0,0.0,0.0,0.0,0.0,0.0,0.0,-63.98239,-0.07813329,-51.462296,0.0026659742,-0.12024959,0.03510887,543595.1,119984.89,0.013235512,0.02255851,7544.1445,6446.581,6817.1636,5550.0166,0.31297302,0.0,0.0,0.0
220.67578,17733.113,2.833,0.0,0.0,296.01334,10663.0,100.0,0.0,1.6470643,0.0,8.0,1.0,0.0,4000000.0,110.0,1.0,0.0,0.0,10.0,0.0,0.0,-313.8505,38.36473,315.5004,-0.82473195,0.23988089,-0.077209175,301.6345,301.5802,296.19943,295.5125,301.0,301.0,358.0,358.0,89.0,89.0,89.0,89.0,0.0,0.0,0.0,0.0,0.03987286,0.03522768,0.054755524,0.05151928,0.0,0.0,0.0,0.0,580.80554,703.40924,-114.43633,-122.362366,0.0,0.0,0.0,2.0,1.0,-2.2595258,0.027138581,0.0054899454,89.0,89.0,89.0,89.0,21.02244,21.02244,23.278507,23.278507,0.018059706,0.019976757,-4.577797E-4,-4.4896663E-4,1092.0155,0.0,0.0,0.0,0.0,0.0,0.0,0.0,0.0,0.0,0.0,0.0,0.0,0.0,-63.828434,-0.14823513,-51.836395,0.02502295,-0.117641635,0.012420816,543784.0,119984.9,0.011568544,0.02204155,7867.0723,6612.7163,7409.2007,5910.536,0.31505203,0.0,0.0,0.0
224.78125,17737.219,2.883,0.0,0.0,296.42545,10671.0,100.0,0.0,1.2388449,0.0,8.0,1.0,0.0,4000000.0,110.0,1.0,0.0,0.0,10.0,0.0,0.0,-317.03735,38.357044,312.8983,-0.8280025,0.23855191,0.04860323,301.849,301.83804,296.56534,295.97272,300.0,300.0,357.0,356.0,89.0,89.0,89.0,89.0,0.0,0.0,0.0,0.0,0.042307854,0.03737798,0.055092264,0.051658902,0.0,0.0,0.0,0.0,-661.41925,-471.6126,-374.32907,-288.12283,0.0,0.0,0.0,2.0,1.0,-2.2650464,0.026174521,0.0048618317,89.0,89.0,89.0,89.0,21.02244,21.02244,23.278507,23.278507,0.01750395,0.019229025,-4.4240468E-4,-4.7172324E-4,1093.1323,0.0,0.0,0.0,0.0,0.0,0.0,0.0,0.0,0.0,0.0,0.0,0.0,0.0,-63.65646,-0.14971672,-52.228096,0.014200687,-0.0998272,-0.0017889682,543932.0,119984.9,0.010574804,0.018743923,8314.33,7033.082,7484.7417,5925.6133,0.31421566,0.0,0.0,0.0
228.9043,17741.342,2.933,0.0,0.0,296.84137,10688.0,100.0,0.0,0.5428646,0.0,8.0,1.0,0.0,4000000.0,110.0,1.0,0.0,0.0,10.0,0.0,0.0,-320.2161,38.348877,310.2772,-0.70266104,0.24847083,-0.05090006,302.27426,302.36493,296.87866,296.50787,299.0,298.0,356.0,355.0,89.0,89.0,89.0,89.0,0.0,0.0,0.0,0.0,0.042087987,0.037736908,0.054685943,0.051696602,0.0,0.0,0.0,0.0,725.96655,1206.0952,1232.5017,1594.9083,0.0,0.0,0.0,2.0,1.0,-2.269056,0.026323857,0.00495255,89.0,89.0,89.0,89.0,21.02244,21.02244,23.278507,23.278507,0.017882394,0.01921897,-4.316279E-4,-4.9254857E-4,1095.4629,0.0,0.0,0.0,0.0,0.0,0.0,0.0,0.0,0.0,0.0,0.0,0.0,0.0,-63.510746,-0.18381599,-52.586426,-0.012831101,-0.059967976,-0.00314727,544224.7,119984.9,0.008715903,0.017026387,8032.066,6995.593,7301.0,5984.9443,0.30912304,0.0,0.0,0.0
233.03516,17745.473,2.983,0.0,0.0,297.27408,10699.0,100.0,0.0,-0.089282446,0.0,8.0,1.0,0.0,4000000.0,110.0,1.0,0.0,0.0,10.0,0.0,0.0,-323.3891,38.339695,307.63986,-0.49001878,0.24931845,-0.04623348,302.54822,302.7191,297.183,297.0879,297.0,297.0,354.0,354.0,89.0,89.0,89.0,89.0,0.0,0.0,0.0,0.0,0.042407922,0.03943839,0.054110225,0.052046914,0.0,0.0,0.0,0.0,-227.75975,-336.84515,-644.9103,-534.99335,0.0,0.0,0.0,2.0,1.0,-2.2707787,0.027242718,0.0051083565,89.0,89.0,89.0,89.0,21.02244,21.02244,23.278507,23.278507,0.017705293,0.018441936,-4.250558E-4,-4.9750245E-4,1096.983,0.0,0.0,0.0,0.0,0.0,0.0,0.0,0.0,0.0,0.0,0.0,0.0,0.0,-63.4251,-0.19182104,-52.87758,-0.031854443,-0.011748362,0.0061807437,544419.56,119984.89,0.009894303,0.015214498,8119.4663,7384.8125,6740.288,5874.883,0.30749512,0.0,0.0,0.0
237.17188,17749.61,3.033,0.0,0.0,297.68808,10726.0,100.0,0.0,-0.4208798,0.0,8.0,1.0,0.0,4000000.0,110.0,1.0,0.0,0.0,10.0,0.0,0.0,-326.55966,38.328545,304.9904,-0.24291593,0.23460902,-0.26869673,303.3214,303.5092,297.50195,297.61227,296.0,296.0,353.0,353.0,89.0,89.0,89.0,89.0,0.0,0.0,0.0,0.0,0.040035207,0.038253985,0.0532553,0.05224664,0.0,0.0,0.0,0.0,-1073.1786,-702.6315,-436.54288,-285.80273,0.0,0.0,0.0,2.0,1.0,-2.2703855,0.028219186,0.0073287487,89.0,89.0,89.0,89.0,21.02244,21.02244,23.278507,23.278507,0.019142535,0.019331701,-4.2586424E-4,-4.712279E-4,1100.715,0.0,0.0,0.0,0.0,0.0,0.0,0.0,0.0,0.0,0.0,0.0,0.0,0.0,-63.411194,-0.27459738,-53.073235,-0.040770873,0.022523068,0.024387889,544896.56,119984.89,0.012411781,0.020574613,7087.685,6795.4287,6356.9155,5977.615,0.3126669,0.0,0.0,0.0
241.3164,17753.754,3.083,0.0,0.0,298.10638,10739.0,100.0,0.0,-0.31741947,0.0,8.0,1.0,0.0,4000000.0,110.0,1.0,0.0,0.0,10.0,0.0,0.0,-329.73135,38.31134,302.33334,-0.06786403,0.23956713,-0.19627388,303.6946,303.8584,297.8787,298.05984,295.0,295.0,352.0,351.0,89.0,89.0,89.0,89.0,0.0,0.0,0.0,0.0,0.037598778,0.036849108,0.053079452,0.052818555,0.0,0.0,0.0,0.0,1622.1462,1622.3741,245.77078,222.81108,0.0,0.0,0.0,2.0,1.0,-2.2689316,0.028913584,0.008584142,89.0,89.0,89.0,89.0,21.02244,21.02244,23.278507,23.278507,0.01914855,0.019114867,-4.5509575E-4,-4.5428198E-4,1102.5017,0.0,0.0,0.0,0.0,0.0,0.0,0.0,0.0,0.0,0.0,0.0,0.0,0.0,-63.463623,-0.39647126,-53.190838,-0.012855368,0.031183356,-0.0056214025,545120.4,119984.9,0.01243686,0.022793615,7057.556,7012.7476,6543.0205,6462.676,0.3141842,0.0,0.0,0.0
245.46484,17757.902,3.133,0.0,0.0,298.5442,10747.0,100.0,0.0,-0.033603564,0.0,8.0,1.0,0.0,4000000.0,110.0,1.0,0.0,0.0,10.0,0.0,0.0,-332.90677,38.28712,299.6717,0.014332317,0.25481036,-0.072242424,303.9684,304.03384,298.34784,298.45615,293.0,293.0,351.0,350.0,89.0,89.0,89.0,89.0,0.0,0.0,0.0,0.0,0.037427284,0.037570983,0.05310033,0.05326165,0.0,0.0,0.0,0.0,3227.6895,2766.8994,595.0346,448.19708,0.0,0.0,0.0,2.0,1.0,-2.267691,0.029645544,0.0087224245,89.0,89.0,89.0,89.0,21.02244,21.02244,23.278507,23.278507,0.018467097,0.01838429,-4.7938895E-4,-4.551134E-4,1103.609,0.0,0.0,0.0,0.0,0.0,0.0,0.0,0.0,0.0,0.0,0.0,0.0,0.0,-63.55587,-0.52123374,-53.26903,4.991391E-4,0.01696023,-0.016554438,545261.7,119984.9,0.0065192324,0.01755487,7433.629,7489.429,6782.6123,6879.052,0.30706596,0.0,0.0,0.0
249.6211,17762.059,3.183,0.0,0.0,298.99167,10757.0,100.0,0.0,0.3578613,0.0,8.0,1.0,0.0,4000000.0,110.0,1.0,0.0,0.0,10.0,0.0,0.0,-336.08737,38.26128,297.00647,0.004370421,0.25134856,-0.0072656693,304.28833,304.25845,298.85373,298.856,292.0,292.0,349.0,349.0,89.0,89.0,89.0,89.0,0.0,0.0,0.0,0.0,0.041068964,0.0415438,0.053102486,0.05332141,0.0,0.0,0.0,0.0,-1779.3503,-2201.4094,-64.72169,-431.64783,0.0,0.0,0.0,2.0,1.0,-2.2672372,0.029960847,0.008658409,89.0,89.0,89.0,89.0,21.02244,21.02244,23.278507,23.278507,0.017703287,0.017642839,-4.9404043E-4,-4.355284E-4,1104.9799,0.0,0.0,0.0,0.0,0.0,0.0,0.0,0.0,0.0,0.0,0.0,0.0,0.0,-63.659447,-0.5157791,-53.339012,-0.015326591,-0.001445463,0.022623453,545431.5,119984.89,0.0056970995,0.01170408,7840.994,7949.701,6460.1416,6544.8125,0.30288887,0.0,0.0,0.0
253.78125,17766.219,3.233,0.0,0.0,299.41,10781.0,100.0,0.0,0.7208425,0.0,8.0,1.0,0.0,4000000.0,110.0,1.0,0.0,0.0,10.0,0.0,0.0,-339.2724,38.235123,294.33707,-0.09883715,0.22297856,-0.13941409,305.00058,304.89334,299.37598,299.1814,291.0,291.0,348.0,347.0,89.0,89.0,89.0,89.0,0.0,0.0,0.0,0.0,0.04099964,0.04108506,0.05335777,0.052990828,0.0,0.0,0.0,0.0,-3481.976,-4314.574,-1386.3934,-2226.2468,0.0,0.0,0.0,2.0,1.0,-2.268202,0.029428199,0.010819793,89.0,89.0,89.0,89.0,21.02244,21.02244,23.278507,23.278507,0.01826244,0.018564008,-4.7234658E-4,-4.1844553E-4,1108.2809,0.0,0.0,0.0,0.0,0.0,0.0,0.0,0.0,0.0,0.0,0.0,0.0,0.0,-63.72953,-0.53975636,-53.43606,-0.023936456,-0.03423435,0.046263397,545843.06,119984.9,0.009417627,0.016587146,7370.7256,7273.9897,6535.611,6291.677,0.30783844,0.0,0.0,0.0
257.94922,17770.387,3.283,0.0,0.0,299.809,10807.0,100.0,0.0,0.62494653,0.0,8.0,1.0,0.0,4000000.0,110.0,1.0,0.0,0.0,10.0,0.0,0.0,-342.46,38.20294,291.66217,-0.1877607,0.2364317,-0.45513475,305.7491,305.6194,299.81253,299.5385,290.0,290.0,347.0,346.0,89.0,89.0,89.0,89.0,0.0,0.0,0.0,0.0,0.036886007,0.03656843,0.0528293,0.051993996,0.0,0.0,0.0,0.0,2737.878,2448.8162,1296.1907,723.727,0.0,0.0,0.0,2.0,1.0,-2.2703013,0.029647106,0.013402462,89.0,89.0,89.0,89.0,21.02244,21.02244,23.278507,23.278507,0.019473203,0.019892389,-4.5514535E-4,-4.4038246E-4,1111.8718,0.0,0.0,0.0,0.0,0.0,0.0,0.0,0.0,0.0,0.0,0.0,0.0,0.0,-63.768425,-0.751488,-53.559574,-0.03453864,-0.046359472,0.027964,546294.2,119984.9,0.013285834,0.022981644,6709.5137,6533.209,6222.8525,5796.8823,0.313632,0.0,0.0,0.0
262.1211,17774.559,3.333,0.0,0.0,300.21655,10814.0,100.0,0.0,0.11748984,0.0,8.0,1.0,0.0,4000000.0,110.0,1.0,0.0,0.0,10.0,0.0,0.0,-345.6491,38.1606,288.98047,-0.20329304,0.2335297,-0.22894889,305.91388,305.85736,300.1704,299.98843,289.0,288.0,346.0,345.0,89.0,89.0,89.0,89.0,0.0,0.0,0.0,0.0,0.036264054,0.036023036,0.05327712,0.05221448,0.0,0.0,0.0,0.0,2727.565,1849.8254,959.3053,337.7437,0.0,0.0,0.0,2.0,1.0,-2.2722418,0.030675313,0.014851332,89.0,89.0,89.0,89.0,21.02244,21.02244,23.278507,23.278507,0.018843403,0.019156687,-4.3461277E-4,-4.7251233E-4,1112.8508,0.0,0.0,0.0,0.0,0.0,0.0,0.0,0.0,0.0,0.0,0.0,0.0,0.0,-63.794228,-0.91416657,-53.70227,-0.030889623,-0.029210074,-0.0040721074,546421.25,119984.9,0.013485001,0.023766464,7201.927,6984.6987,6694.7227,6177.8457,0.31472492,0.0,0.0,0.0
266.29883,17778.736,3.383,0.0,0.0,300.6147,10821.0,100.0,0.0,-0.1534381,0.0,8.0,1.0,0.0,4000000.0,110.0,1.0,0.0,0.0,10.0,0.0,0.0,-348.83957,38.113262,286.29175,-0.15754166,0.22728644,-0.07035126,306.06274,306.08307,300.48593,300.46075,287.0,287.0,344.0,344.0,89.0,89.0,89.0,89.0,0.0,0.0,0.0,0.0,0.0382433,0.038159717,0.053899597,0.052774597,0.0,0.0,0.0,0.0,1567.4559,-445.70248,-210.27173,-1357.9083,0.0,0.0,0.0,2.0,1.0,-2.2729836,0.032648154,0.014547706,89.0,89.0,89.0,89.0,21.02244,21.02244,23.278507,23.278507,0.018177358,0.01835282,-4.4242796E-4,-4.7155563E-4,1113.8116,0.0,0.0,0.0,0.0,0.0,0.0,0.0,0.0,0.0,0.0,0.0,0.0,0.0,-63.82526,-0.96669054,-53.83617,-0.033196956,-0.0043081916,-0.05155776,546539.25,119984.9,0.011425943,0.02105031,7569.5776,7381.426,6972.3438,6391.894,0.31300163,0.0,0.0,0.0
270.48242,17782.92,3.433,0.0,0.0,301.01425,10828.0,100.0,0.0,-0.053024407,0.0,8.0,1.0,0.0,4000000.0,110.0,1.0,0.0,0.0,10.0,0.0,0.0,-352.0321,38.065414,283.59686,-0.09635778,0.22443378,0.1385049,306.264,306.2954,300.8483,300.89374,286.0,286.0,343.0,342.0,89.0,89.0,89.0,89.0,0.0,0.0,0.0,0.0,0.040939517,0.041599624,0.054021068,0.053706773,0.0,0.0,0.0,0.0,378.67422,-1031.2556,662.69324,-633.028,0.0,0.0,0.0,2.0,1.0,-2.2727864,0.035112616,0.013468742,89.0,89.0,89.0,89.0,21.02244,21.02244,23.278507,23.278507,0.017586926,0.017541412,-4.64526E-4,-4.574547E-4,1114.7977,0.0,0.0,0.0,0.0,0.0,0.0,0.0,0.0,0.0,0.0,0.0,0.0,0.0,-63.875023,-0.9329366,-53.949894,-0.0042387024,0.006212392,-0.039441273,546669.5,119984.89,0.008707089,0.016459389,7946.1836,7970.8057,7220.628,7061.371,0.30883694,0.0,0.0,0.0
274.67188,17787.11,3.483,0.0,0.0,301.43207,10845.0,100.0,0.0,0.14580086,0.0,8.0,1.0,0.0,4000000.0,110.0,1.0,0.0,0.0,10.0,0.0,0.0,-355.22757,38.016167,280.8967,-0.07150127,0.24163227,-0.015632946,306.7558,306.768,301.2964,301.29053,285.0,285.0,342.0,341.0,89.0,89.0,89.0,89.0,0.0,0.0,0.0,0.0,0.04098235,0.041203745,0.053546887,0.05322097,0.0,0.0,0.0,0.0,2130.304,442.10846,1279.6146,872.76385,0.0,0.0,0.0,2.0,1.0,-2.2726212,0.03587896,0.014059663,89.0,89.0,89.0,89.0,21.02244,21.02244,23.278507,23.278507,0.017671179,0.01778651,-4.7628762E-4,-4.5477535E-4,1117.1531,0.0,0.0,0.0,0.0,0.0,0.0,0.0,0.0,0.0,0.0,0.0,0.0,0.0,-63.94078,-1.00495,-54.05061,-0.02415672,-0.0014421738,0.006547287,546965.75,119984.9,0.0039075394,0.012231128,7848.683,7768.5244,6973.1904,6809.636,0.30374432,0.0,0.0,0.0
278.8672,17791.305,3.533,0.0,0.0,301.66068,10857.0,100.0,0.0,0.4012796,0.0,8.0,1.0,0.0,4000000.0,110.0,1.0,0.0,0.0,10.0,0.0,0.0,-358.4259,37.966595,278.19165,-0.08141852,0.07156392,0.1159638,307.0922,307.10532,301.6309,301.59454,284.0,283.0,341.0,340.0,89.0,89.0,89.0,89.0,0.0,0.0,0.0,0.0,0.04193141,0.04172461,0.053171,0.053122357,0.0,0.0,0.0,0.0,-146.82402,-1033.6294,-1870.1565,-1984.6602,0.0,0.0,0.0,2.0,1.0,-2.272998,0.03609171,0.01432848,89.0,89.0,89.0,89.0,21.02244,21.02244,23.278507,23.278507,0.017669998,0.017837962,-5.1712216E-4,-4.5160067E-4,1118.8135,0.0,0.0,0.0,0.0,0.0,0.0,0.0,0.0,0.0,0.0,0.0,0.0,0.0,-63.96258,-0.94304246,-54.124294,1.3143197E-4,-1.5301254E-4,-0.0041239583,547173.25,119984.89,0.0028635631,0.009258364,7878.5986,7773.0234,6186.613,6187.5547,0.30015564,0.0,0.0,0.0
283.0664,17795.504,3.583,0.0,0.0,302.07977,10875.0,100.0,0.0,0.54470176,0.0,8.0,1.0,0.0,4000000.0,110.0,1.0,0.0,0.0,10.0,0.0,0.0,-361.62564,37.917213,275.4824,-0.12376039,0.20994574,-0.1782575,307.63226,307.61914,302.0233,301.87662,282.0,282.0,339.0,339.0,89.0,89.0,89.0,89.0,0.0,0.0,0.0,0.0,0.041948188,0.041412186,0.053101785,0.053005926,0.0,0.0,0.0,0.0,-5966.2515,-6763.967,-2768.3342,-3838.1333,0.0,0.0,0.0,2.0,1.0,-2.2737029,0.03512928,0.016609073,89.0,89.0,89.0,89.0,21.02244,21.02244,23.278507,23.278507,0.018017154,0.018437644,-4.5809805E-4,-4.2359703E-4,1121.3268,0.0,0.0,0.0,0.0,0.0,0.0,0.0,0.0,0.0,0.0,0.0,0.0,0.0,-64.01706,-1.0138166,-54.238842,-0.017571758,-0.02384067,0.07124788,547494.75,119984.9,0.008054288,0.0149375545,7438.9297,7222.3843,6403.0273,6312.1084,0.30363846,0.0,0.0,0.0
