LapDistance [m],TotalDistance [m],LapTime [s],Sector1Time [s],Sector2Time [s],Speed [km/h],EngineRevs [rpm],ThrottlePercentage [%],BrakePercentage [%],Steer [%],Clutch [%],Gear [int],DRS [0/1],CanUseDRS [0/1],KERSLevel [J],EngineTemperature [C],RacePosition [int],Sector [int],InPits [int],FuelRemaining [kg],CurrentFlag [int],CurrentLapInvalid [int],X [m],Y [m],Z [m],GForceLatitudinal [G],GForceLongitudinal [G],GForceVertical [G],WheelSpeedRearLeft [km/h],WheelSpeedRearRight [km/h],WheelSpeedFrontLeft [km/h],WheelSpeedFrontRight [km/h],BrakeTemperatureRearLeft [C],BrakeTemperatureRearRight [C],BrakeTemperatureFrontLeft [C],BrakeTemperatureFrontRight [C],TyreTemperatureRearLeft [C],TyreTemperatureRearRight [C],TyreTemperatureFrontLeft [C],TyreTemperatureFrontRight [C],TyreWearRearLeft [%],TyreWearRearRight [%],TyreWearFrontLeft [%],TyreWearFrontRight [%],SuspensionPositionRearLeft [m],SuspensionPositionRearRight [m],SuspensionPositionFrontLeft [m],SuspensionPositionFrontRight [m],SuspensionVelocityRearLeft [m/s],SuspensionVelocityRearRight [m/s],SuspensionVelocityFrontLeft [m/s],SuspensionVelocityFrontRight [m/s],SuspensionAccelerationRearLeft [m/s^2],SuspensionAccelerationRearRight [m/s^2],SuspensionAccelerationFrontLeft [m/s^2],SuspensionAccelerationFrontRight [m/s^2],MGUKHarvested [J],MGUHHarvested [J],ERSSpent [J],ERSMode [int],FuelMixMode [int],Yaw [rad],Roll [rad],Pitch [rad],TyreCarcassTemperatureRearLeft [C],TyreCarcassTemperatureRearRight [C],TyreCarcassTemperatureFrontLeft [C],TyreCarcassTemperatureFrontRight [C],TyrePressureRearLeft [PSI],TyrePressureRearRight [PSI],TyrePressureFrontLeft [PSI],TyrePressureFrontRight [PSI],WheelSlipRearLeft [%],WheelSlipRearRight [%],WheelSlipFrontLeft [%],WheelSlipFrontRight [%],Torque [Nm],Handbrake [%],RearLeftInside [C],RearLeftMiddle [C],RearLeftOutside [C],RearRightInside [C],RearRightMiddle [C],RearRightOutside [C],FrontLeftInside [C],FrontLeftMiddle [C],FrontLeftOutside [C],FrontRightInside [C],FrontRightMiddle [C],FrontRightOutside [C],WoldSpeedX [km/h],WoldSpeedY [km/h],WoldSpeedZ [km/h],LocalAngularVelocityX [rad/s],LocalAngularVelocityY [rad/s],LocalAngularVelocityZ [rad/s],IcePower [W],MgukPower [W],FrontRideHeight [m],RearRideHeight [m],LoadRearLeft [N],LoadRearRight [N],LoadFrontLeft [N],LoadFrontRight [N],Extra1 [m],Extra2 [],Extra3 [],Extra4 []
0.74609375,8756.965,0.0,0.0,0.0,264.32983,10677.0,100.0,0.0,-0.09307091,0.0,7.0,1.0,0.0,4000000.0,110.0,1.0,0.0,0.0,10.0,0.0,0.0,-143.96004,38.365376,454.86597,0.04920745,0.5008184,-0.04293808,270.15182,270.1353,264.16672,264.19952,385.0,385.0,446.0,447.0,89.0,89.0,89.0,89.0,0.0,0.0,0.0,0.0,0.03524053,0.0353708,0.05170836,0.05208515,2.2711604,4.7434864,7.8510494,8.806139,1584.6622,1946.4923,1570.2858,2013.8827,0.0,0.0,0.0,2.0,1.0,-2.2698722,0.037172858,0.004795313,89.0,89.0,89.0,89.0,21.02244,21.02244,23.278507,23.278507,0.022182109,0.022019893,-5.4927304E-4,-5.494068E-4,1093.938,0.0,0.0,0.0,0.0,0.0,0.0,0.0,0.0,0.0,0.0,0.0,0.0,0.0,-56.15652,-0.13613665,-47.303806,0.0025956715,0.0053773685,-0.0034688078,544027.0,119984.9,0.016925605,0.026469197,6707.663,6797.55,5620.835,5801.256,0.31341743,0.0,0.0,0.0
4.4453125,8760.664,0.05,0.0,0.0,265.19937,10706.0,100.0,0.0,-0.075472675,0.0,7.0,1.0,0.0,4000000.0,110.0,1.0,0.0,0.0,10.0,0.0,0.0,-146.77309,38.35941,452.49716,0.04597594,0.49445584,0.13217595,270.878,270.87296,265.0325,265.0708,383.0,383.0,444.0,445.0,89.0,89.0,89.0,89.0,0.0,0.0,0.0,0.0,0.036759365,0.037141316,0.05226101,0.052694254,32.148956,29.37421,18.55284,14.02974,-172.72086,-971.54956,1059.5931,522.5613,0.0,0.0,0.0,2.0,1.0,-2.2695713,0.03689221,0.0043441057,89.0,89.0,89.0,89.0,21.02244,21.02244,23.278507,23.278507,0.021556549,0.021418007,-5.489817E-4,-5.4159464E-4,1097.9302,0.0,0.0,0.0,0.0,0.0,0.0,0.0,0.0,0.0,0.0,0.0,0.0,0.0,-56.35652,-0.09477406,-47.441395,0.017181292,0.005729603,-0.0040723872,544533.4,119984.91,0.01293809,0.023506537,7018.568,7092.9746,6095.874,6272.0366,0.3104229,0.0,0.0,0.0
6.916992,8763.136,0.1,0.0,0.0,265.7775,10725.0,100.0,0.0,-0.15873714,0.0,7.0,1.0,0.0,4000000.0,110.0,1.0,0.0,0.0,10.0,0.0,0.0,-148.65398,38.357063,450.91412,0.054601252,0.4935661,0.14783037,271.3437,271.3649,265.60635,265.647,382.0,382.0,443.0,444.0,89.0,89.0,89.0,89.0,0.0,0.0,0.0,0.0,0.03773807,0.037879054,0.05242945,0.053048186,0.0,0.0,0.0,0.0,537.84985,451.18774,-431.44666,-68.369514,0.0,0.0,0.0,2.0,1.0,-2.2693923,0.036452074,0.0035663843,89.0,89.0,89.0,89.0,21.02244,21.02244,23.278507,23.278507,0.021129599,0.021050442,-5.4504565E-4,-5.521658E-4,1100.5476,0.0,0.0,0.0,0.0,0.0,0.0,0.0,0.0,0.0,0.0,0.0,0.0,0.0,-56.489204,-0.04826579,-47.5332,0.031989783,0.0061448496,-0.010374445,544864.56,119984.9,0.010539481,0.02092581,7211.0034,7251.501,6079.0723,6383.711,0.30739117,0.0,0.0,0.0
11.87793,8768.097,0.15,0.0,0.0,266.9379,10761.0,100.0,0.0,-0.16445628,0.0,7.0,1.0,0.0,4000000.0,110.0,1.0,0.0,0.0,10.0,0.0,0.0,-152.42899,38.35765,447.73868,0.053994596,0.4937991,0.39111575,272.25317,272.29144,266.77036,266.81082,380.0,380.0,441.0,442.0,89.0,89.0,89.0,89.0,0.0,0.0,0.0,0.0,0.04075042,0.04065297,0.052648805,0.05347145,99.02201,93.45665,21.270586,36.850197,5378.9683,4528.896,2024.8263,2783.8242,0.0,0.0,0.0,2.0,1.0,-2.2690973,0.035214372,0.002163887,89.0,89.0,89.0,89.0,21.02244,21.02244,23.278507,23.278507,0.019961461,0.019950932,-5.312479E-4,-5.382661E-4,1105.53,0.0,0.0,0.0,0.0,0.0,0.0,0.0,0.0,0.0,0.0,0.0,0.0,0.0,-56.751762,0.08292565,-47.721756,0.028313756,0.0068111946,0.008084298,545500.2,119984.9,0.009151278,0.016272938,7959.3584,7953.464,6551.6084,6891.706,0.30221844,0.0,0.0,0.0
15.611328,8771.83,0.2,0.0,0.0,267.76025,10816.0,100.0,0.0,-0.029814674,0.0,7.0,1.0,0.0,4000000.0,110.0,1.0,0.0,0.0,10.0,0.0,0.0,-155.27158,38.362705,445.34915,0.037005693,0.46320793,-0.24987264,273.65665,273.71606,267.60117,267.64047,379.0,379.0,440.0,441.0,89.0,89.0,89.0,89.0,0.0,0.0,0.0,0.0,0.038866434,0.038434435,0.051502936,0.05211301,-82.88048,-89.19194,-26.376842,-32.71803,-2152.7676,-2240.4355,41.35963,-147.82985,0.0,0.0,0.0,2.0,1.0,-2.2686827,0.03363162,0.0033870935,89.0,89.0,89.0,89.0,21.02244,21.02244,23.278507,23.278507,0.021963978,0.02206812,-5.431452E-4,-5.2965764E-4,1113.1505,0.0,0.0,0.0,0.0,0.0,0.0,0.0,0.0,0.0,0.0,0.0,0.0,0.0,-56.9409,0.06559785,-47.851795,-0.01255692,0.008110536,0.063910566,546467.4,119984.9,0.014306839,0.021756226,6589.8193,6526.8887,5090.632,5344.465,0.30747223,0.0,0.0,0.0
19.356445,8775.575,0.25,0.0,0.0,268.58044,10857.0,100.0,0.0,-0.08017678,0.0,7.0,1.0,0.0,4000000.0,110.0,1.0,0.0,0.0,10.0,0.0,0.0,-158.1239,38.36206,442.95343,0.052300513,0.46486175,-0.3071662,274.68115,274.74933,268.40735,268.4711,377.0,377.0,438.0,439.0,89.0,89.0,89.0,89.0,0.0,0.0,0.0,0.0,0.03478331,0.034447428,0.05118186,0.051881842,-57.685818,-55.641975,-1.4108418,-3.2828002,1367.4034,823.10297,937.15027,-329.8312,0.0,0.0,0.0,2.0,1.0,-2.2681036,0.032702304,0.0058094263,89.0,89.0,89.0,89.0,21.02244,21.02244,23.278507,23.278507,0.02285871,0.022880035,-5.38647E-4,-5.269002E-4,1118.8171,0.0,0.0,0.0,0.0,0.0,0.0,0.0,0.0,0.0,0.0,0.0,0.0,0.0,-57.137928,-0.08470639,-47.97142,-0.0069715995,0.011841646,0.04672469,547175.06,119984.89,0.01848062,0.027788937,6219.1772,6201.635,5217.6187,5498.827,0.3143139,0.0,0.0,0.0
23.112305,8779.331,0.3,0.0,0.0,269.39337,10883.0,100.0,0.0,-0.09801009,0.0,7.0,1.0,0.0,4000000.0,110.0,1.0,0.0,0.0,10.0,0.0,0.0,-160.98611,38.3546,440.55182,0.06520665,0.460503,-0.15338044,275.3341,275.38608,269.2139,269.27972,375.0,375.0,437.0,438.0,89.0,89.0,89.0,89.0,0.0,0.0,0.0,0.0,0.03371224,0.03361706,0.051615592,0.05218519,7.3550634,6.9151816,11.876597,4.0061026,2252.693,977.3566,401.473,-559.9513,0.0,0.0,0.0,2.0,1.0,-2.2674966,0.03174804,0.0066263676,89.0,89.0,89.0,89.0,21.02244,21.02244,23.278507,23.278507,0.022290828,0.022274375,-5.372E-4,-5.2751676E-4,1122.4121,0.0,0.0,0.0,0.0,0.0,0.0,0.0,0.0,0.0,0.0,0.0,0.0,0.0,-57.335533,-0.19211364,-48.08692,0.019051753,0.0108158905,0.010323442,547621.8,119984.89,0.019743128,0.030151477,6513.549,6510.902,5608.1694,5824.591,0.31617928,0.0,0.0,0.0
26.879883,8783.099,0.35,0.0,0.0,270.19662,10912.0,100.0,0.0,-0.032861635,0.0,7.0,1.0,0.0,4000000.0,110.0,1.0,0.0,0.0,10.0,0.0,0.0,-163.85799,38.34256,438.14438,0.059907347,0.46610808,-0.13919424,276.0999,276.07938,270.0355,270.0666,374.0,374.0,435.0,436.0,89.0,89.0,89.0,89.0,0.0,0.0,0.0,0.0,0.034042522,0.034274943,0.051701643,0.05200646,11.380388,21.631344,21.759418,19.29648,2472.071,2109.0073,3026.658,3153.486,0.0,0.0,0.0,2.0,1.0,-2.2671115,0.031346675,0.0065894127,89.0,89.0,89.0,89.0,21.02244,21.02244,23.278507,23.278507,0.022046417,0.021881854,-5.402566E-4,-5.3157285E-4,1126.4387,0.0,0.0,0.0,0.0,0.0,0.0,0.0,0.0,0.0,0.0,0.0,0.0,0.0,-57.52857,-0.28749305,-48.203495,0.001964816,0.0048513995,8.1693626E-4,548125.75,119984.9,0.017340008,0.027888924,6616.6924,6718.293,5745.957,5879.9824,0.31464672,0.0,0.0,0.0
29.396484,8785.615,0.4,0.0,0.0,270.73532,10918.0,100.0,0.0,0.2396191,0.0,7.0,1.0,0.0,4000000.0,110.0,1.0,0.0,0.0,10.0,0.0,0.0,-165.77786,38.33363,436.53607,0.023419559,0.4552659,0.26339805,276.2759,276.2288,270.5911,270.58133,373.0,373.0,434.0,435.0,89.0,89.0,89.0,89.0,0.0,0.0,0.0,0.0,0.037315,0.037648693,0.052806586,0.05307078,0.0,0.0,0.0,0.0,4918.0576,4826.715,-142.93475,-301.6547,0.0,0.0,0.0,2.0,1.0,-2.267078,0.03133983,0.0057240725,89.0,89.0,89.0,89.0,21.02244,21.02244,23.278507,23.278507,0.020502392,0.020396737,-5.4396E-4,-5.0567667E-4,1127.2976,0.0,0.0,0.0,0.0,0.0,0.0,0.0,0.0,0.0,0.0,0.0,0.0,0.0,-57.650757,-0.23362401,-48.29095,0.029557005,-0.0045773373,-0.03181895,548242.25,119984.89,0.014592051,0.024272159,7482.144,7583.1323,6605.948,6715.542,0.31105614,0.0,0.0,0.0
34.44629,8790.665,0.45,0.0,0.0,271.7836,10955.0,100.0,0.0,0.35588193,0.0,7.0,1.0,0.0,4000000.0,110.0,1.0,0.0,0.0,10.0,0.0,0.0,-169.62875,38.32491,433.30988,-0.054090843,0.44377235,0.24545585,277.20856,277.12805,271.69232,271.57773,371.0,371.0,432.0,433.0,89.0,89.0,89.0,89.0,0.0,0.0,0.0,0.0,0.041463096,0.04143239,0.053193565,0.053116884,28.004272,18.680468,-1.7061083,-8.73506,-577.46606,-711.79114,11.882185,-162.66254,0.0,0.0,0.0,2.0,1.0,-2.2680173,0.03098293,0.00282979,89.0,89.0,89.0,89.0,21.02244,21.02244,23.278507,23.278507,0.019797597,0.019919587,-5.388036E-4,-5.223647E-4,1132.4244,0.0,0.0,0.0,0.0,0.0,0.0,0.0,0.0,0.0,0.0,0.0,0.0,0.0,-57.861763,-0.04609722,-48.49305,0.022507608,-0.021204636,-0.016991103,548875.5,119984.9,0.0120378025,0.018682582,7753.87,7726.3887,6398.5737,6338.6016,0.3076563,0.0,0.0,0.0
38.246094,8794.465,0.5,0.0,0.0,272.55704,10988.0,100.0,0.0,0.2396855,0.0,7.0,1.0,0.0,4000000.0,110.0,1.0,0.0,0.0,10.0,0.0,0.0,-172.52554,38.325333,430.8808,-0.08837706,0.4383524,0.21873955,278.058,277.9948,272.47113,272.34967,369.0,369.0,431.0,432.0,89.0,89.0,89.0,89.0,0.0,0.0,0.0,0.0,0.041327838,0.04114632,0.053298935,0.05305192,-9.761452,-10.8817215,9.401813,8.200853,98.2493,165.68,754.55896,875.8886,0.0,0.0,0.0,2.0,1.0,-2.2691095,0.03083943,0.0020879507,89.0,89.0,89.0,89.0,21.02244,21.02244,23.278507,23.278507,0.020028139,0.020202681,-5.230614E-4,-5.287983E-4,1137.0577,0.0,0.0,0.0,0.0,0.0,0.0,0.0,0.0,0.0,0.0,0.0,0.0,0.0,-57.99993,0.054720514,-48.662647,0.0111389905,-0.021051787,-0.010059609,549466.06,119984.9,0.0114153465,0.018394694,7598.009,7525.7793,6615.9365,6502.409,0.30726242,0.0,0.0,0.0
42.05664,8798.275,0.55,0.0,0.0,273.32037,11022.0,100.0,0.0,0.021626119,0.0,7.0,1.0,0.0,4000000.0,110.0,1.0,0.0,0.0,10.0,0.0,0.0,-175.42905,38.329945,428.4431,-0.084401846,0.43255642,0.053200178,278.90353,278.8766,273.21,273.13898,368.0,368.0,429.0,430.0,89.0,89.0,89.0,89.0,0.0,0.0,0.0,0.0,0.040515173,0.040309347,0.053009,0.052683357,-21.478235,-20.809471,-10.53594,-10.533034,-150.3781,-102.67501,-168.73778,-80.814964,0.0,0.0,0.0,2.0,1.0,-2.2699475,0.03094935,0.0014569759,89.0,89.0,89.0,89.0,21.02244,21.02244,23.278507,23.278507,0.020342957,0.020470355,-5.146056E-4,-5.3847034E-4,1141.0236,0.0,0.0,0.0,0.0,0.0,0.0,0.0,0.0,0.0,0.0,0.0,0.0,0.0,-58.132824,0.11042648,-48.83403,-0.0028360146,-0.011300941,-0.007232017,549681.6,119984.89,0.012195728,0.019240668,7381.6904,7308.552,6183.9375,6036.3667,0.30774307,0.0,0.0,0.0
45.876953,8802.096,0.6,0.0,0.0,274.081,11057.0,100.0,0.0,-0.038112268,0.0,7.0,1.0,0.0,4000000.0,110.0,1.0,0.0,0.0,10.0,0.0,0.0,-178.33934,38.33499,425.9971,-0.06323826,0.4320504,-0.015998045,279.75748,279.7562,273.94278,273.9301,366.0,366.0,428.0,429.0,89.0,89.0,89.0,89.0,0.0,0.0,0.0,0.0,0.0390204,0.03892656,0.052759588,0.05253519,-22.68791,-20.849703,3.266707,1.2751667,486.05652,464.04898,347.35944,66.43831,0.0,0.0,0.0,2.0,1.0,-2.2702072,0.031246271,0.0017706156,89.0,89.0,89.0,89.0,21.02244,21.02244,23.278507,23.278507,0.020742452,0.020780176,-5.1921513E-4,-5.3067156E-4,1144.7228,0.0,0.0,0.0,0.0,0.0,0.0,0.0,0.0,0.0,0.0,0.0,0.0,0.0,-58.272686,0.095084876,-48.996033,-0.009847093,-0.0014849695,2.3196917E-4,549718.06,119984.89,0.011530649,0.019774104,7148.73,7119.7344,6194.675,6082.3765,0.3072939,0.0,0.0,0.0
49.70703,8805.926,0.65,0.0,0.0,274.83698,11087.0,100.0,0.0,-0.03339759,0.0,7.0,1.0,0.0,4000000.0,110.0,1.0,0.0,0.0,10.0,0.0,0.0,-181.2569,38.339256,423.54324,-0.036519617,0.42446607,-0.051854007,280.53668,280.53864,274.69028,274.69937,365.0,365.0,426.0,427.0,89.0,89.0,89.0,89.0,0.0,0.0,0.0,0.0,0.038379367,0.03846836,0.0525954,0.052478515,-11.518075,-11.437609,-1.8332897,0.10393559,17.246645,-281.994,176.42229,91.718124,0.0,0.0,0.0,2.0,1.0,-2.2701573,0.031655863,0.0024706125,89.0,89.0,89.0,89.0,21.02244,21.02244,23.278507,23.278507,0.020748336,0.02073163,-5.19953E-4,-5.2216E-4,1147.8972,0.0,0.0,0.0,0.0,0.0,0.0,0.0,0.0,0.0,0.0,0.0,0.0,0.0,-58.419914,0.073966764,-49.147266,-0.020545857,0.0022987851,0.010057224,549750.94,119984.91,0.012019124,0.020205582,7099.6616,7102.67,6051.796,6003.9014,0.30780697,0.0,0.0,0.0
52.265625,8808.484,0.7,0.0,0.0,275.33304,11107.0,100.0,0.0,-0.0216038,0.0,7.0,1.0,0.0,4000000.0,110.0,1.0,0.0,0.0,10.0,0.0,0.0,-183.20605,38.341316,421.9033,-0.02344884,0.4232642,-0.012927551,281.03894,281.034,275.18536,275.1954,364.0,364.0,425.0,426.0,89.0,89.0,89.0,89.0,0.0,0.0,0.0,0.0,0.037952445,0.038075455,0.052692935,0.052633822,0.0,0.0,0.0,0.0,1177.7444,990.0568,703.9188,435.13474,0.0,0.0,0.0,2.0,1.0,-2.2700799,0.031977355,0.0030988455,89.0,89.0,89.0,89.0,21.02244,21.02244,23.278507,23.278507,0.020760173,0.020725675,-5.174909E-4,-5.170148E-4,1150.0118,0.0,0.0,0.0,0.0,0.0,0.0,0.0,0.0,0.0,0.0,0.0,0.0,0.0,-58.520256,0.056758974,-49.242058,-0.018197756,0.002108387,0.0036018658,549771.94,119984.89,0.012545561,0.0215118,7127.644,7138.5283,6249.279,6210.3027,0.3086071,0.0,0.0,0.0
57.39746,8813.616,0.749,0.0,0.0,276.30463,11149.0,100.0,0.0,-0.042440318,0.0,7.0,1.0,0.0,4000000.0,110.0,1.0,0.0,0.0,10.0,0.0,0.0,-187.11449,38.342537,418.61438,-0.0018191189,0.41609445,-0.13699874,282.09637,282.09476,276.1531,276.1686,362.0,362.0,423.0,424.0,89.0,89.0,89.0,89.0,0.0,0.0,0.0,0.0,0.03677703,0.037010428,0.052362733,0.052526813,-8.182749,-12.093633,1.8965452,1.9343196,1254.536,834.9179,603.67126,430.9907,0.0,0.0,0.0,2.0,1.0,-2.2698941,0.032366037,0.003919363,89.0,89.0,89.0,89.0,21.02244,21.02244,23.278507,23.278507,0.02105119,0.021002948,-5.182209E-4,-5.184876E-4,1154.4541,0.0,0.0,0.0,0.0,0.0,0.0,0.0,0.0,0.0,0.0,0.0,0.0,0.0,-58.72565,-0.02806737,-49.417168,-0.0059277546,0.0029404457,0.0079818,549816.5,119984.9,0.013480572,0.022913799,6900.698,6925.787,5959.962,6034.4917,0.30981255,0.0,0.0,0.0
61.256836,8817.476,0.799,0.0,0.0,277.02942,11174.0,100.0,0.0,-0.083321616,0.0,7.0,1.0,0.0,4000000.0,110.0,1.0,0.0,0.0,10.0,0.0,0.0,-190.05492,38.339878,416.1402,0.014735788,0.40894502,-0.03978251,282.72183,282.71497,276.87296,276.89767,360.0,360.0,422.0,423.0,89.0,89.0,89.0,89.0,0.0,0.0,0.0,0.0,0.03729339,0.037426673,0.05254438,0.052788224,19.612535,18.621906,5.5968757,7.7307963,495.21625,602.7191,74.10941,174.7727,0.0,0.0,0.0,2.0,1.0,-2.2697146,0.032278094,0.0042573214,89.0,89.0,89.0,89.0,21.02244,21.02244,23.278507,23.278507,0.02064471,0.020545088,-5.1412114E-4,-5.167939E-4,1157.0981,0.0,0.0,0.0,0.0,0.0,0.0,0.0,0.0,0.0,0.0,0.0,0.0,0.0,-58.883682,-0.06725422,-49.54203,-3.1669228E-4,0.004393604,0.0036136913,549842.8,119984.9,0.013104529,0.022249483,7095.788,7142.749,6136.8027,6255.7827,0.30930614,0.0,0.0,0.0
65.12695,8821.346,0.849,0.0,0.0,277.74118,11200.0,100.0,0.0,-0.120041005,0.0,7.0,1.0,0.0,4000000.0,110.0,1.0,0.0,0.0,10.0,0.0,0.0,-193.00327,38.33608,413.65994,0.028141677,0.40121225,-0.039732963,283.39862,283.38937,277.58115,277.6133,359.0,359.0,420.0,421.0,89.0,89.0,89.0,89.0,0.0,0.0,0.0,0.0,0.03798262,0.03818019,0.052597906,0.0528858,10.821818,14.051198,-2.6229768,-0.6052851,-338.72272,-107.81141,-341.99503,-181.9342,0.0,0.0,0.0,2.0,1.0,-2.2694728,0.03212353,0.0043029785,89.0,89.0,89.0,89.0,21.02244,21.02244,23.278507,23.278507,0.020465307,0.020325301,-5.1092816E-4,-5.162386E-4,1159.8506,0.0,0.0,0.0,0.0,0.0,0.0,0.0,0.0,0.0,0.0,0.0,0.0,0.0,-59.042286,-0.08396809,-49.660595,8.430203E-4,0.0057488205,0.004256231,549871.25,119984.9,0.012952293,0.02158957,7144.254,7217.017,6075.257,6215.924,0.3089037,0.0,0.0,0.0
69.00586,8825.225,0.899,0.0,0.0,278.44345,11227.0,100.0,0.0,-0.08289825,0.0,7.0,1.0,0.0,4000000.0,110.0,1.0,0.0,0.0,10.0,0.0,0.0,-195.9596,38.331455,411.1739,0.032513693,0.39608425,-0.00740434,284.0751,284.0643,278.2832,278.31638,357.0,357.0,419.0,420.0,89.0,89.0,89.0,89.0,0.0,0.0,0.0,0.0,0.038338523,0.038568724,0.05270906,0.052999493,8.960813,10.244697,3.5753844,4.0666757,108.91107,224.25946,40.00514,122.30872,0.0,0.0,0.0,2.0,1.0,-2.2691743,0.03195831,0.0044779778,89.0,89.0,89.0,89.0,21.02244,21.02244,23.278507,23.278507,0.02032156,0.02018298,-5.111958E-4,-5.100331E-4,1162.7069,0.0,0.0,0.0,0.0,0.0,0.0,0.0,0.0,0.0,0.0,0.0,0.0,0.0,-59.20161,-0.09632135,-49.7742,6.299623E-4,0.005618622,0.003273185,549899.75,119984.91,0.012753875,0.021242095,7202.1597,7278.6836,6217.7827,6352.521,0.30864334,0.0,0.0,0.0
72.89551,8829.114,0.949,0.0,0.0,279.1317,11252.0,100.0,0.0,-0.2451385,0.0,7.0,1.0,0.0,4000000.0,110.0,1.0,0.0,0.0,10.0,0.0,0.0,-198.9239,38.32723,408.6823,0.057541087,0.386963,0.023486082,284.71762,284.70346,278.96112,279.01276,356.0,356.0,417.0,418.0,89.0,89.0,89.0,89.0,0.0,0.0,0.0,0.0,0.038954668,0.03930965,0.052838918,0.05320256,6.306767,11.56099,-3.574714,0.082924955,-343.26907,-154.77687,-279.21793,-137.08769,0.0,0.0,0.0,2.0,1.0,-2.2688503,0.03198231,0.004168153,89.0,89.0,89.0,89.0,21.02244,21.02244,23.278507,23.278507,0.020144314,0.019922793,-4.9905124E-4,-5.1636493E-4,1165.3533,0.0,0.0,0.0,0.0,0.0,0.0,0.0,0.0,0.0,0.0,0.0,0.0,0.0,-59.362144,-0.077137455,-49.880375,0.0033683488,0.009180703,-0.0076014795,549926.8,119984.9,0.013251009,0.021215478,7278.2295,7389.73,6239.6543,6418.4443,0.30892944,0.0,0.0,0.0
76.79297,8833.012,0.999,0.0,0.0,279.80722,11279.0,100.0,0.0,-0.41453674,0.0,7.0,1.0,0.0,4000000.0,110.0,1.0,0.0,0.0,10.0,0.0,0.0,-201.89648,38.323547,406.18588,0.101110995,0.3800716,0.015360853,285.3831,285.39227,279.603,279.72427,354.0,354.0,416.0,417.0,89.0,89.0,89.0,89.0,0.0,0.0,0.0,0.0,0.03899121,0.039640386,0.052676693,0.053258736,-1.6039609,5.5401025,-2.3598967,3.3496318,-127.00256,-49.84883,55.079166,140.57455,0.0,0.0,0.0,2.0,1.0,-2.2680652,0.032172397,0.0039548874,89.0,89.0,89.0,89.0,21.02244,21.02244,23.278507,23.278507,0.020174125,0.01979697,-4.9580657E-4,-5.1365036E-4,1168.2102,0.0,0.0,0.0,0.0,0.0,0.0,0.0,0.0,0.0,0.0,0.0,0.0,0.0,-59.53334,-0.06992656,-49.968307,-7.295464E-4,0.021345614,-0.0032412657,549955.3,119984.9,0.013851467,0.021508856,7243.4287,7428.1113,6178.2847,6459.0664,0.3094511,0.0,0.0,0.0
80.700195,8836.919,1.049,0.0,0.0,280.47345,11306.0,100.0,0.0,-0.2917229,0.0,7.0,1.0,0.0,4000000.0,110.0,1.0,0.0,0.0,10.0,0.0,0.0,-204.87779,38.31995,403.68546,0.12048488,0.38222378,-0.014747312,286.06482,286.0717,280.2624,280.3944,353.0,353.0,414.0,415.0,89.0,89.0,89.0,89.0,0.0,0.0,0.0,0.0,0.03858302,0.039366633,0.05266128,0.053312402,-2.0255146,-0.22977589,4.238784,3.6281345,1194.0925,1080.1656,773.16003,587.2293,0.0,0.0,0.0,2.0,1.0,-2.266928,0.032136064,0.0036866665,89.0,89.0,89.0,89.0,21.02244,21.02244,23.278507,23.278507,0.020246394,0.019842321,-5.097986E-4,-5.035995E-4,1171.0677,0.0,0.0,0.0,0.0,0.0,0.0,0.0,0.0,0.0,0.0,0.0,0.0,0.0,-59.71163,-0.07801859,-50.04371,0.008182017,0.021949515,-0.005176977,549984.0,119984.9,0.012871781,0.021130012,7195.8135,7411.2812,6223.3066,6515.042,0.30870247,0.0,0.0,0.0
84.61621,8840.835,1.099,0.0,0.0,281.1374,11327.0,100.0,0.0,-0.25867635,0.0,7.0,1.0,0.0,4000000.0,110.0,1.0,0.0,0.0,10.0,0.0,0.0,-207.86818,38.31736,401.18143,0.13538682,0.37107885,0.12161491,286.59238,286.59384,280.9371,281.0456,351.0,351.0,413.0,414.0,89.0,89.0,89.0,89.0,0.0,0.0,0.0,0.0,0.040163,0.04102782,0.05303293,0.053674202,25.879963,31.299587,0.73537225,2.1200626,-1202.0452,-906.97546,-529.4009,-442.4169,0.0,0.0,0.0,2.0,1.0,-2.2659647,0.032206807,0.00285542,89.0,89.0,89.0,89.0,21.02244,21.02244,23.278507,23.278507,0.019625595,0.0192947,-5.0584023E-4,-5.013945E-4,1173.2903,0.0,0.0,0.0,0.0,0.0,0.0,0.0,0.0,0.0,0.0,0.0,0.0,0.0,-59.89339,-0.022430416,-50.11397,0.007507991,0.017664792,-0.016274787,550006.2,119984.9,0.011402317,0.018963551,7496.084,7746.9155,6435.0713,6730.8857,0.30684948,0.0,0.0,0.0
88.54199,8844.761,1.149,0.0,0.0,281.79007,11354.0,100.0,0.0,-0.09123401,0.0,7.0,1.0,0.0,4000000.0,110.0,1.0,0.0,0.0,10.0,0.0,0.0,-210.86748,38.31764,398.6738,0.10687944,0.367367,0.067704044,287.2769,287.25415,281.61972,281.6725,350.0,350.0,411.0,412.0,89.0,89.0,89.0,89.0,0.0,0.0,0.0,0.0,0.04068556,0.041525975,0.05301305,0.05357817,0.46201047,-4.0648875,-0.95888966,-4.908219,-659.877,-835.2398,-56.43367,-193.37384,0.0,0.0,0.0,2.0,1.0,-2.2653391,0.032195922,0.0022902489,89.0,89.0,89.0,89.0,21.02244,21.02244,23.278507,23.278507,0.019574638,0.019350447,-5.075408E-4,-4.9613026E-4,1176.1476,0.0,0.0,0.0,0.0,0.0,0.0,0.0,0.0,0.0,0.0,0.0,0.0,0.0,-60.067493,0.025451986,-50.188393,0.004434112,0.008184076,-0.003587206,550034.5,119984.9,0.010816372,0.018017346,7485.3066,7684.185,6371.5405,6614.048,0.30607796,0.0,0.0,0.0
92.47656,8848.695,1.199,0.0,0.0,282.43845,11377.0,100.0,0.0,-0.114249274,0.0,7.0,1.0,0.0,4000000.0,110.0,1.0,0.0,0.0,10.0,0.0,0.0,-213.87523,38.319866,396.1622,0.08350831,0.36597434,0.13872774,287.89355,287.84174,282.2821,282.30444,348.0,348.0,410.0,411.0,89.0,89.0,89.0,89.0,0.0,0.0,0.0,0.0,0.040808897,0.04147242,0.053326298,0.05372001,13.399645,7.3809915,13.815834,8.623972,1043.8083,835.4678,656.2694,483.77658,0.0,0.0,0.0,2.0,1.0,-2.2651057,0.032190192,0.0019255877,89.0,89.0,89.0,89.0,21.02244,21.02244,23.278507,23.278507,0.019387612,0.019160815,-4.984436E-4,-5.022544E-4,1178.5846,0.0,0.0,0.0,0.0,0.0,0.0,0.0,0.0,0.0,0.0,0.0,0.0,0.0,-60.23264,0.0692364,-50.271576,0.0067953644,0.003277242,-0.014818585,550059.94,119984.9,0.009909442,0.017562395,7621.7573,7771.086,6737.168,6899.1636,0.3053465,0.0,0.0,0.0
96.40723,8852.626,1.249,0.0,0.0,283.0747,11405.0,100.0,0.0,-0.108827405,0.0,7.0,1.0,0.0,4000000.0,110.0,1.0,0.0,0.0,10.0,0.0,0.0,-216.89107,38.324245,393.64633,0.06308679,0.35744762,-0.0028839712,288.58185,288.54333,282.9183,282.94785,347.0,347.0,408.0,409.0,89.0,89.0,89.0,89.0,0.0,0.0,0.0,0.0,0.040829808,0.041506883,0.052964572,0.053379294,-10.468437,-12.447684,-7.4551992,-8.167326,-660.5609,-874.72186,137.47661,10.554484,0.0,0.0,0.0,2.0,1.0,-2.2648957,0.032359228,0.0016202927,89.0,89.0,89.0,89.0,21.02244,21.02244,23.278507,23.278507,0.01950481,0.019282997,-4.975422E-4,-4.9852545E-4,1180.3258,0.0,0.0,0.0,0.0,0.0,0.0,0.0,0.0,0.0,0.0,0.0,0.0,0.0,-60.390034,0.092494346,-50.358765,-0.0051182294,0.005214408,0.004967021,549520.1,119984.914,0.010854609,0.017612426,7457.954,7601.2793,6260.588,6444.246,0.30591106,0.0,0.0,0.0
99.02539,8855.244,1.299,0.0,0.0,283.49384,11425.0,100.0,0.0,-0.1291139,0.0,7.0,1.0,0.0,4000000.0,110.0,1.0,0.0,0.0,10.0,0.0,0.0,-218.9059,38.326885,391.96664,0.057676837,0.35885096,-0.07171671,289.08023,289.0465,283.33618,283.3691,346.0,346.0,407.0,408.0,89.0,89.0,89.0,89.0,0.0,0.0,0.0,0.0,0.03996132,0.040574647,0.05283187,0.053202774,0.0,0.0,0.0,0.0,552.5216,502.49844,303.65286,344.79794,0.0,0.0,0.0,2.0,1.0,-2.2647092,0.032354135,0.001972556,89.0,89.0,89.0,89.0,21.02244,21.02244,23.278507,23.278507,0.019801592,0.019582573,-4.9625785E-4,-5.000995E-4,1181.5564,0.0,0.0,0.0,0.0,0.0,0.0,0.0,0.0,0.0,0.0,0.0,0.0,0.0,-60.492256,0.06837672,-50.418,-0.007319862,0.006069393,0.009387924,549130.1,119984.91,0.011274633,0.018370017,7282.2393,7411.7305,6239.351,6405.1055,0.30636215,0.0,0.0,0.0
104.274414,8860.493,1.349,0.0,0.0,284.32187,11457.0,100.0,0.0,-0.1362377,0.0,7.0,1.0,0.0,4000000.0,110.0,1.0,0.0,0.0,10.0,0.0,0.0,-222.94572,38.330517,388.60123,0.053056955,0.34949276,-0.055502053,289.8888,289.8702,284.16122,284.1996,344.0,344.0,405.0,406.0,89.0,89.0,89.0,89.0,0.0,0.0,0.0,0.0,0.03937576,0.03985549,0.052882425,0.05328693,-6.7772713,-5.569383,1.9964573,-3.121197,774.5816,213.22215,118.15129,-194.59424,0.0,0.0,0.0,2.0,1.0,-2.2642703,0.032382514,0.0026432276,89.0,89.0,89.0,89.0,21.02244,21.02244,23.278507,23.278507,0.01969536,0.019512536,-4.926256E-4,-4.9667613E-4,1183.4901,0.0,0.0,0.0,0.0,0.0,0.0,0.0,0.0,0.0,0.0,0.0,0.0,0.0,-60.69189,0.038050503,-50.53775,0.0012935228,0.00686599,0.009820143,548492.56,119984.91,0.012347504,0.019702598,7309.484,7415.0225,6301.658,6465.2373,0.30745888,0.0,0.0,0.0
108.2207,8864.439,1.399,0.0,0.0,284.92645,11484.0,100.0,0.0,-0.06584999,0.0,7.0,1.0,0.0,4000000.0,110.0,1.0,0.0,0.0,10.0,0.0,0.0,-225.98413,38.3309,386.07202,0.044379905,0.34516,-0.14092708,290.58405,290.5548,284.77444,284.8005,342.0,342.0,404.0,405.0,89.0,89.0,89.0,89.0,0.0,0.0,0.0,0.0,0.03867658,0.039030667,0.05268248,0.052980196,-15.712157,-16.369297,3.3156571,3.071576,462.13116,607.30566,1097.5195,1208.174,0.0,0.0,0.0,2.0,1.0,-2.263984,0.03221678,0.003400445,89.0,89.0,89.0,89.0,21.02244,21.02244,23.278507,23.278507,0.019946916,0.019776653,-4.930399E-4,-4.9075356E-4,1185.1166,0.0,0.0,0.0,0.0,0.0,0.0,0.0,0.0,0.0,0.0,0.0,0.0,0.0,-60.836525,-0.02735676,-50.626507,-0.012976835,0.004919689,0.015560207,547955.0,119984.9,0.012962719,0.020921146,7130.9844,7230.253,6188.3135,6324.576,0.3081627,0.0,0.0,0.0
112.17578,8868.395,1.449,0.0,0.0,285.52536,11506.0,100.0,0.0,-0.024734743,0.0,7.0,1.0,0.0,4000000.0,110.0,1.0,0.0,0.0,10.0,0.0,0.0,-229.02968,38.328533,383.53827,0.03267792,0.3374236,-0.14899087,291.13367,291.10278,285.3779,285.3908,341.0,341.0,403.0,404.0,89.0,89.0,89.0,89.0,0.0,0.0,0.0,0.0,0.038632277,0.038986538,0.052838545,0.05312431,-0.7617473,-1.5565752,-11.769309,-12.99709,-398.97855,-448.86765,-1341.1044,-1406.9794,0.0,0.0,0.0,2.0,1.0,-2.2638202,0.03217326,0.003790617,89.0,89.0,89.0,89.0,21.02244,21.02244,23.278507,23.278507,0.019713532,0.01957552,-4.946708E-4,-4.9028033E-4,1186.4569,0.0,0.0,0.0,0.0,0.0,0.0,0.0,0.0,0.0,0.0,0.0,0.0,0.0,-60.97695,-0.07134619,-50.7178,-0.0040658982,0.0022128148,0.007266253,547525.8,119984.9,0.011855345,0.020580882,7197.6733,7285.999,6097.5273,6222.0776,0.30766487,0.0,0.0,0.0
114.81738,8871.036,1.499,0.0,0.0,285.926,11518.0,100.0,0.0,-0.08739129,0.0,7.0,1.0,0.0,4000000.0,110.0,1.0,0.0,0.0,10.0,0.0,0.0,-231.06392,38.325783,381.84656,0.03446965,0.33994013,0.01583511,291.43994,291.40976,285.77475,285.78827,340.0,340.0,402.0,403.0,89.0,89.0,89.0,89.0,0.0,0.0,0.0,0.0,0.039102864,0.039445627,0.05332112,0.05358448,0.0,0.0,0.0,0.0,808.28357,862.7593,654.9149,751.5817,0.0,0.0,0.0,2.0,1.0,-2.2637544,0.032153215,0.0038343668,89.0,89.0,89.0,89.0,21.02244,21.02244,23.278507,23.278507,0.019397203,0.019253524,-4.906342E-4,-4.9690163E-4,1187.1713,0.0,0.0,0.0,0.0,0.0,0.0,0.0,0.0,0.0,0.0,0.0,0.0,0.0,-61.069714,-0.08231894,-50.780277,0.008241072,0.0020527516,-0.010368571,547284.7,119984.9,0.008479428,0.01870038,7410.7754,7500.39,6793.8154,6915.909,0.3057518,0.0,0.0,0.0
120.11133,8876.33,1.549,0.0,0.0,286.73407,11536.0,100.0,0.0,-0.16189662,0.0,7.0,1.0,0.0,4000000.0,110.0,1.0,0.0,0.0,10.0,0.0,0.0,-235.14151,38.3223,378.45654,0.03567028,0.3396015,0.3308338,291.8878,291.87402,286.57812,286.59845,338.0,338.0,400.0,401.0,89.0,89.0,89.0,89.0,0.0,0.0,0.0,0.0,0.043729458,0.0440388,0.053852785,0.054125488,119.795944,126.29761,20.920782,24.814455,3240.1487,3846.1128,1548.5464,1921.6952,0.0,0.0,0.0,2.0,1.0,-2.2637308,0.032024615,0.0021287203,89.0,89.0,89.0,89.0,21.02244,21.02244,23.278507,23.278507,0.018015828,0.01789319,-4.854788E-4,-5.0071167E-4,1188.2399,0.0,0.0,0.0,0.0,0.0,0.0,0.0,0.0,0.0,0.0,0.0,0.0,0.0,-61.25082,0.008274081,-50.913628,0.0125989495,0.0034148458,-0.016296364,546922.6,119984.9,0.006201593,0.011715715,8437.091,8532.385,7209.9136,7350.2944,0.2986641,0.0,0.0,0.0
124.09082,8880.31,1.599,0.0,0.0,287.3093,11573.0,100.0,0.0,0.01237645,0.0,7.0,1.0,0.0,4000000.0,110.0,1.0,0.0,0.0,10.0,0.0,0.0,-238.20746,38.32386,375.9083,0.01342839,0.32058686,-0.16160876,292.8358,292.81857,287.16998,287.17966,337.0,337.0,398.0,399.0,89.0,89.0,89.0,89.0,0.0,0.0,0.0,0.0,0.042777646,0.043054663,0.05294055,0.05314928,-62.408295,-65.62538,-19.045471,-22.063402,-2072.8914,-2080.576,175.71143,128.04874,0.0,0.0,0.0,2.0,1.0,-2.263546,0.031873573,0.0029289722,89.0,89.0,89.0,89.0,21.02244,21.02244,23.278507,23.278507,0.019174166,0.019100877,-4.86848E-4,-4.7853374E-4,1190.4557,0.0,0.0,0.0,0.0,0.0,0.0,0.0,0.0,0.0,0.0,0.0,0.0,0.0,-61.379143,0.010808993,-51.009216,-0.026387127,0.0026959595,0.03748243,546190.7,119984.9,0.009938779,0.015239539,7382.5146,7436.388,6076.1113,6160.926,0.30190372,0.0,0.0,0.0
128.0791,8884.298,1.649,0.0,0.0,287.86288,11604.0,100.0,0.0,0.19596972,0.0,7.0,1.0,0.0,4000000.0,110.0,1.0,0.0,0.0,10.0,0.0,0.0,-241.27977,38.322647,373.3555,-0.0060174614,0.30936554,-0.2887146,293.60745,293.58707,287.73053,287.7308,335.0,335.0,397.0,398.0,89.0,89.0,89.0,89.0,0.0,0.0,0.0,0.0,0.0397652,0.04005337,0.052534703,0.05273133,-66.94145,-65.54871,-13.135,-13.401433,-374.78506,-380.51144,467.53577,400.46713,0.0,0.0,0.0,2.0,1.0,-2.2633805,0.031877276,0.005107641,89.0,89.0,89.0,89.0,21.02244,21.02244,23.278507,23.278507,0.019929854,0.019869171,-4.90964E-4,-4.5803422E-4,1192.3368,0.0,0.0,0.0,0.0,0.0,0.0,0.0,0.0,0.0,0.0,0.0,0.0,0.0,-61.504124,-0.08155508,-51.099346,-0.031243458,3.5075E-4,0.04451413,545592.3,119984.9,0.01569161,0.022119517,6927.5703,6999.922,5882.9375,5971.1714,0.31082344,0.0,0.0,0.0
132.07422,8888.293,1.699,0.0,0.0,288.40158,11622.0,100.0,0.0,-0.056758318,0.0,7.0,1.0,0.0,4000000.0,110.0,1.0,0.0,0.0,10.0,0.0,0.0,-244.35806,38.315487,370.79807,0.00939545,0.31508315,-0.12044368,294.06934,294.0277,288.25934,288.24854,334.0,334.0,395.0,396.0,89.0,89.0,89.0,89.0,0.0,0.0,0.0,0.0,0.037427817,0.037629392,0.05339202,0.053492032,-8.123516,-7.177367,16.395895,17.433687,3245.9553,3467.4387,-303.82724,-94.896576,0.0,0.0,0.0,2.0,1.0,-2.263516,0.03185116,0.0055190325,89.0,89.0,89.0,89.0,21.02244,21.02244,23.278507,23.278507,0.019868573,0.019768354,-4.8042505E-4,-4.9032917E-4,1193.4093,0.0,0.0,0.0,0.0,0.0,0.0,0.0,0.0,0.0,0.0,0.0,0.0,0.0,-61.622437,-0.18178625,-51.19085,0.023736052,-0.0029058466,-0.035895966,545237.3,119984.89,0.012924083,0.024702054,7086.4434,7145.6104,6788.074,6838.294,0.31259155,0.0,0.0,0.0
136.07812,8892.297,1.749,0.0,0.0,288.95624,11625.0,100.0,0.0,0.02880766,0.0,7.0,1.0,0.0,4000000.0,110.0,1.0,0.0,0.0,10.0,0.0,0.0,-247.44235,38.307446,368.23602,-0.0042198896,0.3118993,0.23337561,294.1458,294.12723,288.80634,288.80453,332.0,332.0,394.0,395.0,89.0,89.0,89.0,89.0,0.0,0.0,0.0,0.0,0.04245059,0.042727653,0.053955834,0.054096907,132.116,130.7465,11.215433,10.37456,1805.0193,1601.1578,-25.17248,-128.66557,0.0,0.0,0.0,2.0,1.0,-2.263608,0.032001816,0.002565384,89.0,89.0,89.0,89.0,21.02244,21.02244,23.278507,23.278507,0.01806136,0.0180113,-4.9270695E-4,-4.8757799E-4,1193.551,0.0,0.0,0.0,0.0,0.0,0.0,0.0,0.0,0.0,0.0,0.0,0.0,0.0,-61.74064,-0.11778651,-51.28986,0.04011451,-0.0025536788,-0.047540966,545161.3,119984.9,0.008698806,0.015429591,8170.435,8222.527,7088.304,7148.863,0.3051529,0.0,0.0,0.0
140.08887,8896.308,1.799,0.0,0.0,289.50967,11644.0,100.0,0.0,-0.12062523,0.0,7.0,1.0,0.0,4000000.0,110.0,1.0,0.0,0.0,10.0,0.0,0.0,-250.53265,38.305496,365.66907,0.022752345,0.31111497,0.24954592,294.59625,294.60284,289.34412,289.38766,331.0,331.0,393.0,394.0,89.0,89.0,89.0,89.0,0.0,0.0,0.0,0.0,0.046020955,0.046435963,0.053910285,0.054124624,29.10599,30.628143,-8.927062,-8.638277,-2438.8787,-2833.1367,-474.85825,-735.1398,0.0,0.0,0.0,2.0,1.0,-2.2634244,0.03228219,5.0628185E-4,89.0,89.0,89.0,89.0,21.02244,21.02244,23.278507,23.278507,0.017661538,0.017552085,-4.885891E-4,-4.907429E-4,1194.7053,0.0,0.0,0.0,0.0,0.0,0.0,0.0,0.0,0.0,0.0,0.0,0.0,0.0,-61.863895,0.026300529,-51.382202,0.0033082808,0.007101852,-0.012904018,544798.1,119984.91,0.006906216,0.009820168,8422.974,8506.113,6834.4565,6927.1675,0.3003788,0.0,0.0,0.0
144.10645,8900.325,1.849,0.0,0.0,289.70166,11560.0,100.0,0.0,-0.34003827,0.0,7.0,1.0,0.0,4000000.0,110.0,1.0,0.0,0.0,10.0,0.0,0.0,-253.62874,38.30911,363.09836,0.0725035,-0.28714496,0.10665931,289.93393,289.9965,289.6624,289.75058,329.0,330.0,391.0,392.0,89.0,89.0,89.0,89.0,0.0,0.0,0.0,0.0,0.04438709,0.044964198,0.053613007,0.05399016,-70.1297,-66.47765,-4.97438,-0.79818064,-2605.1484,-2606.4902,120.471405,135.35767,0.0,0.0,0.0,2.0,1.0,-2.2628157,0.032647014,0.0012227297,89.0,89.0,89.0,89.0,21.02244,21.02244,23.278507,23.278507,9.603496E-4,8.592834E-4,-5.016157E-5,-7.146093E-5,1189.7085,0.0,0.0,0.0,0.0,0.0,0.0,0.0,0.0,0.0,0.0,0.0,0.0,0.0,-61.92109,0.10147176,-51.396698,-0.03520523,0.017541407,0.029825132,546461.7,119984.9,0.007882332,0.012233193,7866.0503,8020.0547,6727.386,6910.96,0.30190182,0.0,0.0,0.0
148.11523,8904.334,1.899,0.0,0.0,288.60336,11070.0,100.0,0.0,-0.4268134,0.0,8.0,1.0,0.0,4000000.0,110.0,1.0,0.0,0.0,10.0,0.0,0.0,-256.71896,38.31463,360.53482,0.11411242,-0.5142815,-0.09207886,291.19928,291.26022,288.49332,288.61325,328.0,328.0,390.0,391.0,89.0,89.0,89.0,89.0,0.0,0.0,0.0,0.0,0.038135268,0.038986944,0.053774185,0.05430267,-121.11291,-114.34279,-0.796616,2.50943,725.93945,917.0068,-444.62976,-343.84573,0.0,0.0,0.0,2.0,1.0,-2.2617915,0.032987624,0.004213214,89.0,89.0,89.0,89.0,21.02244,21.02244,23.278507,23.278507,0.007052829,0.0069060805,-1.0621481E-4,-1.3514544E-4,1146.0974,0.0,0.0,0.0,0.0,0.0,0.0,0.0,0.0,0.0,0.0,0.0,0.0,0.0,-61.715984,0.100170285,-51.16612,-0.035036407,0.023136236,0.03228664,549731.9,119984.9,0.009739681,0.020744203,6945.7534,7189.478,6905.3174,7156.572,0.30637646,0.0,0.0,0.0
150.78418,8907.003,1.949,0.0,0.0,288.75006,10813.0,100.0,0.0,-0.22455648,0.0,8.0,1.0,0.0,4000000.0,110.0,1.0,0.0,0.0,10.0,0.0,0.0,-258.7767,38.316715,358.82983,0.11111529,0.31550094,-0.2824811,295.07898,295.07513,288.52676,288.66083,327.0,327.0,389.0,390.0,89.0,89.0,89.0,89.0,0.0,0.0,0.0,0.0,0.036324717,0.037320845,0.053284753,0.053846307,0.0,0.0,0.0,0.0,3005.2808,2653.1067,-642.34875,-790.90283,0.0,0.0,0.0,2.0,1.0,-2.261003,0.033204477,0.0046480894,89.0,89.0,89.0,89.0,21.02244,21.02244,23.278507,23.278507,0.022111438,0.021702623,-5.1510293E-4,-5.015793E-4,1112.7062,0.0,0.0,0.0,0.0,0.0,0.0,0.0,0.0,0.0,0.0,0.0,0.0,0.0,-61.773445,0.022217285,-51.160732,0.0036151884,0.02181352,-0.011978519,546400.75,119984.9,0.012212785,0.023591552,6712.402,6955.786,6340.8096,6589.753,0.30875015,0.0,0.0,0.0
156.13184,8912.351,1.999,0.0,0.0,289.6621,10393.0,100.0,0.0,-0.09656654,0.0,8.0,1.0,0.0,4000000.0,110.0,1.0,0.0,0.0,10.0,0.0,0.0,-262.9035,38.312958,355.41562,0.10865146,0.3865155,-0.08224889,295.52945,295.47372,289.4779,289.53818,325.0,325.0,387.0,388.0,89.0,89.0,89.0,89.0,0.0,0.0,0.0,0.0,0.038581435,0.03949307,0.05293648,0.053423513,53.38646,45.648064,10.051578,5.3789463,582.37445,308.7087,509.16367,336.57697,0.0,0.0,0.0,2.0,1.0,-2.2600005,0.033426967,0.00371027,89.0,89.0,89.0,89.0,21.02244,21.02244,23.278507,23.278507,0.02088509,0.020531747,-5.2683003E-4,-5.140929E-4,1048.5089,0.0,0.0,0.0,0.0,0.0,0.0,0.0,0.0,0.0,0.0,0.0,0.0,0.0,-62.01873,-0.100027405,-51.2616,0.0052677514,0.009126225,-0.012853958,535683.44,119984.914,0.011862329,0.020526657,7370.9824,7586.2417,6430.218,6638.036,0.30757332,0.0,0.0,0.0
160.15234,8916.371,2.049,0.0,0.0,290.19257,10389.0,100.0,0.0,0.115294956,0.0,8.0,1.0,0.0,4000000.0,110.0,1.0,0.0,0.0,10.0,0.0,0.0,-266.00836,38.30868,352.85092,0.06464076,0.28353894,0.12531987,295.39508,295.34152,290.04532,290.05527,324.0,324.0,386.0,387.0,89.0,89.0,89.0,89.0,0.0,0.0,0.0,0.0,0.04132559,0.042140175,0.053667385,0.054083183,53.16138,47.36781,12.158006,7.9838176,-165.23734,-438.52774,-285.1724,-483.73636,0.0,0.0,0.0,2.0,1.0,-2.2597349,0.03359741,0.0027450323,89.0,89.0,89.0,89.0,21.02244,21.02244,23.278507,23.278507,0.01799531,0.017817654,-4.8811498E-4,-4.6192692E-4,1047.6672,0.0,0.0,0.0,0.0,0.0,0.0,0.0,0.0,0.0,0.0,0.0,0.0,0.0,-62.15923,-0.060031556,-51.322945,0.016033474,-3.9214513E-4,-0.01912406,535459.5,119984.9,0.008547849,0.01610569,7850.6187,8029.168,6929.7534,7105.3516,0.30373478,0.0,0.0,0.0
162.83691,8919.056,2.099,0.0,0.0,290.52777,10398.0,100.0,0.0,0.0993776,0.0,8.0,1.0,0.0,4000000.0,110.0,1.0,0.0,0.0,10.0,0.0,0.0,-268.08182,38.307613,351.13928,0.03632526,0.28327745,0.18961114,295.64902,295.59625,290.40213,290.371,323.0,323.0,385.0,386.0,89.0,89.0,89.0,89.0,0.0,0.0,0.0,0.0,0.04324689,0.04365708,0.05390657,0.05411997,0.0,0.0,0.0,0.0,357.8201,-647.3643,296.08905,-122.670815,0.0,0.0,0.0,2.0,1.0,-2.2598748,0.033569727,0.0020495653,89.0,89.0,89.0,89.0,21.02244,21.02244,23.278507,23.278507,0.017589033,0.017558523,-4.7985828E-4,-4.7038673E-4,1049.4459,0.0,0.0,0.0,0.0,0.0,0.0,0.0,0.0,0.0,0.0,0.0,0.0,0.0,-62.23912,-0.0052220323,-51.372463,0.0066877725,-0.0064413236,-0.015022237,535904.3,119984.9,0.007953482,0.013616979,8183.5986,8219.587,7023.8486,7081.6035,0.30248642,0.0,0.0,0.0
168.21582,8924.435,2.149,0.0,0.0,291.18253,10428.0,100.0,0.0,0.09720038,0.0,8.0,1.0,0.0,4000000.0,110.0,1.0,0.0,0.0,10.0,0.0,0.0,-272.23605,38.30912,347.7105,-0.019843265,0.2751814,-0.038725052,296.49304,296.49765,291.07452,291.0213,321.0,321.0,383.0,384.0,89.0,89.0,89.0,89.0,0.0,0.0,0.0,0.0,0.04292432,0.042830966,0.053390637,0.05373546,-23.544207,-42.10308,-1.7369537,-6.7991757,-259.316,-1130.712,615.1243,-140.07834,0.0,0.0,0.0,2.0,1.0,-2.2604418,0.033165492,0.0024701357,89.0,89.0,89.0,89.0,21.02244,21.02244,23.278507,23.278507,0.018141253,0.018324064,-4.648879E-4,-4.687737E-4,1055.4305,0.0,0.0,0.0,0.0,0.0,0.0,0.0,0.0,0.0,0.0,0.0,0.0,0.0,-62.37901,0.02256526,-51.488697,3.925627E-4,-0.008283979,0.026659872,537409.9,119984.9,0.009809805,0.01561337,7732.2197,7602.9565,6588.036,6708.667,0.30488396,0.0,0.0,0.0
172.25684,8928.476,2.199,0.0,0.0,291.6672,10448.0,100.0,0.0,-0.004688884,0.0,8.0,1.0,0.0,4000000.0,110.0,1.0,0.0,0.0,10.0,0.0,0.0,-275.35754,38.309032,345.13367,-0.023033388,0.27475566,-0.0814391,297.03275,297.07257,291.53925,291.52087,320.0,320.0,381.0,382.0,89.0,89.0,89.0,89.0,0.0,0.0,0.0,0.0,0.041419055,0.04102575,0.053363424,0.053734995,-22.15728,-25.655998,3.5221872,2.7481465,744.15204,482.69025,376.0993,-39.38823,0.0,0.0,0.0,2.0,1.0,-2.2606971,0.03228008,0.0032134056,89.0,89.0,89.0,89.0,21.02244,21.02244,23.278507,23.278507,0.01842441,0.018585574,-4.626176E-4,-4.7222417E-4,1059.3542,0.0,0.0,0.0,0.0,0.0,0.0,0.0,0.0,0.0,0.0,0.0,0.0,0.0,-62.477783,-0.022156734,-51.58052,0.01638172,-0.002485313,0.020792468,538375.2,119984.91,0.009907186,0.0177368,7559.575,7454.0,6645.2793,6802.5596,0.3060274,0.0,0.0,0.0
176.30566,8932.524,2.249,0.0,0.0,292.15414,10459.0,100.0,0.0,-0.048985496,0.0,8.0,1.0,0.0,4000000.0,110.0,1.0,0.0,0.0,10.0,0.0,0.0,-278.48407,38.307518,342.55228,-0.0071483105,0.27558228,0.08805631,297.3563,297.37552,292.0068,292.01797,318.0,319.0,380.0,381.0,89.0,89.0,89.0,89.0,0.0,0.0,0.0,0.0,0.041784108,0.041680153,0.05383595,0.054039072,29.854996,47.574116,10.636522,14.906599,1734.6246,2330.7993,190.77208,735.5957,0.0,0.0,0.0,2.0,1.0,-2.2606997,0.03144432,0.0027827024,89.0,89.0,89.0,89.0,21.02244,21.02244,23.278507,23.278507,0.01790738,0.0179113,-4.6905538E-4,-4.7439287E-4,1061.555,0.0,0.0,0.0,0.0,0.0,0.0,0.0,0.0,0.0,0.0,0.0,0.0,0.0,-62.57852,-0.02158571,-51.67096,0.026187353,0.0015310713,-0.0043890104,538926.3,119984.9,0.008474966,0.01607875,7944.8516,7965.799,7039.0166,7154.8066,0.30407143,0.0,0.0,0.0
179.00781,8935.227,2.299,0.0,0.0,292.47488,10470.0,100.0,0.0,0.008161935,0.0,8.0,1.0,0.0,4000000.0,110.0,1.0,0.0,0.0,10.0,0.0,0.0,-280.5713,38.30726,340.82883,-0.0065118074,0.27231735,0.06206705,297.66928,297.66376,292.33105,292.33774,318.0,318.0,379.0,380.0,89.0,89.0,89.0,89.0,0.0,0.0,0.0,0.0,0.042850874,0.04275581,0.053919654,0.05385559,0.0,0.0,0.0,0.0,-813.72845,-568.65497,-291.42197,-258.5783,0.0,0.0,0.0,2.0,1.0,-2.2606611,0.031131921,0.002215147,89.0,89.0,89.0,89.0,21.02244,21.02244,23.278507,23.278507,0.01779904,0.017782789,-4.743764E-4,-4.677575E-4,1063.7018,0.0,0.0,0.0,0.0,0.0,0.0,0.0,0.0,0.0,0.0,0.0,0.0,0.0,-62.645172,0.0019101291,-51.73017,0.0065116505,4.7090428E-4,-0.00864944,539448.75,119984.9,0.008378557,0.014619015,7985.1733,8004.8506,6890.657,6836.588,0.3031559,0.0,0.0,0.0
184.42188,8940.641,2.349,0.0,0.0,293.10574,10496.0,100.0,0.0,0.086493425,0.0,8.0,1.0,0.0,4000000.0,110.0,1.0,0.0,0.0,10.0,0.0,0.0,-284.7523,38.308125,337.37613,-0.016151637,0.2621768,-0.033338174,298.44916,298.39517,292.9836,292.95816,316.0,316.0,377.0,378.0,89.0,89.0,89.0,89.0,0.0,0.0,0.0,0.0,0.042548344,0.0428987,0.053636033,0.053618222,-22.898687,-17.21844,-5.178451,-4.180446,-1012.48016,-909.5101,-29.28972,76.83185,0.0,0.0,0.0,2.0,1.0,-2.2607815,0.031639397,0.002632141,89.0,89.0,89.0,89.0,21.02244,21.02244,23.278507,23.278507,0.018177697,0.018080352,-4.6715402E-4,-4.594954E-4,1068.9254,0.0,0.0,0.0,0.0,0.0,0.0,0.0,0.0,0.0,0.0,0.0,0.0,0.0,-62.775616,0.012925717,-51.84742,-0.016497845,-0.0041873273,0.009863663,540755.06,119984.914,0.010861418,0.016276821,7675.2046,7771.4604,6683.7266,6682.825,0.30521584,0.0,0.0,0.0
188.49023,8944.709,2.399,0.0,0.0,293.56396,10515.0,100.0,0.0,0.18655628,0.0,8.0,1.0,0.0,4000000.0,110.0,1.0,0.0,0.0,10.0,0.0,0.0,-287.89337,38.30766,334.7813,-0.046627052,0.25870275,-0.067209214,298.9959,298.9294,293.45987,293.394,314.0,315.0,376.0,377.0,89.0,89.0,89.0,89.0,0.0,0.0,0.0,0.0,0.04115689,0.041479867,0.053714033,0.053552784,-23.064314,-21.382792,5.3881106,5.4428725,352.2276,629.6888,244.06758,509.9416,0.0,0.0,0.0,2.0,1.0,-2.2611868,0.032014474,0.0033314228,89.0,89.0,89.0,89.0,21.02244,21.02244,23.278507,23.278507,0.018454025,0.018430233,-4.674436E-4,-4.5763297E-4,1071.76,0.0,0.0,0.0,0.0,0.0,0.0,0.0,0.0,0.0,0.0,0.0,0.0,0.0,-62.862545,-0.027778579,-51.942043,-0.0075832093,-0.011643753,-0.0016975529,541209.3,119984.89,0.0119323395,0.019197555,7503.6064,7561.052,6835.2046,6766.948,0.3079462,0.0,0.0,0.0
191.20605,8947.425,2.449,0.0,0.0,293.86566,10526.0,100.0,0.0,0.23460458,0.0,8.0,1.0,0.0,4000000.0,110.0,1.0,0.0,0.0,10.0,0.0,0.0,-289.98975,38.306316,333.0487,-0.07159886,0.2558333,-0.1548782,299.3124,299.2555,293.76868,293.68356,314.0,314.0,375.0,376.0,89.0,89.0,89.0,89.0,0.0,0.0,0.0,0.0,0.040733013,0.04080217,0.053717498,0.053416416,0.0,0.0,0.0,0.0,-571.28357,-890.386,-915.0891,-1239.2073,0.0,0.0,0.0,2.0,1.0,-2.2616436,0.032323647,0.0031225681,89.0,89.0,89.0,89.0,21.02244,21.02244,23.278507,23.278507,0.018477643,0.018593058,-4.699567E-4,-4.5956776E-4,1073.2717,0.0,0.0,0.0,0.0,0.0,0.0,0.0,0.0,0.0,0.0,0.0,0.0,0.0,-62.91422,-0.05936881,-52.01104,-0.0056226617,-0.015384326,-0.016512748,541406.3,119984.9,0.011434455,0.019060506,7445.787,7385.4014,6636.1284,6468.7046,0.3070526,0.0,0.0,0.0
196.64648,8952.865,2.499,0.0,0.0,294.48306,10539.0,100.0,0.0,0.097216085,0.0,8.0,1.0,0.0,4000000.0,110.0,1.0,0.0,0.0,10.0,0.0,0.0,-294.1874,38.303314,329.576,-0.08631314,0.26114586,0.08307246,299.64758,299.607,294.37997,294.3031,312.0,312.0,373.0,374.0,89.0,89.0,89.0,89.0,0.0,0.0,0.0,0.0,0.043507222,0.043423686,0.054122534,0.053917762,47.38189,44.544113,-7.8081336,-8.2203,-631.1238,-479.41794,-1136.6127,-1167.4583,0.0,0.0,0.0,2.0,1.0,-2.2627168,0.03275149,0.0017704964,89.0,89.0,89.0,89.0,21.02244,21.02244,23.278507,23.278507,0.017474035,0.017561382,-4.6564042E-4,-4.75634E-4,1075.023,0.0,0.0,0.0,0.0,0.0,0.0,0.0,0.0,0.0,0.0,0.0,0.0,0.0,-63.010025,-0.014926498,-52.164318,0.009600986,-0.013201134,-0.011716862,541620.8,119984.91,0.007843051,0.013721282,8197.443,8142.9834,6933.353,6837.0117,0.30282402,0.0,0.0,0.0
200.7334,8956.952,2.549,0.0,0.0,294.94492,10555.0,100.0,0.0,-0.009754075,0.0,8.0,1.0,0.0,4000000.0,110.0,1.0,0.0,0.0,10.0,0.0,0.0,-297.33978,38.303917,326.96472,-0.07388995,0.26126593,0.11255388,300.096,300.08755,294.82303,294.78555,310.0,311.0,372.0,373.0,89.0,89.0,89.0,89.0,0.0,0.0,0.0,0.0,0.044538572,0.04428159,0.054264896,0.054087933,9.750052,9.455904,2.8422472,5.1672754,-553.219,-307.83707,-47.877426,88.244675,0.0,0.0,0.0,2.0,1.0,-2.2631967,0.032761738,0.001450777,89.0,89.0,89.0,89.0,21.02244,21.02244,23.278507,23.278507,0.017450845,0.017524034,-4.6456247E-4,-4.7891538E-4,1077.2216,0.0,0.0,0.0,0.0,0.0,0.0,0.0,0.0,0.0,0.0,0.0,0.0,0.0,-63.08194,0.03718067,-52.278595,0.0019464933,-0.00591306,-0.004443529,541905.8,119984.9,0.005585,0.011489038,8217.556,8150.181,7177.705,7105.5283,0.30054474,0.0,0.0,0.0
204.82812,8961.047,2.599,0.0,0.0,295.4069,10569.0,100.0,0.0,0.014196444,0.0,8.0,1.0,0.0,4000000.0,110.0,1.0,0.0,0.0,10.0,0.0,0.0,-300.49594,38.30692,324.34793,-0.057796463,0.26100793,0.21791576,300.47528,300.48288,295.27136,295.2615,309.0,309.0,371.0,372.0,89.0,89.0,89.0,89.0,0.0,0.0,0.0,0.0,0.0451967,0.04492053,0.054374874,0.05427114,42.88673,41.54965,14.385357,13.2876625,2805.7913,2743.8994,1243.8475,1072.0654,0.0,0.0,0.0,2.0,1.0,-2.2633536,0.032765433,0.0012046099,89.0,89.0,89.0,89.0,21.02244,21.02244,23.278507,23.278507,0.017154379,0.01721257,-4.6818997E-4,-4.703545E-4,1079.1257,0.0,0.0,0.0,0.0,0.0,0.0,0.0,0.0,0.0,0.0,0.0,0.0,0.0,-63.159588,0.0930186,-52.385933,0.002060521,-0.0017207752,-0.004972838,542144.6,119984.89,0.00579286,0.010715829,8548.613,8485.059,7408.383,7354.7314,0.29968357,0.0,0.0,0.0
208.92773,8965.146,2.649,0.0,0.0,295.8479,10595.0,100.0,0.0,0.22873527,0.0,8.0,1.0,0.0,4000000.0,110.0,1.0,0.0,0.0,10.0,0.0,0.0,-303.6559,38.31167,321.72604,-0.066730164,0.24885303,-0.1845952,301.22876,301.22238,295.73398,295.69635,308.0,308.0,369.0,370.0,89.0,89.0,89.0,89.0,0.0,0.0,0.0,0.0,0.043755952,0.043550257,0.05357604,0.053494573,-55.866165,-55.762897,-16.463621,-18.41627,-1355.5212,-1406.644,141.25853,-23.831404,0.0,0.0,0.0,2.0,1.0,-2.2634995,0.03269167,0.0019994974,89.0,89.0,89.0,89.0,21.02244,21.02244,23.278507,23.278507,0.018101087,0.01820895,-4.690646E-4,-4.4715204E-4,1082.6846,0.0,0.0,0.0,0.0,0.0,0.0,0.0,0.0,0.0,0.0,0.0,0.0,0.0,-63.235855,0.065429166,-52.4859,-0.018121248,-0.0062448476,0.029568255,542597.75,119984.9,0.008947683,0.014314492,7639.0225,7593.521,6492.4854,6447.493,0.3030386,0.0,0.0,0.0
211.66504,8967.884,2.699,0.0,0.0,296.1425,10608.0,100.0,0.0,0.2443444,0.0,8.0,1.0,0.0,4000000.0,110.0,1.0,0.0,0.0,10.0,0.0,0.0,-305.76465,38.31246,319.97528,-0.075025015,0.2529717,-0.21634936,301.6173,301.59174,296.04523,295.97012,307.0,307.0,368.0,369.0,89.0,89.0,89.0,89.0,0.0,0.0,0.0,0.0,0.041773695,0.041559353,0.053537864,0.05332697,0.0,0.0,0.0,0.0,1436.591,1200.1812,268.22086,166.37741,0.0,0.0,0.0,2.0,1.0,-2.263833,0.03249186,0.0029631853,89.0,89.0,89.0,89.0,21.02244,21.02244,23.278507,23.278507,0.018415535,0.018578999,-4.666817E-4,-4.534624E-4,1084.4758,0.0,0.0,0.0,0.0,0.0,0.0,0.0,0.0,0.0,0.0,0.0,0.0,0.0,-63.28522,-0.009672048,-52.554592,-0.011708036,-0.012671627,0.020689674,542829.44,119984.9,0.009836845,0.016421797,7458.57,7385.6343,6658.5015,6547.6094,0.3043766,0.0,0.0,0.0
217.14746,8973.366,2.749,0.0,0.0,296.72568,10625.0,100.0,0.0,0.19557741,0.0,8.0,1.0,0.0,4000000.0,110.0,1.0,0.0,0.0,10.0,0.0,0.0,-309.98685,38.308117,316.4666,-0.09720295,0.24431032,-0.13221173,302.10468,302.08264,296.63834,296.5428,305.0,305.0,367.0,368.0,89.0,89.0,89.0,89.0,0.0,0.0,0.0,0.0,0.041203886,0.040768206,0.053553216,0.053473264,0.81002706,-1.6448646,-3.4946947,2.5279818,212.48457,296.19632,-170.02522,205.61812,0.0,0.0,0.0,2.0,1.0,-2.264855,0.03217014,0.004210353,89.0,89.0,89.0,89.0,21.02244,21.02244,23.278507,23.278507,0.018039338,0.018248277,-4.5633956E-4,-4.608083E-4,1086.8169,0.0,0.0,0.0,0.0,0.0,0.0,0.0,0.0,0.0,0.0,0.0,0.0,0.0,-63.373985,-0.109064385,-52.70113,-0.003636375,-0.015433804,0.022754362,543130.8,119984.9,0.011566054,0.018008173,7699.9214,7575.4976,6660.6885,6651.513,0.306283,0.0,0.0,0.0
221.2666,8977.485,2.799,0.0,0.0,297.14658,10642.0,100.0,0.0,0.22753155,0.0,8.0,1.0,0.0,4000000.0,110.0,1.0,0.0,0.0,10.0,0.0,0.0,-313.15704,38.30075,313.82855,-0.11579529,0.24373499,-0.14346619,302.5631,302.57895,297.05307,296.96365,304.0,304.0,365.0,366.0,89.0,89.0,89.0,89.0,0.0,0.0,0.0,0.0,0.040781874,0.04002202,0.053710695,0.05361829,-8.431971,-13.34153,12.971385,7.4020023,1210.5881,1145.7457,1291.5638,744.5275,0.0,0.0,0.0,2.0,1.0,-2.2656043,0.031084312,0.004980445,89.0,89.0,89.0,89.0,21.02244,21.02244,23.278507,23.278507,0.018195786,0.018521283,-4.6244895E-4,-4.5965545E-4,1089.1417,0.0,0.0,0.0,0.0,0.0,0.0,0.0,0.0,0.0,0.0,0.0,0.0,0.0,-63.430782,-0.18598022,-52.815437,0.020365309,-0.015144396,0.020150805,543423.2,119984.89,0.0106224455,0.01894948,7609.174,7405.7417,6906.1523,6841.6787,0.30749226,0.0,0.0,0.0
225.3916,8981.61,2.849,0.0,0.0,297.57257,10652.0,100.0,0.0,0.3307185,0.0,8.0,1.0,0.0,4000000.0,110.0,1.0,0.0,0.0,10.0,0.0,0.0,-316.32993,38.291084,311.18454,-0.13443547,0.2414191,-0.08716358,302.84753,302.84595,297.48315,297.37592,303.0,303.0,364.0,365.0,89.0,89.0,89.0,89.0,0.0,0.0,0.0,0.0,0.042427592,0.04133651,0.054146685,0.05380045,19.235237,18.108932,-10.156855,-11.036172,-1974.3738,-1601.5468,-1673.202,-1380.0233,0.0,0.0,0.0,2.0,1.0,-2.2664685,0.030044926,0.004178405,89.0,89.0,89.0,89.0,21.02244,21.02244,23.278507,23.278507,0.017649664,0.017987106,-4.7274E-4,-4.6059422E-4,1090.5087,0.0,0.0,0.0,0.0,0.0,0.0,0.0,0.0,0.0,0.0,0.0,0.0,0.0,-63.481865,-0.20254694,-52.938927,0.023280239,-0.01935438,-0.0061468165,543594.4,119984.9,0.0072002104,0.014920095,7905.664,7678.72,6885.2383,6732.952,0.3037386,0.0,0.0,0.0
229.53223,8985.751,2.899,0.0,0.0,298.0156,10659.0,100.0,0.0,0.20960566,0.0,8.0,1.0,0.0,4000000.0,110.0,1.0,0.0,0.0,10.0,0.0,0.0,-319.5054,38.28183,308.53412,-0.13169983,0.25223908,0.14023548,303.06796,303.03976,297.92532,297.8197,301.0,301.0,363.0,364.0,89.0,89.0,89.0,89.0,0.0,0.0,0.0,0.0,0.04536765,0.044500325,0.054403547,0.0540643,70.99784,76.78337,-4.573837,-1.973435,408.76828,460.62924,-684.5668,-486.6465,0.0,0.0,0.0,2.0,1.0,-2.267464,0.029537743,0.002998948,89.0,89.0,89.0,89.0,21.02244,21.02244,23.278507,23.278507,0.016854158,0.017076442,-4.6964976E-4,-4.747898E-4,1091.4882,0.0,0.0,0.0,0.0,0.0,0.0,0.0,0.0,0.0,0.0,0.0,0.0,0.0,-63.533344,-0.15744433,-53.069458,0.013439994,-0.01805328,-0.0020118305,543725.3,119984.9,0.004676613,0.008633897,8642.473,8452.867,7169.6494,7027.994,0.29757595,0.0,0.0,0.0
233.67871,8989.897,2.949,0.0,0.0,298.44638,10682.0,100.0,0.0,0.22430234,0.0,8.0,1.0,0.0,4000000.0,110.0,1.0,0.0,0.0,10.0,0.0,0.0,-322.68332,38.274853,305.8772,-0.13752599,0.23832387,-0.031806033,303.7207,303.697,298.36325,298.2666,300.0,300.0,361.0,362.0,89.0,89.0,89.0,89.0,0.0,0.0,0.0,0.0,0.04555645,0.044672243,0.05405901,0.05367877,-29.379128,-28.189344,-2.2128222,-4.110485,-1377.6227,-1248.2329,386.3185,331.84286,0.0,0.0,0.0,2.0,1.0,-2.2682757,0.029029736,0.004419565,89.0,89.0,89.0,89.0,21.02244,21.02244,23.278507,23.278507,0.017466364,0.017671503,-4.5754772E-4,-4.576188E-4,1094.6438,0.0,0.0,0.0,0.0,0.0,0.0,0.0,0.0,0.0,0.0,0.0,0.0,0.0,-63.58131,-0.14151737,-53.19869,-0.0239644,-0.014977491,0.04363894,544123.2,119984.9,0.0072933184,0.011193435,8122.3096,7931.592,6955.5293,6775.9287,0.29912567,0.0,0.0,0.0
236.44629,8992.665,2.999,0.0,0.0,298.7175,10700.0,100.0,0.0,0.076688215,0.0,8.0,1.0,0.0,4000000.0,110.0,1.0,0.0,0.0,10.0,0.0,0.0,-324.8033,38.268963,304.1025,-0.115003794,0.23164487,-0.28015304,304.21622,304.22964,298.6196,298.55246,299.0,299.0,361.0,361.0,89.0,89.0,89.0,89.0,0.0,0.0,0.0,0.0,0.043160405,0.04236282,0.053714287,0.053351533,0.0,0.0,0.0,0.0,-682.9307,-502.68585,-326.63937,-162.7296,0.0,0.0,0.0,2.0,1.0,-2.2686815,0.02885576,0.0059685707,89.0,89.0,89.0,89.0,21.02244,21.02244,23.278507,23.278507,0.018310124,0.018547025,-4.4466145E-4,-4.577688E-4,1097.1172,0.0,0.0,0.0,0.0,0.0,0.0,0.0,0.0,0.0,0.0,0.0,0.0,0.0,-63.615223,-0.21732655,-53.275253,-0.026076883,-0.009541863,0.034883495,544435.25,119984.9,0.00984096,0.015823781,7442.215,7286.173,6614.886,6459.007,0.3030281,0.0,0.0,0.0
241.98926,8998.208,3.049,0.0,0.0,299.2772,10720.0,100.0,0.0,0.111480184,0.0,8.0,1.0,0.0,4000000.0,110.0,1.0,0.0,0.0,10.0,0.0,0.0,-329.04688,38.24455,300.5457,-0.09971702,0.24950646,-0.24359027,304.79675,304.802,299.1606,299.11133,297.0,298.0,359.0,360.0,89.0,89.0,89.0,89.0,0.0,0.0,0.0,0.0,0.039018095,0.038486972,0.053742036,0.05349299,-13.253911,-3.615394,28.646214,34.195705,2929.9912,3152.4,831.14935,963.23486,0.0,0.0,0.0,2.0,1.0,-2.2692413,0.02887597,0.008574128,89.0,89.0,89.0,89.0,21.02244,21.02244,23.278507,23.278507,0.018550599,0.01870278,-4.6749075E-4,-4.686229E-4,1099.8829,0.0,0.0,0.0,0.0,0.0,0.0,0.0,0.0,0.0,0.0,0.0,0.0,0.0,-63.692684,-0.48425663,-53.423107,-0.0017378441,-0.008254059,0.0013954908,544789.44,119984.9,0.005430022,0.017202036,7353.2104,7264.633,7138.8857,7041.617,0.30274963,0.0,0.0,0.0
246.15234,9002.371,3.099,0.0,0.0,299.44217,10719.0,100.0,0.0,0.20384249,0.0,8.0,1.0,0.0,4000000.0,110.0,1.0,0.0,0.0,10.0,0.0,0.0,-332.23282,38.2203,297.87204,-0.07024642,0.022303382,0.25526282,304.73395,304.74945,299.4388,299.42444,296.0,296.0,358.0,358.0,89.0,89.0,89.0,89.0,0.0,0.0,0.0,0.0,0.043446444,0.043282244,0.053785317,0.053590782,109.167015,118.304855,-28.259975,-26.489494,354.07834,327.77936,-2124.8992,-2070.786,0.0,0.0,0.0,2.0,1.0,-2.2695343,0.029012637,0.006999731,89.0,89.0,89.0,89.0,21.02244,21.02244,23.278507,23.278507,0.017299615,0.017389234,-5.191621E-4,-4.8489348E-4,1099.7189,0.0,0.0,0.0,0.0,0.0,0.0,0.0,0.0,0.0,0.0,0.0,0.0,0.0,-63.703487,-0.40530875,-53.48218,0.017381318,-0.0013635146,-0.044479,544759.0,119984.9,0.002222715,0.0077806534,8276.704,8214.211,6498.798,6418.3154,0.29542637,0.0,0.0,0.0
250.31738,9006.536,3.149,0.0,0.0,299.73425,10731.0,100.0,0.0,0.19655119,0.0,8.0,1.0,0.0,4000000.0,110.0,1.0,0.0,0.0,10.0,0.0,0.0,-335.41888,38.20087,295.19592,-0.07893649,0.22797339,-0.2014068,305.11618,305.10165,299.6274,299.5821,295.0,295.0,356.0,357.0,89.0,89.0,89.0,89.0,0.0,0.0,0.0,0.0,0.044106122,0.044551015,0.053396102,0.053403884,-40.8905,-47.17491,-5.555525,-19.836275,-5583.675,-8097.36,-1429.054,-3719.0032,0.0,0.0,0.0,2.0,1.0,-2.2697122,0.029195063,0.008260846,89.0,89.0,89.0,89.0,21.02244,21.02244,23.278507,23.278507,0.017776348,0.01788302,-4.5703532E-4,-4.412283E-4,1101.397,0.0,0.0,0.0,0.0,0.0,0.0,0.0,0.0,0.0,0.0,0.0,0.0,0.0,-63.74213,-0.39263833,-53.56243,-0.028553039,-0.006631836,0.05510488,544980.2,119984.9,0.007057131,0.0117870895,7706.6533,7648.2666,6487.6934,6419.8374,0.29929066,0.0,0.0,0.0
253.09668,9009.315,3.199,0.0,0.0,299.9994,10754.0,100.0,0.0,0.26325536,0.0,8.0,1.0,0.0,4000000.0,110.0,1.0,0.0,0.0,10.0,0.0,0.0,-337.5444,38.184895,293.40936,-0.084326014,0.23002614,-0.60354716,305.78726,305.73502,299.91232,299.83774,294.0,294.0,355.0,356.0,89.0,89.0,89.0,89.0,0.0,0.0,0.0,0.0,0.040739186,0.04069177,0.05292244,0.052340206,0.0,0.0,0.0,0.0,-1510.365,-904.29333,18.963202,117.95013,0.0,0.0,0.0,2.0,1.0,-2.2700047,0.02912449,0.010862112,89.0,89.0,89.0,89.0,21.02244,21.02244,23.278507,23.278507,0.019124236,0.019206373,-4.5687705E-4,-4.301086E-4,1104.5586,0.0,0.0,0.0,0.0,0.0,0.0,0.0,0.0,0.0,0.0,0.0,0.0,0.0,-63.784344,-0.5674739,-53.6251,-0.06807706,-0.011407925,0.06197844,545375.6,119984.9,0.010837893,0.018068729,6843.7354,6830.8945,5987.2065,5664.9507,0.30444908,0.0,0.0,0.0
258.6631,9014.882,3.249,0.0,0.0,300.54593,10766.0,100.0,0.0,0.10169118,0.0,8.0,1.0,0.0,4000000.0,110.0,1.0,0.0,0.0,10.0,0.0,0.0,-341.79962,38.13448,289.82996,-0.0854928,0.23498973,-0.3074975,306.1626,306.05853,300.44745,300.37033,292.0,293.0,354.0,355.0,89.0,89.0,89.0,89.0,0.0,0.0,0.0,0.0,0.03721005,0.037644945,0.053532403,0.05305504,15.723778,31.112505,13.930945,17.530247,2258.393,3086.766,15.181273,442.30966,0.0,0.0,0.0,2.0,1.0,-2.2708523,0.030669518,0.014165878,89.0,89.0,89.0,89.0,21.02244,21.02244,23.278507,23.278507,0.018701473,0.018575298,-4.5421836E-4,-4.5952213E-4,1106.2319,0.0,0.0,0.0,0.0,0.0,0.0,0.0,0.0,0.0,0.0,0.0,0.0,0.0,-63.868793,-0.88515276,-53.756264,-0.029681617,-0.012783247,-0.003675134,545593.06,119984.89,0.011779451,0.02127962,7206.9287,7307.823,6800.8037,6603.734,0.30755806,0.0,0.0,0.0
261.44922,9017.668,3.299,0.0,0.0,300.81204,10770.0,100.0,0.0,-0.03863687,0.0,8.0,1.0,0.0,4000000.0,110.0,1.0,0.0,0.0,10.0,0.0,0.0,-343.92932,38.10358,288.03687,-0.07347208,0.22648776,-0.17044757,306.2388,306.18024,300.69427,300.65305,292.0,292.0,353.0,354.0,89.0,89.0,89.0,89.0,0.0,0.0,0.0,0.0,0.03885978,0.039325334,0.05387244,0.05330521,0.0,0.0,0.0,0.0,1140.7163,745.8148,55.92407,-80.03711,0.0,0.0,0.0,2.0,1.0,-2.2711627,0.0315911,0.014442563,89.0,89.0,89.0,89.0,21.02244,21.02244,23.278507,23.278507,0.018073905,0.01801613,-4.5002985E-4,-4.6332052E-4,1106.7705,0.0,0.0,0.0,0.0,0.0,0.0,0.0,0.0,0.0,0.0,0.0,0.0,0.0,-63.90969,-0.9548624,-53.821278,-0.029431405,-0.0068333023,-0.019122748,545655.94,119984.9,0.01243709,0.02026163,7588.742,7628.3555,6945.381,6675.2207,0.30724907,0.0,0.0,0.0
267.03027,9023.249,3.349,0.0,0.0,301.33807,10782.0,100.0,0.0,-0.25213504,0.0,8.0,1.0,0.0,4000000.0,110.0,1.0,0.0,0.0,10.0,0.0,0.0,-348.1932,38.03522,284.4449,-0.00989271,0.2233004,0.04503786,306.57233,306.5488,301.16415,301.22128,290.0,290.0,351.0,352.0,89.0,89.0,89.0,89.0,0.0,0.0,0.0,0.0,0.040917546,0.0421971,0.054367978,0.054355364,60.88033,75.00909,12.328773,27.615799,1534.0758,1412.3839,-324.93613,-302.92853,0.0,0.0,0.0,2.0,1.0,-2.2709956,0.03490296,0.014571428,89.0,89.0,89.0,89.0,21.02244,21.02244,23.278507,23.278507,0.01759491,0.017303057,-4.5649518E-4,-4.7497047E-4,1108.4468,0.0,0.0,0.0,0.0,0.0,0.0,0.0,0.0,0.0,0.0,0.0,0.0,0.0,-64.007706,-1.0406309,-53.93015,-0.007762609,0.009084676,-0.045399975,545874.1,119984.89,0.008486319,0.016348995,7934.9277,8152.6396,7421.2324,7456.5215,0.3045082,0.0,0.0,0.0
271.22168,9027.44,3.399,0.0,0.0,301.74567,10793.0,100.0,0.0,-0.31762815,0.0,8.0,1.0,0.0,4000000.0,110.0,1.0,0.0,0.0,10.0,0.0,0.0,-351.39603,37.9825,281.74677,0.049294144,0.23439535,0.06407668,306.84738,306.86905,301.54456,301.65515,289.0,289.0,350.0,351.0,89.0,89.0,89.0,89.0,0.0,0.0,0.0,0.0,0.04348109,0.044656903,0.054370817,0.0544923,55.431644,50.982086,7.863789,12.440979,165.25084,450.61108,-258.36377,238.77026,0.0,0.0,0.0,2.0,1.0,-2.2702246,0.0360474,0.013723254,89.0,89.0,89.0,89.0,21.02244,21.02244,23.278507,23.278507,0.017173754,0.016893938,-4.66874E-4,-4.7621297E-4,1109.9525,0.0,0.0,0.0,0.0,0.0,0.0,0.0,0.0,0.0,0.0,0.0,0.0,0.0,-64.10427,-1.0477703,-53.99113,-0.0038305344,0.018292347,-0.029466212,546058.56,119984.9,0.0025217156,0.00997705,8239.885,8462.82,7341.0156,7414.845,0.29775143,0.0,0.0,0.0
275.41895,9031.638,3.449,0.0,0.0,301.93842,10804.0,100.0,0.0,-0.33434677,0.0,8.0,1.0,0.0,4000000.0,110.0,1.0,0.0,0.0,10.0,0.0,0.0,-354.6033,37.933254,279.04684,0.09004416,0.15332654,0.0725369,307.17844,307.16678,301.81955,301.89667,288.0,288.0,349.0,349.0,89.0,89.0,89.0,89.0,0.0,0.0,0.0,0.0,0.045053307,0.04629423,0.053611293,0.05417873,-10.250508,-4.558414,-25.070383,-13.647749,-2855.4524,-2775.0266,-137.19496,-32.749783,0.0,0.0,0.0,2.0,1.0,-2.2694628,0.03717553,0.012945294,89.0,89.0,89.0,89.0,21.02244,21.02244,23.278507,23.278507,0.017289339,0.016996296,-4.6475133E-4,-4.93962E-4,1111.4733,0.0,0.0,0.0,0.0,0.0,0.0,0.0,0.0,0.0,0.0,0.0,0.0,0.0,-64.17363,-0.9289493,-53.994053,3.4360355E-4,0.007415137,-0.014043705,546250.0,119984.9,0.0,0.005169344,8113.593,8350.445,6532.0625,6828.338,0.29441643,0.0,0.0,0.0
