LapDistance [m],TotalDistance [m],LapTime [s],Sector1Time [s],Sector2Time [s],Speed [km/h],EngineRevs [rpm],ThrottlePercentage [%],BrakePercentage [%],Steer [%],Clutch [%],Gear [int],DRS [0/1],CanUseDRS [0/1],KERSLevel [J],EngineTemperature [C],RacePosition [int],Sector [int],InPits [int],FuelRemaining [kg],CurrentFlag [int],CurrentLapInvalid [int],X [m],Y [m],Z [m],GForceLatitudinal [G],GForceLongitudinal [G],GForceVertical [G],WheelSpeedRearLeft [km/h],WheelSpeedRearRight [km/h],WheelSpeedFrontLeft [km/h],WheelSpeedFrontRight [km/h],BrakeTemperatureRearLeft [C],BrakeTemperatureRearRight [C],BrakeTemperatureFrontLeft [C],BrakeTemperatureFrontRight [C],TyreTemperatureRearLeft [C],TyreTemperatureRearRight [C],TyreTemperatureFrontLeft [C],TyreTemperatureFrontRight [C],TyreWearRearLeft [%],TyreWearRearRight [%],TyreWearFrontLeft [%],TyreWearFrontRight [%],SuspensionPositionRearLeft [m],SuspensionPositionRearRight [m],SuspensionPositionFrontLeft [m],SuspensionPositionFrontRight [m],SuspensionVelocityRearLeft [m/s],SuspensionVelocityRearRight [m/s],SuspensionVelocityFrontLeft [m/s],SuspensionVelocityFrontRight [m/s],SuspensionAccelerationRearLeft [m/s^2],SuspensionAccelerationRearRight [m/s^2],SuspensionAccelerationFrontLeft [m/s^2],SuspensionAccelerationFrontRight [m/s^2],MGUKHarvested [J],MGUHHarvested [J],ERSSpent [J],ERSMode [int],FuelMixMode [int],Yaw [rad],Roll [rad],Pitch [rad],TyreCarcassTemperatureRearLeft [C],TyreCarcassTemperatureRearRight [C],TyreCarcassTemperatureFrontLeft [C],TyreCarcassTemperatureFrontRight [C],TyrePressureRearLeft [PSI],TyrePressureRearRight [PSI],TyrePressureFrontLeft [PSI],TyrePressureFrontRight [PSI],WheelSlipRearLeft [%],WheelSlipRearRight [%],WheelSlipFrontLeft [%],WheelSlipFrontRight [%],Torque [Nm],Handbrake [%],RearLeftInside [C],RearLeftMiddle [C],RearLeftOutside [C],RearRightInside [C],RearRightMiddle [C],RearRightOutside [C],FrontLeftInside [C],FrontLeftMiddle [C],FrontLeftOutside [C],FrontRightInside [C],FrontRightMiddle [C],FrontRightOutside [C],WoldSpeedX [km/h],WoldSpeedY [km/h],WoldSpeedZ [km/h],LocalAngularVelocityX [rad/s],LocalAngularVelocityY [rad/s],LocalAngularVelocityZ [rad/s],IcePower [W],MgukPower [W],FrontRideHeight [m],RearRideHeight [m],LoadRearLeft [N],LoadRearRight [N],LoadFrontLeft [N],LoadFrontRight [N],Extra1 [m],Extra2 [],Extra3 [],Extra4 []
0.9522343,0.9522343,0.0,0.0,0.0,289.4959,10389.0,100.0,0.0,1.0429003,0.0,8.0,1.0,0.0,4000000.0,110.0,1.0,0.0,0.0,10.0,0.0,0.0,470.36316,39.00077,-351.7249,-0.57214975,0.45887697,0.0371169,295.37527,295.41092,289.53333,289.12042,390.0,391.0,462.0,463.0,89.0,89.0,89.0,89.0,0.0,0.0,0.0,0.0,0.048239984,0.04474991,0.053584155,0.051347114,34.933086,30.322819,-3.2707303,1.7407535,-1578.4666,-1432.9565,487.35733,485.1981,0.0,0.0,0.0,2.0,1.0,-1.5159264,-0.003964544,-0.0038536787,89.0,89.0,89.0,89.0,21.842827,21.842827,24.816736,24.816736,0.020311717,0.02165776,-5.4132007E-4,-5.476577E-4,1047.7283,0.0,0.0,0.0,0.0,0.0,0.0,0.0,0.0,0.0,0.0,0.0,0.0,0.0,-80.27069,0.32592276,4.8132167,0.0112653375,-0.06902216,-0.0067683444,535490.7,119984.9,0.0121451635,0.013538127,7946.531,7127.4336,6482.378,5483.2246,0.3049717,0.0,0.0,0.0
4.9701414,4.9701414,0.05,0.0,0.0,290.146,10397.0,100.0,0.0,0.97039014,0.0,8.0,1.0,0.0,4000000.0,110.0,1.0,0.0,0.0,10.0,0.0,0.0,466.34424,39.017597,-351.49127,-0.5547036,0.35657904,0.018984407,295.60425,295.61273,290.18716,289.8025,389.0,389.0,460.0,462.0,89.0,89.0,89.0,89.0,0.0,0.0,0.0,0.0,0.047987763,0.044725325,0.053733863,0.05144615,-7.677152,-2.750605,0.73157245,5.3796167,407.15927,427.89276,-165.19724,466.2081,0.0,0.0,0.0,2.0,1.0,-1.5192577,-0.004267405,-0.003689766,89.0,89.0,89.0,89.0,21.842827,21.842827,24.816736,24.816736,0.018283704,0.019452704,-4.891894E-4,-4.919976E-4,1049.265,0.0,0.0,0.0,0.0,0.0,0.0,0.0,0.0,0.0,0.0,0.0,0.0,0.0,-80.46698,0.3423203,4.5476847,0.0045453436,-0.064411744,0.0073643937,535863.5,119984.9,0.01121905,0.013005622,7871.5483,7082.4897,6621.2803,5606.2754,0.30391598,0.0,0.0,0.0
8.99742,8.99742,0.1,0.0,0.0,290.76465,10421.0,100.0,0.0,0.8751639,0.0,8.0,1.0,0.0,4000000.0,110.0,1.0,0.0,0.0,10.0,0.0,0.0,462.31598,39.03475,-351.27063,-0.52549636,0.35227928,-0.026765425,296.28253,296.31677,290.79068,290.4387,387.0,387.0,458.0,460.0,89.0,89.0,89.0,89.0,0.0,0.0,0.0,0.0,0.04767198,0.04428247,0.053666964,0.051544223,-11.267065,-12.046471,-1.149997,1.9937751,-305.50357,-68.91935,52.47741,-5.216896,0.0,0.0,0.0,2.0,1.0,-1.5223236,-0.004601719,-0.0032186508,89.0,89.0,89.0,89.0,21.842827,21.842827,24.816736,24.816736,0.018489614,0.019635472,-4.8588184E-4,-4.909078E-4,1054.0366,0.0,0.0,0.0,0.0,0.0,0.0,0.0,0.0,0.0,0.0,0.0,0.0,0.0,-80.653015,0.33957663,4.2941113,0.0093543185,-0.058767512,0.0077149747,537060.6,119984.89,0.011297951,0.013634644,7719.6777,6954.128,6568.7217,5618.2476,0.3043537,0.0,0.0,0.0
11.687427,11.687427,0.15,0.0,0.0,291.1759,10436.0,100.0,0.0,0.8534155,0.0,8.0,1.0,0.0,4000000.0,110.0,1.0,0.0,0.0,10.0,0.0,0.0,459.6253,39.045837,-351.13043,-0.5078407,0.35179457,-0.05195964,296.7111,296.73785,291.19238,290.85767,386.0,386.0,457.0,459.0,89.0,89.0,89.0,89.0,0.0,0.0,0.0,0.0,0.047254227,0.043939106,0.053682417,0.051495876,0.0,0.0,0.0,0.0,142.2912,213.49037,-90.14903,-168.0672,0.0,0.0,0.0,2.0,1.0,-1.5242256,-0.0048382706,-0.003075242,89.0,89.0,89.0,89.0,21.842827,21.842827,24.816736,24.816736,0.018562127,0.019658266,-4.891251E-4,-4.886727E-4,1057.003,0.0,0.0,0.0,0.0,0.0,0.0,0.0,0.0,0.0,0.0,0.0,0.0,0.0,-80.7759,0.32561105,4.1324406,0.0042977855,-0.056020014,0.002099445,537798.0,119984.91,0.011376039,0.01396472,7671.631,6938.7666,6565.492,5561.861,0.3043356,0.0,0.0,0.0
17.079676,17.079676,0.2,0.0,0.0,291.9901,10466.0,100.0,0.0,0.82977813,0.0,8.0,1.0,0.0,4000000.0,110.0,1.0,0.0,0.0,10.0,0.0,0.0,454.2318,39.06704,-350.8657,-0.472842,0.34523085,-0.05325014,297.56186,297.57443,291.99908,291.68332,384.0,384.0,455.0,457.0,89.0,89.0,89.0,89.0,0.0,0.0,0.0,0.0,0.046966925,0.044004973,0.053632066,0.051495623,-13.751685,-10.417253,2.4794786,3.821477,-354.80258,-134.29823,289.94675,468.63547,0.0,0.0,0.0,2.0,1.0,-1.5278198,-0.0050593866,-0.0026365519,89.0,89.0,89.0,89.0,21.842827,21.842827,24.816736,24.816736,0.018652113,0.019638503,-4.885177E-4,-4.827214E-4,1062.9264,0.0,0.0,0.0,0.0,0.0,0.0,0.0,0.0,0.0,0.0,0.0,0.0,0.0,-81.01751,0.30372068,3.8259,-0.004628157,-0.053112112,0.006936098,539261.56,119984.91,0.012431627,0.014847199,7591.459,6945.2026,6583.6367,5619.2163,0.30540848,0.0,0.0,0.0
21.134375,21.134375,0.25,0.0,0.0,292.59363,10487.0,100.0,0.0,0.8416934,0.0,8.0,1.0,0.0,4000000.0,110.0,1.0,0.0,0.0,10.0,0.0,0.0,450.1762,39.081505,-350.6802,-0.4602602,0.3423391,-0.055503722,298.15845,298.15698,292.60312,292.28653,382.0,382.0,453.0,455.0,89.0,89.0,89.0,89.0,0.0,0.0,0.0,0.0,0.046613984,0.043976963,0.053552367,0.05150073,-3.0458717,2.2555141,-1.4653801,-0.12427567,218.82799,111.16414,14.296173,36.00865,0.0,0.0,0.0,2.0,1.0,-1.530475,-0.004785845,-0.0023988485,89.0,89.0,89.0,89.0,21.842827,21.842827,24.816736,24.816736,0.018590376,0.019532133,-4.8945297E-4,-4.8134913E-4,1067.0817,0.0,0.0,0.0,0.0,0.0,0.0,0.0,0.0,0.0,0.0,0.0,0.0,0.0,-81.19551,0.27676287,3.6058114,-0.005011213,-0.053375453,0.0058875787,540285.6,119984.9,0.013422094,0.01557602,7624.4253,7023.2695,6489.5366,5561.8765,0.30631638,0.0,0.0,0.0
23.84237,23.84237,0.3,0.0,0.0,292.99048,10500.0,100.0,0.0,0.84925705,0.0,8.0,1.0,0.0,4000000.0,110.0,1.0,0.0,0.0,10.0,0.0,0.0,447.46762,39.090534,-350.56265,-0.4571972,0.3381179,-0.0224186,298.55792,298.5464,293.00226,292.68002,381.0,381.0,452.0,454.0,89.0,89.0,89.0,89.0,0.0,0.0,0.0,0.0,0.046596695,0.044049498,0.053669572,0.05161821,0.0,0.0,0.0,0.0,138.87135,-0.616908,195.18433,50.023182,0.0,0.0,0.0,2.0,1.0,-1.5322726,-0.0046176896,-0.0022896528,89.0,89.0,89.0,89.0,21.842827,21.842827,24.816736,24.816736,0.018569253,0.019501284,-4.880308E-4,-4.7947682E-4,1069.7275,0.0,0.0,0.0,0.0,0.0,0.0,0.0,0.0,0.0,0.0,0.0,0.0,0.0,-81.3122,0.26751608,3.460516,-0.0059828428,-0.054350525,-4.0686206E-4,540954.7,119984.9,0.013526237,0.016008338,7638.379,7038.9883,6630.9688,5692.785,0.3067789,0.0,0.0,0.0
29.27008,29.27008,0.35,0.0,0.0,293.78195,10525.0,100.0,0.0,0.8550169,0.0,8.0,1.0,0.0,4000000.0,110.0,1.0,0.0,0.0,10.0,0.0,0.0,442.0388,39.107246,-350.34204,-0.45965326,0.33955956,0.02155043,299.2776,299.24503,293.7969,293.46405,379.0,379.0,450.0,452.0,89.0,89.0,89.0,89.0,0.0,0.0,0.0,0.0,0.046885643,0.044480994,0.053774286,0.051728807,23.501514,25.803295,8.040815,10.602995,1121.4181,1065.105,224.19243,338.88367,0.0,0.0,0.0,2.0,1.0,-1.535977,-0.0040194714,-0.0025373697,89.0,89.0,89.0,89.0,21.842827,21.842827,24.816736,24.816736,0.018295093,0.019181626,-4.895717E-4,-4.847475E-4,1073.1392,0.0,0.0,0.0,0.0,0.0,0.0,0.0,0.0,0.0,0.0,0.0,0.0,0.0,-81.544174,0.24277754,3.16919,-0.00956105,-0.055979807,-0.00786941,541390.9,119984.91,0.012262192,0.014530048,7810.008,7220.105,6746.1016,5824.0303,0.30530834,0.0,0.0,0.0
33.35102,33.35102,0.4,0.0,0.0,294.36877,10542.0,100.0,0.0,0.82557034,0.0,8.0,1.0,0.0,4000000.0,110.0,1.0,0.0,0.0,10.0,0.0,0.0,437.95706,39.120796,-350.18933,-0.4574078,0.33060962,0.13565089,299.7488,299.7342,294.37653,294.05624,377.0,377.0,448.0,450.0,89.0,89.0,89.0,89.0,0.0,0.0,0.0,0.0,0.04868092,0.046425134,0.054107573,0.05215136,21.640509,28.330832,2.3467093,3.9535756,-1859.5349,-1477.5886,-396.18906,-443.9726,0.0,0.0,0.0,2.0,1.0,-1.5387032,-0.0036498138,-0.0032508373,89.0,89.0,89.0,89.0,21.842827,21.842827,24.816736,24.816736,0.017862316,0.0187489,-4.8686573E-4,-4.8426416E-4,1075.46,0.0,0.0,0.0,0.0,0.0,0.0,0.0,0.0,0.0,0.0,0.0,0.0,0.0,-81.71527,0.30272803,2.9511218,-0.00827991,-0.05364359,-0.015749471,541686.8,119984.9,0.01124083,0.012822081,8092.478,7441.0757,6903.769,6020.4346,0.3042612,0.0,0.0,0.0
37.440453,37.440453,0.45,0.0,0.0,294.94635,10563.0,100.0,0.0,0.7834412,0.0,8.0,1.0,0.0,4000000.0,110.0,1.0,0.0,0.0,10.0,0.0,0.0,433.86688,39.13736,-350.0475,-0.4440791,0.32826424,0.08384753,300.32648,300.32455,294.94708,294.6434,375.0,376.0,447.0,448.0,89.0,89.0,89.0,89.0,0.0,0.0,0.0,0.0,0.048519175,0.046854105,0.05394309,0.05221767,-1.4289467,2.7226655,-3.6198645,0.4186481,142.63985,-412.36276,28.619154,-71.76249,0.0,0.0,0.0,2.0,1.0,-1.5413067,-0.0031147378,-0.003898263,89.0,89.0,89.0,89.0,21.842827,21.842827,24.816736,24.816736,0.017841697,0.018722702,-4.852284E-4,-4.838659E-4,1078.315,0.0,0.0,0.0,0.0,0.0,0.0,0.0,0.0,0.0,0.0,0.0,0.0,0.0,-81.883064,0.3527248,2.7366476,-0.0069844103,-0.05080612,-0.009070599,542045.0,119984.9,0.010718724,0.012168971,8105.4077,7432.374,6757.8164,5988.579,0.30357838,0.0,0.0,0.0
40.171402,40.171402,0.5,0.0,0.0,295.32925,10577.0,100.0,0.0,0.7774518,0.0,8.0,1.0,0.0,4000000.0,110.0,1.0,0.0,0.0,10.0,0.0,0.0,431.13544,39.14956,-349.95877,-0.4373129,0.32696226,0.06189555,300.7316,300.73087,295.328,295.02936,374.0,375.0,445.0,447.0,89.0,89.0,89.0,89.0,0.0,0.0,0.0,0.0,0.048458315,0.046761103,0.053930737,0.0521978,0.0,0.0,0.0,0.0,99.389244,-342.98746,110.10466,-35.887955,0.0,0.0,0.0,2.0,1.0,-1.542985,-0.0029977646,-0.0041484833,89.0,89.0,89.0,89.0,21.842827,21.842827,24.816736,24.816736,0.017890558,0.018769098,-4.8582413E-4,-4.8171062E-4,1080.2394,0.0,0.0,0.0,0.0,0.0,0.0,0.0,0.0,0.0,0.0,0.0,0.0,0.0,-81.99394,0.3760454,2.596418,-0.0034483057,-0.05011184,-0.0066618095,542293.6,119984.9,0.010204906,0.011867493,8057.632,7390.829,6777.95,5986.0137,0.3031435,0.0,0.0,0.0
44.274734,44.274734,0.55,0.0,0.0,295.9001,10597.0,100.0,0.0,0.7993254,0.0,8.0,1.0,0.0,4000000.0,110.0,1.0,0.0,0.0,10.0,0.0,0.0,427.0314,39.169785,-349.83447,-0.43333405,0.32319137,0.06452161,301.28168,301.28323,295.90088,295.5986,373.0,373.0,444.0,446.0,89.0,89.0,89.0,89.0,0.0,0.0,0.0,0.0,0.048602764,0.04696256,0.053944442,0.05224955,0.0,0.0,0.0,0.0,-307.79684,-411.77267,-152.99318,-208.05893,0.0,0.0,0.0,2.0,1.0,-1.5455008,-0.0028101394,-0.0046669245,89.0,89.0,89.0,89.0,21.842827,21.842827,24.816736,24.816736,0.017771576,0.018668327,-4.8504953E-4,-4.7955848E-4,1082.9574,0.0,0.0,0.0,0.0,0.0,0.0,0.0,0.0,0.0,0.0,0.0,0.0,0.0,-82.15869,0.42363626,2.387665,-0.005624234,-0.05078797,-0.00628733,542632.06,119984.9,0.010289486,0.011500192,8126.157,7435.439,6736.7764,5969.3257,0.3029766,0.0,0.0,0.0
49.75871,49.75871,0.6,0.0,0.0,296.65787,10626.0,100.0,0.0,0.8269379,0.0,8.0,1.0,0.0,4000000.0,110.0,1.0,0.0,0.0,10.0,0.0,0.0,421.54657,39.197315,-349.6849,-0.43432477,0.3241355,-0.021722654,302.1219,302.10672,296.66452,296.35287,370.0,371.0,442.0,443.0,89.0,89.0,89.0,89.0,0.0,0.0,0.0,0.0,0.048188318,0.04609013,0.05377404,0.05197464,2.2742896,-6.8483496,2.4095175,-1.1882185,61.449406,246.92412,17.984203,16.254185,0.0,0.0,0.0,2.0,1.0,-1.5489378,-0.0027948343,-0.0044407845,89.0,89.0,89.0,89.0,21.842827,21.842827,24.816736,24.816736,0.018005976,0.018872395,-4.87475E-4,-4.7712814E-4,1086.9406,0.0,0.0,0.0,0.0,0.0,0.0,0.0,0.0,0.0,0.0,0.0,0.0,0.0,-82.37694,0.4056018,2.1104314,0.001837108,-0.052665744,0.006116807,543141.5,119984.9,0.009818558,0.01130157,7912.7295,7303.374,6682.785,5855.837,0.30234528,0.0,0.0,0.0
53.881287,53.881287,0.65,0.0,0.0,297.2218,10647.0,100.0,0.0,0.8031344,0.0,8.0,1.0,0.0,4000000.0,110.0,1.0,0.0,0.0,10.0,0.0,0.0,417.42343,39.217197,-349.5849,-0.43454906,0.31966266,-0.056081895,302.71652,302.702,297.22913,296.91788,369.0,369.0,440.0,442.0,89.0,89.0,89.0,89.0,0.0,0.0,0.0,0.0,0.048041776,0.045816414,0.053753067,0.051914893,-4.8114357,-6.9636846,-1.5433877,-1.355633,-76.59047,-121.90638,-40.76957,-24.005766,0.0,0.0,0.0,2.0,1.0,-1.5515661,-0.0027107222,-0.004020691,89.0,89.0,89.0,89.0,21.842827,21.842827,24.816736,24.816736,0.018065395,0.018930418,-4.8349492E-4,-4.7673288E-4,1089.8198,0.0,0.0,0.0,0.0,0.0,0.0,0.0,0.0,0.0,0.0,0.0,0.0,0.0,-82.53881,0.38698506,1.9010757,-0.002270314,-0.052438516,0.010325069,543506.1,119984.9,0.009985097,0.0115427645,7846.1377,7244.5586,6636.9385,5802.3867,0.30245018,0.0,0.0,0.0
58.01199,58.01199,0.7,0.0,0.0,297.7744,10668.0,100.0,0.0,0.82485014,0.0,8.0,1.0,0.0,4000000.0,110.0,1.0,0.0,0.0,10.0,0.0,0.0,413.29227,39.236267,-349.49542,-0.44080916,0.3114776,-0.09890819,303.31314,303.30426,297.78668,297.46835,367.0,368.0,438.0,440.0,89.0,89.0,89.0,89.0,0.0,0.0,0.0,0.0,0.047898535,0.045628164,0.053684287,0.051830247,-13.673453,-14.81898,-6.4706054,-5.7171283,-328.1548,-612.01294,-161.34827,-121.62476,0.0,0.0,0.0,2.0,1.0,-1.5542243,-0.0025840465,-0.0034732819,89.0,89.0,89.0,89.0,21.842827,21.842827,24.816736,24.816736,0.018151922,0.019057797,-4.7963063E-4,-4.7147204E-4,1092.707,0.0,0.0,0.0,0.0,0.0,0.0,0.0,0.0,0.0,0.0,0.0,0.0,0.0,-82.69708,0.3648671,1.68803,-0.0018789711,-0.05370658,0.015325942,543873.3,119984.91,0.011272567,0.012856032,7762.654,7146.779,6533.2964,5694.2256,0.30367947,0.0,0.0,0.0
62.150524,62.150524,0.749,0.0,0.0,298.31903,10688.0,100.0,0.0,0.8101518,0.0,8.0,1.0,0.0,4000000.0,110.0,1.0,0.0,0.0,10.0,0.0,0.0,409.1533,39.253,-349.41675,-0.44532776,0.31023803,-0.09867603,303.88913,303.87778,298.33282,298.00858,366.0,366.0,437.0,439.0,89.0,89.0,89.0,89.0,0.0,0.0,0.0,0.0,0.04729954,0.04481827,0.05372057,0.05180887,-6.3803043,-10.321587,2.767816,0.8502602,486.49902,484.23257,-60.83248,-91.570595,0.0,0.0,0.0,2.0,1.0,-1.5569457,-0.0026335076,-0.0028346777,89.0,89.0,89.0,89.0,21.842827,21.842827,24.816736,24.816736,0.018258266,0.019174127,-4.7798554E-4,-4.7309388E-4,1095.4651,0.0,0.0,0.0,0.0,0.0,0.0,0.0,0.0,0.0,0.0,0.0,0.0,0.0,-82.85274,0.31065953,1.4721216,0.0014849118,-0.054577574,0.0063123256,544225.75,119984.89,0.011958175,0.014102581,7697.6543,7092.111,6648.103,5774.224,0.30479145,0.0,0.0,0.0
64.91388,64.91388,0.799,0.0,0.0,298.67932,10699.0,100.0,0.0,0.8211997,0.0,8.0,1.0,0.0,4000000.0,110.0,1.0,0.0,0.0,10.0,0.0,0.0,406.38968,39.262917,-349.37027,-0.44988912,0.30717856,-0.0597985,304.2037,304.18677,298.69086,298.36935,365.0,365.0,436.0,437.0,89.0,89.0,89.0,89.0,0.0,0.0,0.0,0.0,0.047464546,0.044892423,0.05381536,0.051877365,0.0,0.0,0.0,0.0,459.79764,497.53632,19.378965,46.77772,0.0,0.0,0.0,2.0,1.0,-1.5587543,-0.0026572146,-0.0027433634,89.0,89.0,89.0,89.0,21.842827,21.842827,24.816736,24.816736,0.018088317,0.018972067,-4.7868755E-4,-4.718375E-4,1096.9791,0.0,0.0,0.0,0.0,0.0,0.0,0.0,0.0,0.0,0.0,0.0,0.0,0.0,-82.95537,0.2884085,1.3266714,4.5049074E-4,-0.054146502,1.01779384E-4,544417.6,119984.9,0.012048789,0.014092284,7806.202,7202.2793,6713.8315,5832.4385,0.30489826,0.0,0.0,0.0
70.4508,70.4508,0.849,0.0,0.0,299.38907,10723.0,100.0,0.0,0.7481744,0.0,8.0,1.0,0.0,4000000.0,110.0,1.0,0.0,0.0,10.0,0.0,0.0,400.8523,39.281616,-349.29193,-0.4419112,0.30152196,-0.06193745,304.87027,304.87085,299.39145,299.08734,362.0,363.0,434.0,435.0,89.0,89.0,89.0,89.0,0.0,0.0,0.0,0.0,0.048154518,0.045690607,0.053860027,0.05196605,-8.71472,-0.68821007,-7.193684,-5.454942,-1664.297,-1192.8318,-622.5138,-569.6877,0.0,0.0,0.0,2.0,1.0,-1.5622793,-0.0025974647,-0.0029762983,89.0,89.0,89.0,89.0,21.842827,21.842827,24.816736,24.816736,0.017936094,0.018815981,-4.7556762E-4,-4.7582027E-4,1100.2776,0.0,0.0,0.0,0.0,0.0,0.0,0.0,0.0,0.0,0.0,0.0,0.0,0.0,-83.15673,0.27161065,1.0364809,-0.0047336947,-0.050809667,-0.0015537306,544832.44,119984.9,0.011597178,0.013095881,7864.409,7230.2373,6624.953,5772.2847,0.30436325,0.0,0.0,0.0
74.61233,74.61233,0.899,0.0,0.0,299.9207,10737.0,100.0,0.0,0.71985376,0.0,8.0,1.0,0.0,4000000.0,110.0,1.0,0.0,0.0,10.0,0.0,0.0,396.6905,39.29544,-349.2458,-0.43219545,0.30208668,0.091989465,305.27222,305.27234,299.9144,299.6252,361.0,361.0,432.0,434.0,89.0,89.0,89.0,89.0,0.0,0.0,0.0,0.0,0.048861075,0.046816066,0.054129567,0.052393205,21.074562,34.469513,5.718469,8.805692,346.86325,775.507,-75.94674,-54.515873,0.0,0.0,0.0,2.0,1.0,-1.5647537,-0.0024279703,-0.0033026934,89.0,89.0,89.0,89.0,21.842827,21.842827,24.816736,24.816736,0.017493319,0.018317364,-4.767166E-4,-4.7653506E-4,1102.2161,0.0,0.0,0.0,0.0,0.0,0.0,0.0,0.0,0.0,0.0,0.0,0.0,0.0,-83.30672,0.29242045,0.82319087,-0.004434953,-0.048288953,-0.010895059,545080.7,119984.9,0.010237448,0.01152615,8248.18,7586.669,6983.423,6206.9956,0.30293083,0.0,0.0,0.0
77.390816,77.390816,0.949,0.0,0.0,300.26993,10749.0,100.0,0.0,0.7204889,0.0,8.0,1.0,0.0,4000000.0,110.0,1.0,0.0,0.0,10.0,0.0,0.0,393.9118,39.305786,-349.22086,-0.42344156,0.29742125,0.09238354,305.59125,305.6139,300.2588,299.98053,360.0,360.0,431.0,433.0,89.0,89.0,89.0,89.0,0.0,0.0,0.0,0.0,0.04893601,0.047564343,0.054098137,0.052570146,0.0,0.0,0.0,0.0,-385.23224,-583.6486,-211.63968,-118.56705,0.0,0.0,0.0,2.0,1.0,-1.5663285,-0.0021516187,-0.00361979,89.0,89.0,89.0,89.0,21.842827,21.842827,24.816736,24.816736,0.017368434,0.018242031,-4.7680692E-4,-4.7426912E-4,1103.8588,0.0,0.0,0.0,0.0,0.0,0.0,0.0,0.0,0.0,0.0,0.0,0.0,0.0,-83.40487,0.3248792,0.68462324,-0.00828222,-0.046525367,-0.007680459,545283.6,119984.9,0.009926304,0.010862376,8329.031,7589.543,6900.5425,6232.1094,0.30246162,0.0,0.0,0.0
82.95758,82.95758,0.999,0.0,0.0,300.9583,10775.0,100.0,0.0,0.7440814,0.0,8.0,1.0,0.0,4000000.0,110.0,1.0,0.0,0.0,10.0,0.0,0.0,388.34476,39.328865,-349.1846,-0.41043317,0.29255068,0.0190237,306.33386,306.36093,300.948,300.67157,358.0,358.0,429.0,430.0,89.0,89.0,89.0,89.0,0.0,0.0,0.0,0.0,0.048716236,0.047406137,0.053928528,0.052519035,-4.0747223,-8.74713,-1.5572457,-3.614947,-43.92116,-110.29243,22.678076,-92.89831,0.0,0.0,0.0,2.0,1.0,-1.5694034,-0.0021960528,-0.0038415194,89.0,89.0,89.0,89.0,21.842827,21.842827,24.816736,24.816736,0.017498355,0.01837914,-4.7727005E-4,-4.6829772E-4,1107.4545,0.0,0.0,0.0,0.0,0.0,0.0,0.0,0.0,0.0,0.0,0.0,0.0,0.0,-83.59774,0.3576826,0.41482627,0.004652005,-0.04659986,4.90879E-4,545739.75,119984.89,0.010152087,0.011112827,8185.908,7474.8896,6777.1484,6133.325,0.3025694,0.0,0.0,0.0
87.14107,87.14107,1.049,0.0,0.0,301.4681,10794.0,100.0,0.0,0.89031774,0.0,8.0,1.0,0.0,4000000.0,110.0,1.0,0.0,0.0,10.0,0.0,0.0,384.16113,39.34669,-349.16928,-0.42883942,0.28913766,-0.011932381,306.89258,306.90604,301.47604,301.1627,356.0,356.0,427.0,429.0,89.0,89.0,89.0,89.0,0.0,0.0,0.0,0.0,0.04856269,0.04684411,0.053947832,0.052375283,-0.7975101,-12.457519,3.4493206,-2.2695956,16.589458,-23.442476,124.95069,94.74902,0.0,0.0,0.0,2.0,1.0,-1.5718962,-0.0027344967,-0.0037119389,89.0,89.0,89.0,89.0,21.842827,21.842827,24.816736,24.816736,0.01757076,0.018533584,-4.8111554E-4,-4.6059044E-4,1110.0945,0.0,0.0,0.0,0.0,0.0,0.0,0.0,0.0,0.0,0.0,0.0,0.0,0.0,-83.740135,0.3545017,0.207771,0.009439675,-0.053449683,0.0021785712,546077.8,119984.9,0.0103814015,0.011693932,8102.3975,7376.351,6814.1577,6087.9824,0.30305672,0.0,0.0,0.0
89.93404,89.93404,1.099,0.0,0.0,301.80515,10805.0,100.0,0.0,0.9638649,0.0,8.0,1.0,0.0,4000000.0,110.0,1.0,0.0,0.0,10.0,0.0,0.0,381.3681,39.358498,-349.16495,-0.4494817,0.28777352,0.015102571,307.22244,307.20273,301.82703,301.4824,355.0,355.0,426.0,428.0,89.0,89.0,89.0,89.0,0.0,0.0,0.0,0.0,0.048667327,0.0466894,0.054116447,0.052380595,0.0,0.0,0.0,0.0,654.4589,462.81512,133.4667,58.338036,0.0,0.0,0.0,2.0,1.0,-1.5737729,-0.0029491351,-0.0037635565,89.0,89.0,89.0,89.0,21.842827,21.842827,24.816736,24.816736,0.017489953,0.018451145,-4.8178402E-4,-4.5967658E-4,1111.6177,0.0,0.0,0.0,0.0,0.0,0.0,0.0,0.0,0.0,0.0,0.0,0.0,0.0,-83.833984,0.35612726,0.062651224,0.003685734,-0.058796793,-0.004765179,546270.44,119984.9,0.010233143,0.0117027415,8171.4233,7440.234,6945.8047,6142.415,0.3029127,0.0,0.0,0.0
95.52936,95.52936,1.149,0.0,0.0,302.4695,10828.0,100.0,0.0,0.94480914,0.0,8.0,1.0,0.0,4000000.0,110.0,1.0,0.0,0.0,10.0,0.0,0.0,375.77274,39.3826,-349.1714,-0.4845621,0.28194818,0.012607285,307.88248,307.8566,302.50702,302.13095,353.0,353.0,424.0,426.0,89.0,89.0,89.0,89.0,0.0,0.0,0.0,0.0,0.048723273,0.04696297,0.054176614,0.052340545,-1.3706087,-0.1759082,2.8804688,0.2507865,-63.300117,-218.5866,111.84811,38.31535,0.0,0.0,0.0,2.0,1.0,-1.5779085,-0.0029686235,-0.003917694,89.0,89.0,89.0,89.0,21.842827,21.842827,24.816736,24.816736,0.017393585,0.018399658,-4.7318664E-4,-4.648934E-4,1114.8062,0.0,0.0,0.0,0.0,0.0,0.0,0.0,0.0,0.0,0.0,0.0,0.0,0.0,-84.01815,0.3662548,-0.24723987,-3.6878051E-4,-0.063473664,-7.807261E-4,546673.6,119984.89,0.010171793,0.011461921,8218.716,7446.2183,6943.3154,6105.4023,0.3028183,0.0,0.0,0.0
99.73387,99.73387,1.199,0.0,0.0,302.9607,10845.0,100.0,0.0,0.8721536,0.0,8.0,1.0,0.0,4000000.0,110.0,1.0,0.0,0.0,10.0,0.0,0.0,371.56827,39.401077,-349.19012,-0.49479666,0.2802531,6.8146084E-4,308.3624,308.33972,302.99014,302.62927,351.0,352.0,422.0,424.0,89.0,89.0,89.0,89.0,0.0,0.0,0.0,0.0,0.048731387,0.04704859,0.054259144,0.05227008,-0.8310377,4.343167,-0.52861863,-2.5583801,-185.95752,162.93079,-147.1996,-57.452908,0.0,0.0,0.0,2.0,1.0,-1.5810157,-0.002764804,-0.004047036,89.0,89.0,89.0,89.0,21.842827,21.842827,24.816736,24.816736,0.01736906,0.018322479,-4.70158E-4,-4.6816576E-4,1117.1602,0.0,0.0,0.0,0.0,0.0,0.0,0.0,0.0,0.0,0.0,0.0,0.0,0.0,-84.1535,0.37140083,-0.48995167,-0.008227326,-0.06050196,-0.0015704752,546969.25,119984.9,0.0101109315,0.011199303,8228.485,7483.466,6943.66,6039.728,0.30251694,0.0,0.0,0.0
103.94525,103.94525,1.249,0.0,0.0,303.44696,10862.0,100.0,0.0,0.81925505,0.0,8.0,1.0,0.0,4000000.0,110.0,1.0,0.0,0.0,10.0,0.0,0.0,367.35703,39.419796,-349.22104,-0.49103966,0.27677897,0.021835785,308.83865,308.83655,303.46143,303.13016,350.0,350.0,421.0,423.0,89.0,89.0,89.0,89.0,0.0,0.0,0.0,0.0,0.048725467,0.047228467,0.054324962,0.052418817,-0.25257465,2.896115,1.5369056,6.9375334,59.330452,82.6925,-3.620982,191.3756,0.0,0.0,0.0,2.0,1.0,-1.5839002,-0.0021669422,-0.0040946007,89.0,89.0,89.0,89.0,21.842827,21.842827,24.816736,24.816736,0.01735575,0.01827439,-4.7041118E-4,-4.6602738E-4,1119.5221,0.0,0.0,0.0,0.0,0.0,0.0,0.0,0.0,0.0,0.0,0.0,0.0,0.0,-84.28678,0.37896252,-0.73278207,-0.010004829,-0.055539124,-0.005033359,547267.75,119984.9,0.009509812,0.011037216,8233.764,7504.3896,7050.0483,6205.1987,0.30248833,0.0,0.0,0.0
106.756546,106.756546,1.299,0.0,0.0,303.76956,10872.0,100.0,0.0,0.81243503,0.0,8.0,1.0,0.0,4000000.0,110.0,1.0,0.0,0.0,10.0,0.0,0.0,364.54587,39.4326,-349.24835,-0.48592743,0.2765714,0.029304726,309.13275,309.11713,303.77872,303.45596,349.0,349.0,420.0,422.0,89.0,89.0,89.0,89.0,0.0,0.0,0.0,0.0,0.048898,0.047487926,0.054394998,0.05244032,0.0,0.0,0.0,0.0,142.72034,468.4209,-220.0484,-120.67256,0.0,0.0,0.0,2.0,1.0,-1.5857258,-0.0017809224,-0.0043894053,89.0,89.0,89.0,89.0,21.842827,21.842827,24.816736,24.816736,0.01726273,0.01813391,-4.7243145E-4,-4.6591338E-4,1120.9149,0.0,0.0,0.0,0.0,0.0,0.0,0.0,0.0,0.0,0.0,0.0,0.0,0.0,-84.37481,0.3886459,-0.89342666,-0.012827101,-0.054132346,-0.009989248,547444.6,119984.9,0.009234675,0.01039131,8308.52,7587.378,7057.0195,6168.7764,0.30169392,0.0,0.0,0.0
112.388016,112.388016,1.349,0.0,0.0,304.40793,10897.0,100.0,0.0,0.8377211,0.0,8.0,1.0,0.0,4000000.0,110.0,1.0,0.0,0.0,10.0,0.0,0.0,358.9148,39.459023,-349.31894,-0.47612095,0.2687265,-0.009161778,309.81445,309.82846,304.4183,304.09998,347.0,347.0,418.0,419.0,89.0,89.0,89.0,89.0,0.0,0.0,0.0,0.0,0.048722904,0.0477007,0.05419846,0.052470002,-10.983421,-13.834386,0.23581086,4.9424167,-141.35237,-785.0154,176.62344,224.79591,0.0,0.0,0.0,2.0,1.0,-1.5892849,-7.250093E-4,-0.0041930676,89.0,89.0,89.0,89.0,21.842827,21.842827,24.816736,24.816736,0.017327119,0.01827788,-4.700765E-4,-4.5900245E-4,1124.3674,0.0,0.0,0.0,0.0,0.0,0.0,0.0,0.0,0.0,0.0,0.0,0.0,0.0,-84.54817,0.39791906,-1.2092614,-0.010997759,-0.05365149,0.0063849394,547871.0,119984.89,0.009474346,0.0106832655,8209.953,7446.2397,6969.7295,6203.037,0.30219173,0.0,0.0,0.0
116.619194,116.619194,1.399,0.0,0.0,304.88043,10913.0,100.0,0.0,0.8249955,0.0,8.0,1.0,0.0,4000000.0,110.0,1.0,0.0,0.0,10.0,0.0,0.0,354.68402,39.47884,-349.38556,-0.4710575,0.26983514,-0.017714348,310.26956,310.25992,304.89087,304.5691,345.0,346.0,416.0,418.0,89.0,89.0,89.0,89.0,0.0,0.0,0.0,0.0,0.048813462,0.04737893,0.054221433,0.05247976,5.0932913,1.04025,-3.1419842,-2.5869904,243.23611,500.84882,-188.43857,-121.4504,0.0,0.0,0.0,2.0,1.0,-1.5919864,-3.4125903E-4,-0.0042744875,89.0,89.0,89.0,89.0,21.842827,21.842827,24.816736,24.816736,0.01727477,0.018155826,-4.7011257E-4,-4.618492E-4,1126.5784,0.0,0.0,0.0,0.0,0.0,0.0,0.0,0.0,0.0,0.0,0.0,0.0,0.0,-84.6758,0.3930809,-1.4434073,-0.0039995527,-0.05414109,-0.002854548,548143.5,119984.89,0.009604604,0.010668923,8256.012,7539.025,6927.0073,6141.2456,0.30197334,0.0,0.0,0.0
119.44358,119.44358,1.449,0.0,0.0,305.19366,10924.0,100.0,0.0,0.7739189,0.0,8.0,1.0,0.0,4000000.0,110.0,1.0,0.0,0.0,10.0,0.0,0.0,351.85995,39.491856,-349.43646,-0.4636844,0.26719287,-0.020014431,310.57797,310.58563,305.20206,304.8874,344.0,345.0,415.0,417.0,89.0,89.0,89.0,89.0,0.0,0.0,0.0,0.0,0.048844945,0.047432598,0.054153528,0.052436635,0.0,0.0,0.0,0.0,-547.9618,-303.33096,86.07208,115.76412,0.0,0.0,0.0,2.0,1.0,-1.5937682,-2.1019066E-4,-0.0042136908,89.0,89.0,89.0,89.0,21.842827,21.842827,24.816736,24.816736,0.017243104,0.01814895,-4.6628815E-4,-4.6403098E-4,1128.1141,0.0,0.0,0.0,0.0,0.0,0.0,0.0,0.0,0.0,0.0,0.0,0.0,0.0,-84.76007,0.38775367,-1.5977702,-0.004575763,-0.052668042,0.0046980525,548338.0,119984.89,0.009690857,0.010587503,8263.525,7516.7256,6905.8203,6134.251,0.30205154,0.0,0.0,0.0
125.100746,125.100746,1.499,0.0,0.0,305.81238,10945.0,100.0,0.0,0.7146856,0.0,8.0,1.0,0.0,4000000.0,110.0,1.0,0.0,0.0,10.0,0.0,0.0,346.20352,39.517376,-349.55353,-0.44590965,0.2641168,-0.007820098,311.18237,311.19852,305.8081,305.51755,342.0,343.0,413.0,415.0,89.0,89.0,89.0,89.0,0.0,0.0,0.0,0.0,0.048876293,0.047406375,0.054213084,0.05259484,4.005879,4.517287,-0.010952353,1.5480815,119.76063,273.2366,-63.19283,-41.171898,0.0,0.0,0.0,2.0,1.0,-1.5971464,-2.4329844E-5,-0.0041143894,89.0,89.0,89.0,89.0,21.842827,21.842827,24.816736,24.816736,0.017208077,0.018072922,-4.6596996E-4,-4.6381037E-4,1131.0529,0.0,0.0,0.0,0.0,0.0,0.0,0.0,0.0,0.0,0.0,0.0,0.0,0.0,-84.925804,0.3796249,-1.8989143,-0.0020037182,-0.048575167,-0.0017474836,548711.6,119984.9,0.009395985,0.010524057,8290.005,7557.2554,6974.5635,6248.2646,0.30188942,0.0,0.0,0.0
129.3508,129.3508,1.549,0.0,0.0,306.27243,10961.0,100.0,0.0,0.6105335,0.0,8.0,1.0,0.0,4000000.0,110.0,1.0,0.0,0.0,10.0,0.0,0.0,341.954,39.536343,-349.65414,-0.41813457,0.2612832,0.0037050874,311.61884,311.65115,306.25397,305.99414,341.0,341.0,412.0,413.0,89.0,89.0,89.0,89.0,0.0,0.0,0.0,0.0,0.048950393,0.047745008,0.05416072,0.052710284,0.03442168,6.334707,-1.2959539,3.550127,-56.675068,-32.843655,-20.143385,86.30008,0.0,0.0,0.0,2.0,1.0,-1.5994476,1.5261155E-4,-0.0041416883,89.0,89.0,89.0,89.0,21.842827,21.842827,24.816736,24.816736,0.017143205,0.017966423,-4.6236388E-4,-4.663975E-4,1133.2698,0.0,0.0,0.0,0.0,0.0,0.0,0.0,0.0,0.0,0.0,0.0,0.0,0.0,-85.048584,0.38012916,-2.112747,-0.0038781462,-0.04309448,2.5390735E-5,548984.56,119984.9,0.009278485,0.010232151,8336.035,7604.6826,6954.8,6315.714,0.3017416,0.0,0.0,0.0
133.60704,133.60704,1.599,0.0,0.0,306.7278,10977.0,100.0,0.0,0.4547389,0.0,8.0,1.0,0.0,4000000.0,110.0,1.0,0.0,0.0,10.0,0.0,0.0,337.69836,39.555313,-349.76483,-0.37240806,0.25869295,-0.020805268,312.07492,312.12054,306.68616,306.47592,339.0,340.0,410.0,412.0,89.0,89.0,89.0,89.0,0.0,0.0,0.0,0.0,0.048874814,0.047890674,0.054041546,0.052777372,-2.818331,1.2738256,-3.7278233,-0.043138858,-128.07547,-134.64688,-111.94198,-82.075584,0.0,0.0,0.0,2.0,1.0,-1.601382,3.0259462E-4,-0.004098177,89.0,89.0,89.0,89.0,21.842827,21.842827,24.816736,24.816736,0.017190857,0.017908249,-4.5799828E-4,-4.6919036E-4,1135.5106,0.0,0.0,0.0,0.0,0.0,0.0,0.0,0.0,0.0,0.0,0.0,0.0,0.0,-85.17009,0.37636358,-2.3072665,-0.0026430916,-0.034394756,0.002769595,549268.3,119984.89,0.009327694,0.0101983,8279.005,7614.833,6860.353,6303.249,0.30168438,0.0,0.0,0.0
137.86932,137.86932,1.649,0.0,0.0,307.18027,10993.0,100.0,0.0,0.35455105,0.0,8.0,1.0,0.0,4000000.0,110.0,1.0,0.0,0.0,10.0,0.0,0.0,333.43668,39.573875,-349.8848,-0.31905508,0.25662306,-0.017417379,312.5254,312.5815,307.1124,306.95563,338.0,338.0,409.0,410.0,89.0,89.0,89.0,89.0,0.0,0.0,0.0,0.0,0.04879082,0.047944356,0.05399712,0.05292761,-1.3715028,1.914203,-0.012740492,3.971457,20.049511,90.60501,43.9614,54.58295,0.0,0.0,0.0,2.0,1.0,-1.6028506,4.3134313E-4,-0.0039668083,89.0,89.0,89.0,89.0,21.842827,21.842827,24.816736,24.816736,0.017240185,0.017838048,-4.5963036E-4,-4.6723278E-4,1137.7445,0.0,0.0,0.0,0.0,0.0,0.0,0.0,0.0,0.0,0.0,0.0,0.0,0.0,-85.29112,0.3671829,-2.4763615,-0.0029804378,-0.025529232,1.6261046E-4,549547.9,119984.9,0.0089805,0.010168175,8224.777,7649.208,6897.5947,6426.0283,0.3015604,0.0,0.0,0.0
140.71422,140.71422,1.699,0.0,0.0,307.48117,11003.0,100.0,0.0,0.37631217,0.0,8.0,1.0,0.0,4000000.0,110.0,1.0,0.0,0.0,10.0,0.0,0.0,330.59216,39.586067,-349.96918,-0.29073447,0.25651535,-0.0044083307,312.80054,312.8595,307.4031,307.2656,337.0,337.0,408.0,409.0,89.0,89.0,89.0,89.0,0.0,0.0,0.0,0.0,0.04888884,0.04817145,0.053984158,0.05305902,0.0,0.0,0.0,0.0,157.33836,134.19089,-47.394627,-47.367794,0.0,0.0,0.0,2.0,1.0,-1.6036377,5.050112E-4,-0.004049182,89.0,89.0,89.0,89.0,21.842827,21.842827,24.816736,24.816736,0.017171187,0.017726716,-4.6536908E-4,-4.631755E-4,1139.0134,0.0,0.0,0.0,0.0,0.0,0.0,0.0,0.0,0.0,0.0,0.0,0.0,0.0,-85.3718,0.36498985,-2.5760343,-9.3948346E-4,-0.02275656,-0.0040571913,549660.75,119984.9,0.008565092,0.0096928775,8266.608,7728.5977,6895.1206,6491.625,0.30108643,0.0,0.0,0.0
144.98657,144.98657,1.749,0.0,0.0,307.9304,11017.0,100.0,0.0,0.44874623,0.0,8.0,1.0,0.0,4000000.0,110.0,1.0,0.0,0.0,10.0,0.0,0.0,326.32037,39.604713,-350.1016,-0.2629261,0.25290778,0.048139837,313.21185,313.24564,307.85617,307.71362,335.0,336.0,406.0,408.0,89.0,89.0,89.0,89.0,0.0,0.0,0.0,0.0,0.049162004,0.048498694,0.05401086,0.05319408,0.0,0.0,0.0,0.0,-991.58575,-944.35205,-379.80075,-304.01495,0.0,0.0,0.0,2.0,1.0,-1.6047804,4.944298E-4,-0.004124999,89.0,89.0,89.0,89.0,21.842827,21.842827,24.816736,24.816736,0.016987793,0.017489618,-4.7029392E-4,-4.5701605E-4,1140.4937,0.0,0.0,0.0,0.0,0.0,0.0,0.0,0.0,0.0,0.0,0.0,0.0,0.0,-85.49235,0.38429877,-2.7119954,0.001881654,-0.024208797,0.0032114317,549675.7,119984.9,0.008581959,0.009242788,8376.242,7892.285,6902.3984,6544.6123,0.30091858,0.0,0.0,0.0
150.69218,150.69218,1.799,0.0,0.0,308.5131,11041.0,100.0,0.0,0.56213766,0.0,8.0,1.0,0.0,4000000.0,110.0,1.0,0.0,0.0,10.0,0.0,0.0,320.61548,39.62975,-350.2886,-0.26717085,0.25000554,-0.07743575,313.90234,313.91513,308.46436,308.2701,333.0,334.0,404.0,406.0,89.0,89.0,89.0,89.0,0.0,0.0,0.0,0.0,0.048602324,0.047769573,0.053857494,0.05303705,2.90215,-4.681572,0.50470227,-1.682639,1139.3888,733.2488,299.17355,163.09169,0.0,0.0,0.0,2.0,1.0,-1.6067063,5.574507E-5,-0.0038363934,89.0,89.0,89.0,89.0,21.842827,21.842827,24.816736,24.816736,0.017240215,0.017843477,-4.6889405E-4,-4.5316768E-4,1143.031,0.0,0.0,0.0,0.0,0.0,0.0,0.0,0.0,0.0,0.0,0.0,0.0,0.0,-85.64862,0.3548431,-2.8895183,0.0104753245,-0.033252366,2.7428096E-4,549701.1,119984.89,0.008724624,0.009964265,8130.493,7630.075,6809.5327,6432.0933,0.30123043,0.0,0.0,0.0
154.97823,154.97823,1.849,0.0,0.0,308.95312,11054.0,100.0,0.0,0.563688,0.0,8.0,1.0,0.0,4000000.0,110.0,1.0,0.0,0.0,10.0,0.0,0.0,316.32993,39.646973,-350.43674,-0.2815683,0.2489592,-0.010297156,314.28168,314.28824,308.91534,308.69977,332.0,332.0,403.0,404.0,89.0,89.0,89.0,89.0,0.0,0.0,0.0,0.0,0.049035802,0.048287366,0.053909995,0.05304544,4.94197,9.602307,0.21591781,2.2599845,-283.75085,-296.4511,-45.798714,136.65852,0.0,0.0,0.0,2.0,1.0,-1.6084688,-2.8521492E-4,-0.0037852526,89.0,89.0,89.0,89.0,21.842827,21.842827,24.816736,24.816736,0.016981397,0.017617403,-4.6604066E-4,-4.5744365E-4,1144.4062,0.0,0.0,0.0,0.0,0.0,0.0,0.0,0.0,0.0,0.0,0.0,0.0,0.0,-85.76617,0.33995238,-3.029064,0.0046330746,-0.036497317,0.0053937063,549715.25,119984.89,0.008684507,0.009187599,8332.529,7772.3994,6852.6826,6470.883,0.3008976,0.0,0.0,0.0
159.27003,159.27003,1.899,0.0,0.0,309.38123,11071.0,100.0,0.0,0.5621521,0.0,8.0,1.0,0.0,4000000.0,110.0,1.0,0.0,0.0,10.0,0.0,0.0,312.0386,39.663746,-350.59204,-0.29811797,0.24090412,-0.05520849,314.74924,314.76398,309.34897,309.12457,330.0,331.0,401.0,403.0,89.0,89.0,89.0,89.0,0.0,0.0,0.0,0.0,0.048850995,0.047996942,0.05390138,0.05306591,-5.176663,-8.7033205,-0.88691705,-2.408847,-9.682759,-161.93835,-87.10473,-251.53754,0.0,0.0,0.0,2.0,1.0,-1.6103308,-7.72818E-4,-0.0033704042,89.0,89.0,89.0,89.0,21.842827,21.842827,24.816736,24.816736,0.017059674,0.017740814,-4.5989748E-4,-4.5456938E-4,1146.2031,0.0,0.0,0.0,0.0,0.0,0.0,0.0,0.0,0.0,0.0,0.0,0.0,0.0,-85.87986,0.32621932,-3.1772544,0.012977561,-0.03783719,0.009082797,549732.94,119984.89,0.009048741,0.009944357,8242.058,7649.72,6823.917,6439.1577,0.3013668,0.0,0.0,0.0
162.13432,162.13432,1.949,0.0,0.0,309.66327,11081.0,100.0,0.0,0.6111478,0.0,8.0,1.0,0.0,4000000.0,110.0,1.0,0.0,0.0,10.0,0.0,0.0,309.17456,39.674232,-350.69983,-0.31214786,0.24044289,-0.06742794,315.03284,315.05527,309.63266,309.40298,329.0,330.0,400.0,402.0,89.0,89.0,89.0,89.0,0.0,0.0,0.0,0.0,0.048796438,0.04784003,0.053920105,0.053003747,0.0,0.0,0.0,0.0,182.9937,229.95917,-27.546284,-59.93395,0.0,0.0,0.0,2.0,1.0,-1.6116041,-0.0012195344,-0.0031585693,89.0,89.0,89.0,89.0,21.842827,21.842827,24.816736,24.816736,0.017069006,0.017784614,-4.62984E-4,-4.521215E-4,1147.2609,0.0,0.0,0.0,0.0,0.0,0.0,0.0,0.0,0.0,0.0,0.0,0.0,0.0,-85.95443,0.30473655,-3.2811286,0.013616073,-0.03894571,0.0057474375,549743.7,119984.89,0.009352947,0.010237776,8227.703,7622.267,6837.7007,6418.1694,0.30135345,0.0,0.0,0.0
167.87018,167.87018,1.999,0.0,0.0,310.21127,11099.0,100.0,0.0,0.7489982,0.0,8.0,1.0,0.0,4000000.0,110.0,1.0,0.0,0.0,10.0,0.0,0.0,303.43924,39.694763,-350.9263,-0.35304767,0.22845468,-0.016879234,315.57175,315.58496,310.2016,309.92822,327.0,328.0,398.0,400.0,89.0,89.0,89.0,89.0,0.0,0.0,0.0,0.0,0.048954472,0.047992684,0.054106854,0.05311742,-8.865594,-6.296262,1.8060206,2.5313346,-135.29059,-6.021566,219.94112,155.7961,0.0,0.0,0.0,2.0,1.0,-1.6144522,-0.0019309521,-0.0030635595,89.0,89.0,89.0,89.0,21.842827,21.842827,24.816736,24.816736,0.016938025,0.017742911,-4.6139065E-4,-4.449453E-4,1149.1665,0.0,0.0,0.0,0.0,0.0,0.0,0.0,0.0,0.0,0.0,0.0,0.0,0.0,-86.09781,0.30571017,-3.5082388,0.013219035,-0.046590723,-0.0012966201,549763.75,119984.92,0.010475418,0.011503962,8310.391,7636.4287,6977.531,6538.657,0.30310535,0.0,0.0,0.0
172.17812,172.17812,2.049,0.0,0.0,310.61234,11111.0,100.0,0.0,0.8145399,0.0,8.0,1.0,0.0,4000000.0,110.0,1.0,0.0,0.0,10.0,0.0,0.0,299.13162,39.71017,-351.10675,-0.3908586,0.22904254,0.048408266,315.90167,315.89462,310.61798,310.30765,326.0,326.0,397.0,398.0,89.0,89.0,89.0,89.0,0.0,0.0,0.0,0.0,0.049471863,0.048404202,0.054371025,0.053099442,15.737191,18.137096,3.6305933,-1.2072175,135.02242,635.3348,-117.09182,21.551548,0.0,0.0,0.0,2.0,1.0,-1.6169538,-0.0025891142,-0.0036152601,89.0,89.0,89.0,89.0,21.842827,21.842827,24.816736,24.816736,0.016658356,0.017515784,-4.6392254E-4,-4.4720035E-4,1150.4342,0.0,0.0,0.0,0.0,0.0,0.0,0.0,0.0,0.0,0.0,0.0,0.0,0.0,-86.201294,0.3164597,-3.6990147,0.009137976,-0.05279992,-0.012996244,549775.8,119984.9,0.010354917,0.010832563,8573.264,7818.7573,7117.863,6536.1816,0.3026142,0.0,0.0,0.0
176.49113,176.49113,2.099,0.0,0.0,311.01303,11124.0,100.0,0.0,0.80404216,0.0,8.0,1.0,0.0,4000000.0,110.0,1.0,0.0,0.0,10.0,0.0,0.0,294.81888,39.72594,-351.29715,-0.4233585,0.22864957,0.10376281,316.28046,316.25504,311.02634,310.6964,325.0,325.0,395.0,397.0,89.0,89.0,89.0,89.0,0.0,0.0,0.0,0.0,0.049668405,0.04850895,0.054652788,0.053177666,19.741728,16.378462,17.15183,9.624883,501.3182,764.5502,378.56686,341.8609,0.0,0.0,0.0,2.0,1.0,-1.6196928,-0.0031715126,-0.0040123463,89.0,89.0,89.0,89.0,21.842827,21.842827,24.816736,24.816736,0.016540047,0.017402459,-4.65056E-4,-4.5266334E-4,1151.8092,0.0,0.0,0.0,0.0,0.0,0.0,0.0,0.0,0.0,0.0,0.0,0.0,0.0,-86.30348,0.33091357,-3.907089,0.0063162795,-0.055889837,-0.015523544,549789.7,119984.91,0.008340682,0.009252052,8681.511,7887.8804,7424.254,6740.066,0.3011446,0.0,0.0,0.0
179.36935,179.36935,2.149,0.0,0.0,311.28003,11130.0,100.0,0.0,0.8417194,0.0,8.0,1.0,0.0,4000000.0,110.0,1.0,0.0,0.0,10.0,0.0,0.0,291.94083,39.738,-351.43005,-0.4472949,0.2284111,0.17814212,316.45526,316.4202,311.2968,310.95926,324.0,324.0,394.0,396.0,89.0,89.0,89.0,89.0,0.0,0.0,0.0,0.0,0.050168406,0.04914897,0.054864675,0.053322945,0.0,0.0,0.0,0.0,-237.16087,-432.4793,-831.4578,-522.36017,0.0,0.0,0.0,2.0,1.0,-1.6215801,-0.003184124,-0.0045745373,89.0,89.0,89.0,89.0,21.842827,21.842827,24.816736,24.816736,0.01619841,0.01703921,-4.664251E-4,-4.541054E-4,1152.4441,0.0,0.0,0.0,0.0,0.0,0.0,0.0,0.0,0.0,0.0,0.0,0.0,0.0,-86.37065,0.3887388,-4.055301,-1.9632702E-4,-0.057102386,-0.010777364,549796.2,119984.9,0.0073568923,0.007883079,8973.82,8174.8477,7380.959,6695.2334,0.29982758,0.0,0.0,0.0
185.13773,185.13773,2.199,0.0,0.0,311.7958,11152.0,100.0,0.0,0.8583422,0.0,8.0,1.0,0.0,4000000.0,110.0,1.0,0.0,0.0,10.0,0.0,0.0,286.1783,39.76711,-351.7111,-0.47428083,0.22015792,0.032741234,317.09097,317.06958,311.81555,311.47446,322.0,322.0,392.0,394.0,89.0,89.0,89.0,89.0,0.0,0.0,0.0,0.0,0.049421363,0.04835115,0.05489803,0.05317905,-11.79166,-11.229514,-3.1746178,-6.4312663,121.41019,220.62508,-249.53929,-178.3803,0.0,0.0,0.0,2.0,1.0,-1.6253903,-0.0030791839,-0.004740715,89.0,89.0,89.0,89.0,21.842827,21.842827,24.816736,24.816736,0.016542772,0.017430186,-4.6231668E-4,-4.467422E-4,1154.7723,0.0,0.0,0.0,0.0,0.0,0.0,0.0,0.0,0.0,0.0,0.0,0.0,0.0,-86.498634,0.4611091,-4.3653064,-0.0046271225,-0.05773495,-0.0035743383,549820.1,119984.91,0.006717111,0.008270343,8610.499,7807.812,7349.5596,6563.316,0.29943085,0.0,0.0,0.0
189.4717,189.4717,2.249,0.0,0.0,312.18423,11165.0,100.0,0.0,0.89492255,0.0,8.0,1.0,0.0,4000000.0,110.0,1.0,0.0,0.0,10.0,0.0,0.0,281.8508,39.79013,-351.9358,-0.4956946,0.22228976,0.08091952,317.46103,317.43716,312.20853,311.8581,320.0,321.0,391.0,392.0,89.0,89.0,89.0,89.0,0.0,0.0,0.0,0.0,0.049746044,0.048481535,0.05489722,0.053029787,28.907953,18.201023,13.392269,5.7850776,1917.6987,1343.4916,1230.2487,796.6026,0.0,0.0,0.0,2.0,1.0,-1.6283141,-0.0027446963,-0.0047750473,89.0,89.0,89.0,89.0,21.842827,21.842827,24.816736,24.816736,0.016439244,0.01736392,-4.63169E-4,-4.451132E-4,1156.1476,0.0,0.0,0.0,0.0,0.0,0.0,0.0,0.0,0.0,0.0,0.0,0.0,0.0,-86.593956,0.4684958,-4.6099143,-0.013898999,-0.05938223,-0.0022739756,549833.94,119984.9,0.0071842866,0.008273925,8773.976,7888.6455,7529.6694,6651.8545,0.29958248,0.0,0.0,0.0
193.8114,193.8114,2.299,0.0,0.0,312.56036,11183.0,100.0,0.0,0.8849145,0.0,8.0,1.0,0.0,4000000.0,110.0,1.0,0.0,0.0,10.0,0.0,0.0,277.5187,39.813488,-352.1729,-0.5053292,0.21359049,-0.1199864,317.95483,317.95178,312.59073,312.2317,319.0,319.0,389.0,391.0,89.0,89.0,89.0,89.0,0.0,0.0,0.0,0.0,0.04886946,0.047816522,0.054488134,0.052813035,-22.528095,-20.78913,-7.6959276,-7.0463862,-166.3908,-307.30057,178.08528,-138.50926,0.0,0.0,0.0,2.0,1.0,-1.6313282,-0.0023037293,-0.0045667887,89.0,89.0,89.0,89.0,21.842827,21.842827,24.816736,24.816736,0.016812732,0.017782466,-4.5300368E-4,-4.4314194E-4,1158.051,0.0,0.0,0.0,0.0,0.0,0.0,0.0,0.0,0.0,0.0,0.0,0.0,0.0,-86.6849,0.4483496,-4.8623953,0.0027469934,-0.06049181,0.0053366413,549852.75,119984.914,0.008485004,0.009623597,8311.224,7504.0776,7051.5366,6294.951,0.30074406,0.0,0.0,0.0
198.15697,198.15697,2.349,0.0,0.0,312.93878,11195.0,100.0,0.0,0.9862905,0.0,8.0,1.0,0.0,4000000.0,110.0,1.0,0.0,0.0,10.0,0.0,0.0,273.18207,39.83444,-352.42288,-0.5308995,0.2163264,-0.079384305,318.29498,318.3073,312.97583,312.60153,317.0,318.0,388.0,389.0,89.0,89.0,89.0,89.0,0.0,0.0,0.0,0.0,0.049227994,0.047548577,0.05447603,0.052613817,5.021095,-0.84064895,2.9685347,0.6656348,-455.07693,227.75974,220.58484,349.82706,0.0,0.0,0.0,2.0,1.0,-1.6344169,-0.0026749962,-0.0042692423,89.0,89.0,89.0,89.0,21.842827,21.842827,24.816736,24.816736,0.016656198,0.017734986,-4.5947838E-4,-4.3977803E-4,1159.3213,0.0,0.0,0.0,0.0,0.0,0.0,0.0,0.0,0.0,0.0,0.0,0.0,0.0,-86.77531,0.3982477,-5.125121,0.0043680635,-0.063512124,0.0074933204,549865.8,119984.9,0.0090639945,0.009806479,8479.408,7554.3857,7133.213,6288.533,0.30139065,0.0,0.0,0.0
201.05722,201.05722,2.399,0.0,0.0,313.18573,11203.0,100.0,0.0,1.0464185,0.0,8.0,1.0,0.0,4000000.0,110.0,1.0,0.0,0.0,10.0,0.0,0.0,270.2885,39.847424,-352.597,-0.5492359,0.21200241,-0.042440522,318.52112,318.5304,313.231,312.8378,317.0,317.0,387.0,388.0,89.0,89.0,89.0,89.0,0.0,0.0,0.0,0.0,0.049321704,0.047714505,0.054576192,0.05276275,0.0,0.0,0.0,0.0,136.35008,305.59744,-113.09533,29.531134,0.0,0.0,0.0,2.0,1.0,-1.6365893,-0.0028102503,-0.0041240454,89.0,89.0,89.0,89.0,21.842827,21.842827,24.816736,24.816736,0.016549522,0.01766842,-4.5969352E-4,-4.379098E-4,1160.1675,0.0,0.0,0.0,0.0,0.0,0.0,0.0,0.0,0.0,0.0,0.0,0.0,0.0,-86.83315,0.3829484,-5.307303,0.0060037943,-0.066805206,0.002326066,549874.25,119984.91,0.009170953,0.009949137,8574.028,7600.9175,7212.1714,6408.7295,0.3014412,0.0,0.0,0.0
206.86539,206.86539,2.449,0.0,0.0,313.67026,11220.0,100.0,0.0,1.1882222,0.0,8.0,1.0,0.0,4000000.0,110.0,1.0,0.0,0.0,10.0,0.0,0.0,264.49576,39.871517,-352.96402,-0.6026257,0.20864084,-0.022525057,319.00293,319.02112,313.74033,313.29114,315.0,315.0,385.0,386.0,89.0,89.0,89.0,89.0,0.0,0.0,0.0,0.0,0.049537346,0.04748156,0.05470825,0.0528383,11.772661,-2.7792153,14.356523,5.4719296,446.6548,536.28076,439.61398,182.02809,0.0,0.0,0.0,2.0,1.0,-1.6413602,-0.004202313,-0.003739953,89.0,89.0,89.0,89.0,21.842827,21.842827,24.816736,24.816736,0.016443936,0.017751668,-4.6289308E-4,-4.374433E-4,1161.9666,0.0,0.0,0.0,0.0,0.0,0.0,0.0,0.0,0.0,0.0,0.0,0.0,0.0,-86.94355,0.34515005,-5.6961684,0.028942145,-0.076558664,8.013452E-4,549892.5,119984.9,0.008563608,0.00987881,8669.605,7534.9795,7379.9453,6517.5156,0.3013363,0.0,0.0,0.0
209.77327,209.77327,2.499,0.0,0.0,313.90933,11225.0,100.0,0.0,1.3089186,0.0,8.0,1.0,0.0,4000000.0,110.0,1.0,0.0,0.0,10.0,0.0,0.0,261.59668,39.88328,-353.1577,-0.6458898,0.20649454,0.08913756,319.14758,319.141,313.99628,313.50528,314.0,314.0,384.0,385.0,89.0,89.0,89.0,89.0,0.0,0.0,0.0,0.0,0.050226875,0.04821256,0.055134732,0.05297748,0.0,0.0,0.0,0.0,923.3235,1359.8933,-296.18286,-75.142075,0.0,0.0,0.0,2.0,1.0,-1.6440431,-0.004858569,-0.004095912,89.0,89.0,89.0,89.0,21.842827,21.842827,24.816736,24.816736,0.01606002,0.017435204,-4.6467475E-4,-4.3656045E-4,1162.4951,0.0,0.0,0.0,0.0,0.0,0.0,0.0,0.0,0.0,0.0,0.0,0.0,0.0,-86.995865,0.36504287,-5.9083996,0.011893082,-0.08357789,-0.013737072,549897.56,119984.92,0.007960768,0.008898723,9043.296,7778.3145,7600.4814,6616.4727,0.3003683,0.0,0.0,0.0
215.5964,215.5964,2.549,0.0,0.0,314.36905,11243.0,100.0,0.0,1.38866,0.0,8.0,1.0,0.0,4000000.0,110.0,1.0,0.0,0.0,10.0,0.0,0.0,255.79355,39.909664,-353.56726,-0.71369046,0.19430374,0.02085432,319.6755,319.6623,314.48288,313.939,312.0,312.0,382.0,383.0,89.0,89.0,89.0,89.0,0.0,0.0,0.0,0.0,0.049873054,0.04800522,0.055182565,0.052921418,-11.718571,-17.076954,6.03944,-4.0579586,2.3603437,-19.79473,244.18826,-166.9541,0.0,0.0,0.0,2.0,1.0,-1.649921,-0.0057390365,-0.004176259,89.0,89.0,89.0,89.0,21.842827,21.842827,24.816736,24.816736,0.016153498,0.017635016,-4.5730444E-4,-4.3199537E-4,1164.4008,0.0,0.0,0.0,0.0,0.0,0.0,0.0,0.0,0.0,0.0,0.0,0.0,0.0,-87.09135,0.41300252,-6.3668313,0.018004755,-0.09242717,0.0017638037,549917.2,119984.9,0.007908474,0.0093418285,8903.76,7574.3477,7555.687,6502.642,0.30075645,0.0,0.0,0.0
219.97014,219.97014,2.599,0.0,0.0,314.70746,11254.0,100.0,0.0,1.432414,0.0,8.0,1.0,0.0,4000000.0,110.0,1.0,0.0,0.0,10.0,0.0,0.0,251.4372,39.93048,-353.89542,-0.766211,0.1981941,0.059723876,319.9712,319.95148,314.83047,314.25748,311.0,311.0,381.0,382.0,89.0,89.0,89.0,89.0,0.0,0.0,0.0,0.0,0.050123744,0.048159905,0.055453543,0.052820366,16.663223,16.585438,7.150322,2.2700427,812.56177,1005.8954,198.93942,359.85852,0.0,0.0,0.0,2.0,1.0,-1.6546761,-0.0063124695,-0.0046275854,89.0,89.0,89.0,89.0,21.842827,21.842827,24.816736,24.816736,0.016013226,0.017538011,-4.5796865E-4,-4.3718363E-4,1165.5634,0.0,0.0,0.0,0.0,0.0,0.0,0.0,0.0,0.0,0.0,0.0,0.0,0.0,-87.157394,0.42598134,-6.741157,0.007490553,-0.09692971,-0.014926031,549928.2,119984.91,0.0073058894,0.008582252,9050.924,7678.7744,7731.121,6537.486,0.29994106,0.0,0.0,0.0
224.34924,224.34924,2.649,0.0,0.0,315.0427,11267.0,100.0,0.0,1.3842283,0.0,8.0,1.0,0.0,4000000.0,110.0,1.0,0.0,0.0,10.0,0.0,0.0,247.07765,39.952652,-354.24265,-0.7916762,0.19288287,-0.04680339,320.34616,320.34106,315.1663,314.5974,309.0,309.0,379.0,381.0,89.0,89.0,89.0,89.0,0.0,0.0,0.0,0.0,0.0499041,0.048007574,0.055272825,0.05252553,-23.422613,-24.035944,-10.94833,-12.556761,-1449.2913,-1366.8535,-604.0066,-601.4719,0.0,0.0,0.0,2.0,1.0,-1.6595061,-0.00631642,-0.0048857927,89.0,89.0,89.0,89.0,21.842827,21.842827,24.816736,24.816736,0.016097644,0.017641827,-4.510058E-4,-4.3863629E-4,1166.94,0.0,0.0,0.0,0.0,0.0,0.0,0.0,0.0,0.0,0.0,0.0,0.0,0.0,-87.219475,0.44590792,-7.133709,-0.004155672,-0.09579416,0.007911918,549942.44,119984.9,0.0070091467,0.007980918,8908.458,7504.081,7388.457,6145.693,0.2992859,0.0,0.0,0.0
228.73367,228.73367,2.699,0.0,0.0,315.37833,11279.0,100.0,0.0,1.3852006,0.0,8.0,1.0,0.0,4000000.0,110.0,1.0,0.0,0.0,10.0,0.0,0.0,242.71512,39.974567,-354.60992,-0.81365,0.1977821,-0.018819835,320.68927,320.68918,315.49478,314.93546,308.0,308.0,378.0,379.0,89.0,89.0,89.0,89.0,0.0,0.0,0.0,0.0,0.04983544,0.047696732,0.055388056,0.052574296,5.2940097,-1.5849619,3.2358615,-0.7630884,266.26285,280.5188,-36.410976,-167.85262,0.0,0.0,0.0,2.0,1.0,-1.6642478,-0.006348932,-0.004589081,89.0,89.0,89.0,89.0,21.842827,21.842827,24.816736,24.816736,0.016147813,0.017684741,-4.5618782E-4,-4.3903678E-4,1168.2104,0.0,0.0,0.0,0.0,0.0,0.0,0.0,0.0,0.0,0.0,0.0,0.0,0.0,-87.279205,0.4346128,-7.5368404,0.0026676634,-0.09432612,0.00354111,549955.44,119984.914,0.005976737,0.0074625784,8909.07,7512.121,7629.827,6349.9624,0.2983818,0.0,0.0,0.0
233.12355,233.12355,2.749,0.0,0.0,315.71317,11292.0,100.0,0.0,1.3763709,0.0,8.0,1.0,0.0,4000000.0,110.0,1.0,0.0,0.0,10.0,0.0,0.0,238.34964,39.99599,-354.99753,-0.81943846,0.19534191,-0.06208341,321.0438,321.06226,315.8272,315.2754,306.0,307.0,376.0,378.0,89.0,89.0,89.0,89.0,0.0,0.0,0.0,0.0,0.04971651,0.04757082,0.055344425,0.052415386,-6.1411405,-5.9661264,-2.441257,-3.8485227,-190.53069,-220.2898,-72.78173,-47.327568,0.0,0.0,0.0,2.0,1.0,-1.6689233,-0.006255677,-0.004230857,89.0,89.0,89.0,89.0,21.842827,21.842827,24.816736,24.816736,0.01618329,0.01774788,-4.5389085E-4,-4.3681383E-4,1169.5858,0.0,0.0,0.0,0.0,0.0,0.0,0.0,0.0,0.0,0.0,0.0,0.0,0.0,-87.33641,0.4182072,-7.9456797,-0.0067740753,-0.093019895,0.011144042,549969.0,119984.9,0.0060180286,0.00736209,8854.988,7439.2925,7535.708,6210.5703,0.29824352,0.0,0.0,0.0
236.05316,236.05316,2.799,0.0,0.0,315.93048,11300.0,100.0,0.0,1.4099925,0.0,8.0,1.0,0.0,4000000.0,110.0,1.0,0.0,0.0,10.0,0.0,0.0,235.43779,40.010128,-355.26736,-0.8255636,0.18768725,-0.04113072,321.25262,321.2767,316.04733,315.4917,306.0,306.0,375.0,377.0,89.0,89.0,89.0,89.0,0.0,0.0,0.0,0.0,0.049850646,0.04787254,0.05541562,0.052447174,0.0,0.0,0.0,0.0,-2181.2927,-1525.1039,-1005.11755,-973.0114,0.0,0.0,0.0,2.0,1.0,-1.6720346,-0.006038846,-0.0038876534,89.0,89.0,89.0,89.0,21.842827,21.842827,24.816736,24.816736,0.016129881,0.017707836,-4.5119098E-4,-4.315888E-4,1170.4313,0.0,0.0,0.0,0.0,0.0,0.0,0.0,0.0,0.0,0.0,0.0,0.0,0.0,-87.37156,0.42091846,-8.220849,-0.011199539,-0.09371645,0.0128885945,549976.94,119984.91,0.0072908695,0.008384305,8874.491,7448.4756,7535.1104,6199.9526,0.29920864,0.0,0.0,0.0
240.45198,240.45198,2.849,0.0,0.0,316.2459,11315.0,100.0,0.0,1.4910393,0.0,8.0,1.0,0.0,4000000.0,110.0,1.0,0.0,0.0,10.0,0.0,0.0,231.06798,40.029106,-355.68933,-0.8392102,0.18603775,-0.16145536,321.68704,321.70215,316.3686,315.79913,304.0,304.0,374.0,375.0,89.0,89.0,89.0,89.0,0.0,0.0,0.0,0.0,0.0491116,0.04658583,0.055155266,0.052154914,0.0,0.0,0.0,0.0,738.38525,383.00592,1006.083,842.522,0.0,0.0,0.0,2.0,1.0,-1.6767734,-0.0058595315,-0.003009081,89.0,89.0,89.0,89.0,21.842827,21.842827,24.816736,24.816736,0.016507436,0.018120563,-4.5396315E-4,-4.2308582E-4,1172.0192,0.0,0.0,0.0,0.0,0.0,0.0,0.0,0.0,0.0,0.0,0.0,0.0,0.0,-87.419876,0.33987623,-8.636256,0.0036076317,-0.09669729,0.010974697,549993.0,119984.91,0.00918699,0.010646236,8537.796,7204.6846,7510.5312,6146.6426,0.3016081,0.0,0.0,0.0
246.32536,246.32536,2.899,0.0,0.0,316.659,11325.0,100.0,0.0,1.5681167,0.0,8.0,1.0,0.0,4000000.0,110.0,1.0,0.0,0.0,10.0,0.0,0.0,225.23793,40.04909,-356.2849,-0.8766504,0.17989248,-0.054939657,322.008,321.9923,316.80084,316.18762,302.0,303.0,372.0,374.0,89.0,89.0,89.0,89.0,0.0,0.0,0.0,0.0,0.049731232,0.04686868,0.055434134,0.05205807,6.2218304,18.803848,3.584772,3.7347522,-175.91267,493.08383,-42.673927,366.44333,0.0,0.0,0.0,2.0,1.0,-1.6835014,-0.0058734636,-0.0027986765,89.0,89.0,89.0,89.0,21.842827,21.842827,24.816736,24.816736,0.01613205,0.01777002,-4.5073364E-4,-4.24563E-4,1173.0795,0.0,0.0,0.0,0.0,0.0,0.0,0.0,0.0,0.0,0.0,0.0,0.0,0.0,-87.47684,0.27552193,-9.210611,-0.01205597,-0.10381156,2.8834306E-4,550004.5,119984.91,0.010556608,0.011218374,8872.019,7441.163,7620.6514,6102.916,0.30286312,0.0,0.0,0.0
250.7448,250.7448,2.949,0.0,0.0,316.95203,11339.0,100.0,0.0,1.5431745,0.0,8.0,1.0,0.0,4000000.0,110.0,1.0,0.0,0.0,10.0,0.0,0.0,220.86316,40.06257,-356.7572,-0.89159685,0.17072666,-0.19603352,322.3716,322.37906,317.09818,316.47546,301.0,301.0,371.0,372.0,89.0,89.0,89.0,89.0,0.0,0.0,0.0,0.0,0.049349032,0.047027092,0.05530757,0.051990904,-34.843903,-29.429642,-18.728077,-19.34856,-2418.0378,-2877.916,-1461.1063,-1631.7753,0.0,0.0,0.0,2.0,1.0,-1.6887459,-0.005103169,-0.002862811,89.0,89.0,89.0,89.0,21.842827,21.842827,24.816736,24.816736,0.016326685,0.018069878,-4.4328385E-4,-4.2311885E-4,1174.5596,0.0,0.0,0.0,0.0,0.0,0.0,0.0,0.0,0.0,0.0,0.0,0.0,0.0,-87.51094,0.24621195,-9.6545105,-0.018908558,-0.10498996,1.3177725E-4,550018.5,119984.91,0.0103172185,0.011230472,8611.164,7111.4385,7256.804,5754.1396,0.30286503,0.0,0.0,0.0
253.761,253.761,2.999,0.0,0.0,317.157,11340.0,100.0,0.0,1.5343101,0.0,8.0,1.0,0.0,4000000.0,110.0,1.0,0.0,0.0,10.0,0.0,0.0,217.9457,40.07052,-357.0844,-0.8968645,0.1825181,0.063932724,322.41504,322.39355,317.2901,316.67728,300.0,300.0,370.0,371.0,89.0,89.0,89.0,89.0,0.0,0.0,0.0,0.0,0.050264195,0.047594137,0.05575557,0.05252563,0.0,0.0,0.0,0.0,1213.8872,1901.4579,622.0712,565.946,0.0,0.0,0.0,2.0,1.0,-1.6922134,-0.004803292,-0.0031011105,89.0,89.0,89.0,89.0,21.842827,21.842827,24.816736,24.816736,0.015890067,0.017459793,-4.4799995E-4,-4.5358238E-4,1174.6658,0.0,0.0,0.0,0.0,0.0,0.0,0.0,0.0,0.0,0.0,0.0,0.0,0.0,-87.5347,0.24615425,-9.9539175,-0.0028448536,-0.10193484,-0.019820154,550019.75,119984.91,0.008029088,0.009251401,9110.901,7660.9307,8019.29,6570.5405,0.30106926,0.0,0.0,0.0
259.7866,259.7866,3.049,0.0,0.0,317.53918,11358.0,100.0,0.0,1.5237089,0.0,8.0,1.0,0.0,4000000.0,110.0,1.0,0.0,0.0,10.0,0.0,0.0,212.10864,40.092937,-357.76868,-0.88972396,0.1670079,0.2592492,322.68793,323.16168,317.6451,317.09436,298.0,299.0,368.0,369.0,89.0,89.0,89.0,89.0,0.0,0.0,0.0,0.0,0.051224418,0.049156338,0.056195576,0.053235956,-14.930739,-21.439342,-0.9635835,-2.5999544,-845.0969,-1096.4869,-160.86546,-511.2558,0.0,0.0,0.0,2.0,1.0,-1.6985548,-0.0043650013,-0.00439322,89.0,89.0,89.0,89.0,21.842827,21.842827,24.816736,24.816736,0.015505285,0.018450879,-4.5227024E-4,-4.437293E-4,1176.5723,0.0,0.0,0.0,0.0,0.0,0.0,0.0,0.0,0.0,0.0,0.0,0.0,0.0,-87.57143,0.4278386,-10.547163,0.0015101214,-0.09197733,-0.0011828598,550039.3,119984.9,0.0063824966,0.006863388,9709.178,8144.4565,8095.6084,6758.715,0.29910278,0.0,0.0,0.0
264.30045,264.30045,3.099,0.0,0.0,317.81784,11376.0,100.0,0.0,1.5042869,0.0,8.0,1.0,0.0,4000000.0,110.0,1.0,0.0,0.0,10.0,0.0,0.0,207.72943,40.11577,-358.3075,-0.85726076,0.16580619,-0.02079608,323.18555,323.71103,317.92606,317.37537,297.0,297.0,367.0,368.0,89.0,89.0,89.0,89.0,0.0,0.0,0.0,0.0,0.050007,0.047913637,0.055849016,0.052869163,-19.429474,-18.134638,-9.417906,-6.851032,489.0605,744.27264,-122.040504,44.12235,0.0,0.0,0.0,2.0,1.0,-1.703156,-0.004240454,-0.004388094,89.0,89.0,89.0,89.0,21.842827,21.842827,24.816736,24.816736,0.016199606,0.019316958,-4.461352E-4,-4.3473055E-4,1178.4784,0.0,0.0,0.0,0.0,0.0,0.0,0.0,0.0,0.0,0.0,0.0,0.0,0.0,-87.59611,0.46186507,-10.979532,-0.005982713,-0.092148766,-0.006579517,550058.7,119984.9,0.007470464,0.009244802,9030.828,7513.467,7783.7236,6458.2686,0.30062675,0.0,0.0,0.0
268.81082,268.81082,3.149,0.0,0.0,318.11053,11385.0,100.0,0.0,1.501554,0.0,8.0,1.0,0.0,4000000.0,110.0,1.0,0.0,0.0,10.0,0.0,0.0,203.3489,40.138535,-358.86774,-0.849281,0.17452739,0.0025529936,323.4309,323.9402,318.21896,317.66473,296.0,296.0,365.0,367.0,89.0,89.0,89.0,89.0,0.0,0.0,0.0,0.0,0.05028335,0.048192974,0.055598076,0.052720208,12.004449,16.071348,-3.235638,-1.2539326,142.42526,527.4161,166.43106,136.6183,0.0,0.0,0.0,2.0,1.0,-1.7077881,-0.004006789,-0.0050109625,89.0,89.0,89.0,89.0,21.842827,21.842827,24.816736,24.816736,0.016072758,0.019156884,-4.491675E-4,-4.4244452E-4,1179.1094,0.0,0.0,0.0,0.0,0.0,0.0,0.0,0.0,0.0,0.0,0.0,0.0,0.0,-87.62375,0.45412093,-11.405036,-0.0011540522,-0.09258244,-0.011547414,549918.2,119984.9,0.0074884114,0.008441205,9148.836,7649.5815,7702.6445,6417.046,0.30017567,0.0,0.0,0.0
271.81628,271.81628,3.199,0.0,0.0,318.30722,11389.0,100.0,0.0,1.4781713,0.0,8.0,1.0,0.0,4000000.0,110.0,1.0,0.0,0.0,10.0,0.0,0.0,200.42778,40.15401,-359.253,-0.8447074,0.17341058,0.09468615,323.57166,324.0687,318.4137,317.866,295.0,295.0,364.0,366.0,89.0,89.0,89.0,89.0,0.0,0.0,0.0,0.0,0.05055695,0.04859329,0.05566777,0.052882507,0.0,0.0,0.0,0.0,0.72418207,2.8565595,304.85983,358.43695,0.0,0.0,0.0,2.0,1.0,-1.710854,-0.0039994717,-0.005219817,89.0,89.0,89.0,89.0,21.842827,21.842827,24.816736,24.816736,0.015881877,0.018900791,-4.4962537E-4,-4.4445723E-4,1179.321,0.0,0.0,0.0,0.0,0.0,0.0,0.0,0.0,0.0,0.0,0.0,0.0,0.0,-87.64162,0.4772387,-11.686813,0.0039843568,-0.09149753,-0.0029374557,549823.7,119984.91,0.0070371814,0.007796665,9319.273,7828.5874,7856.5225,6617.025,0.29959965,0.0,0.0,0.0
277.82452,277.82452,3.249,0.0,0.0,318.68384,11406.0,100.0,0.0,1.4472615,0.0,8.0,1.0,0.0,4000000.0,110.0,1.0,0.0,0.0,10.0,0.0,0.0,194.58395,40.18735,-360.05142,-0.8278131,0.16253985,-0.008173453,324.02502,324.55002,318.78842,318.25055,293.0,293.0,362.0,364.0,89.0,89.0,89.0,89.0,0.0,0.0,0.0,0.0,0.050115015,0.04806475,0.05564438,0.052822128,-9.576603,-16.071125,-2.0910053,-2.1415203,-47.770096,-864.7575,24.569033,-29.53112,0.0,0.0,0.0,2.0,1.0,-1.7168909,-0.0041902843,-0.005118251,89.0,89.0,89.0,89.0,21.842827,21.842827,24.816736,24.816736,0.016087893,0.01918111,-4.443342E-4,-4.3680597E-4,1180.387,0.0,0.0,0.0,0.0,0.0,0.0,0.0,0.0,0.0,0.0,0.0,0.0,0.0,-87.67127,0.5077903,-12.241837,0.0011621404,-0.08996774,0.0022282295,549500.44,119984.9,0.0074761594,0.008773777,9078.775,7520.9033,7745.0947,6476.8687,0.30015373,0.0,0.0,0.0
282.32925,282.32925,3.299,0.0,0.0,318.97903,11405.0,100.0,0.0,1.3442693,0.0,8.0,1.0,0.0,4000000.0,110.0,1.0,0.0,0.0,10.0,0.0,0.0,190.19984,40.212425,-360.67453,-0.81935686,0.19347665,3.2376032E-5,324.23984,324.29233,319.08597,318.54257,292.0,292.0,361.0,363.0,89.0,89.0,89.0,89.0,0.0,0.0,0.0,0.0,0.05016377,0.04824554,0.05556994,0.052873567,7.113218,18.257572,-0.77918166,4.1361895,363.35883,1087.4077,36.04888,254.66231,0.0,0.0,0.0,2.0,1.0,-1.7214794,-0.004292767,-0.005344987,89.0,89.0,89.0,89.0,21.842827,21.842827,24.816736,24.816736,0.015930967,0.017531937,-4.5355028E-4,-4.426306E-4,1180.3088,0.0,0.0,0.0,0.0,0.0,0.0,0.0,0.0,0.0,0.0,0.0,0.0,0.0,-87.69533,0.49952957,-12.656118,0.006614484,-0.09129537,-0.008456466,549512.25,119984.91,0.0072390186,0.008514881,9113.475,7642.23,7743.9663,6553.124,0.29995537,0.0,0.0,0.0
286.83383,286.83383,3.349,0.0,0.0,319.26108,11412.0,100.0,0.0,1.2335465,0.0,8.0,1.0,0.0,4000000.0,110.0,1.0,0.0,0.0,10.0,0.0,0.0,185.81453,40.23793,-361.31808,-0.8054479,0.16410229,0.059669346,324.42862,324.48294,319.35666,318.8419,291.0,291.0,360.0,361.0,89.0,89.0,89.0,89.0,0.0,0.0,0.0,0.0,0.050516933,0.048386555,0.055546526,0.053085193,2.183765,0.92670316,-1.2293457,5.1301713,-304.4173,-213.34288,-117.38686,69.724014,0.0,0.0,0.0,2.0,1.0,-1.7259175,-0.004774137,-0.005674362,89.0,89.0,89.0,89.0,21.842827,21.842827,24.816736,24.816736,0.015568252,0.017109016,-4.4216003E-4,-4.3704375E-4,1180.7476,0.0,0.0,0.0,0.0,0.0,0.0,0.0,0.0,0.0,0.0,0.0,0.0,0.0,-87.714905,0.52356905,-13.061722,0.013101125,-0.08614695,-7.9353387E-4,549379.3,119984.9,0.006590339,0.007557238,9302.01,7749.7124,7751.9385,6667.0156,0.29929447,0.0,0.0,0.0
289.83698,289.83698,3.399,0.0,0.0,319.4453,11420.0,100.0,0.0,1.1554928,0.0,8.0,1.0,0.0,4000000.0,110.0,1.0,0.0,0.0,10.0,0.0,0.0,182.89049,40.255486,-361.75827,-0.78166354,0.1627077,0.011997482,324.64328,324.71198,319.5269,319.0446,290.0,290.0,359.0,360.0,89.0,89.0,89.0,89.0,0.0,0.0,0.0,0.0,0.05027176,0.04818039,0.055415146,0.053112153,0.0,0.0,0.0,0.0,220.9201,301.50705,413.5295,110.03761,0.0,0.0,0.0,2.0,1.0,-1.7286801,-0.0053297845,-0.005615473,89.0,89.0,89.0,89.0,21.842827,21.842827,24.816736,24.816736,0.015692087,0.017179603,-4.3999674E-4,-4.3664486E-4,1181.2452,0.0,0.0,0.0,0.0,0.0,0.0,0.0,0.0,0.0,0.0,0.0,0.0,0.0,-87.72715,0.5293415,-13.324189,0.01959192,-0.08054358,0.0063676005,549225.9,119984.9,0.0064058653,0.0075095766,9169.341,7667.373,7679.0815,6644.6523,0.29893208,0.0,0.0,0.0
295.8445,295.8445,3.449,0.0,0.0,319.8129,11434.0,100.0,0.0,1.0742377,0.0,8.0,1.0,0.0,4000000.0,110.0,1.0,0.0,0.0,10.0,0.0,0.0,177.0411,40.290684,-362.66418,-0.7285013,0.15998004,-0.05135792,325.05682,325.12836,319.87564,319.43866,288.0,288.0,357.0,358.0,89.0,89.0,89.0,89.0,0.0,0.0,0.0,0.0,0.049919713,0.048103444,0.055361714,0.052879754,-8.432641,-4.8118825,-2.7266889,-2.5932488,-49.28558,-585.4188,-69.10711,159.00134,0.0,0.0,0.0,2.0,1.0,-1.7337724,-0.006148855,-0.00528872,89.0,89.0,89.0,89.0,21.842827,21.842827,24.816736,24.816736,0.015863603,0.01724709,-4.4030402E-4,-4.3044647E-4,1182.0746,0.0,0.0,0.0,0.0,0.0,0.0,0.0,0.0,0.0,0.0,0.0,0.0,0.0,-87.75295,0.51831555,-13.825625,5.2356045E-4,-0.07318224,0.008771999,548938.5,119984.91,0.007340016,0.00828999,8963.612,7590.763,7588.0757,6476.482,0.299572,0.0,0.0,0.0
