LapDistance [m],TotalDistance [m],LapTime [s],Sector1Time [s],Sector2Time [s],Speed [km/h],EngineRevs [rpm],ThrottlePercentage [%],BrakePercentage [%],Steer [%],Clutch [%],Gear [int],DRS [0/1],CanUseDRS [0/1],KERSLevel [J],EngineTemperature [C],RacePosition [int],Sector [int],InPits [int],FuelRemaining [kg],CurrentFlag [int],CurrentLapInvalid [int],X [m],Y [m],Z [m],GForceLatitudinal [G],GForceLongitudinal [G],GForceVertical [G],WheelSpeedRearLeft [km/h],WheelSpeedRearRight [km/h],WheelSpeedFrontLeft [km/h],WheelSpeedFrontRight [km/h],BrakeTemperatureRearLeft [C],BrakeTemperatureRearRight [C],BrakeTemperatureFrontLeft [C],BrakeTemperatureFrontRight [C],TyreTemperatureRearLeft [C],TyreTemperatureRearRight [C],TyreTemperatureFrontLeft [C],TyreTemperatureFrontRight [C],TyreWearRearLeft [%],TyreWearRearRight [%],TyreWearFrontLeft [%],TyreWearFrontRight [%],SuspensionPositionRearLeft [m],SuspensionPositionRearRight [m],SuspensionPositionFrontLeft [m],SuspensionPositionFrontRight [m],SuspensionVelocityRearLeft [m/s],SuspensionVelocityRearRight [m/s],SuspensionVelocityFrontLeft [m/s],SuspensionVelocityFrontRight [m/s],SuspensionAccelerationRearLeft [m/s^2],SuspensionAccelerationRearRight [m/s^2],SuspensionAccelerationFrontLeft [m/s^2],SuspensionAccelerationFrontRight [m/s^2],MGUKHarvested [J],MGUHHarvested [J],ERSSpent [J],ERSMode [int],FuelMixMode [int],Yaw [rad],Roll [rad],Pitch [rad],TyreCarcassTemperatureRearLeft [C],TyreCarcassTemperatureRearRight [C],TyreCarcassTemperatureFrontLeft [C],TyreCarcassTemperatureFrontRight [C],TyrePressureRearLeft [PSI],TyrePressureRearRight [PSI],TyrePressureFrontLeft [PSI],TyrePressureFrontRight [PSI],WheelSlipRearLeft [%],WheelSlipRearRight [%],WheelSlipFrontLeft [%],WheelSlipFrontRight [%],Torque [Nm],Handbrake [%],RearLeftInside [C],RearLeftMiddle [C],RearLeftOutside [C],RearRightInside [C],RearRightMiddle [C],RearRightOutside [C],FrontLeftInside [C],FrontLeftMiddle [C],FrontLeftOutside [C],FrontRightInside [C],FrontRightMiddle [C],FrontRightOutside [C],WoldSpeedX [km/h],WoldSpeedY [km/h],WoldSpeedZ [km/h],LocalAngularVelocityX [rad/s],LocalAngularVelocityY [rad/s],LocalAngularVelocityZ [rad/s],IcePower [W],MgukPower [W],FrontRideHeight [m],RearRideHeight [m],LoadRearLeft [N],LoadRearRight [N],LoadFrontLeft [N],LoadFrontRight [N],Extra1 [m],Extra2 [],Extra3 [],Extra4 []
2.7484417,2.7484417,0.033,0.0,0.0,289.0888,10419.0,100.0,0.0,1.1638188,0.0,8.0,1.0,0.0,4000000.0,110.0,1.0,0.0,0.0,10.0,0.0,0.0,468.56973,39.01444,-352.31177,-0.5844153,0.3603383,0.029992826,294.72974,294.73886,289.1509,288.71866,386.0,386.0,459.0,460.0,89.0,89.0,89.0,89.0,0.0,0.0,0.0,0.0,0.045870803,0.042125344,0.053344402,0.050812192,-12.826993,-14.809146,-0.6783753,-4.055723,-424.41928,-366.29584,-7.9125156,-156.10454,0.0,0.0,0.0,2.0,1.0,-1.5208013,-0.004376739,-0.0031518936,89.0,89.0,89.0,89.0,21.842827,21.842827,24.816736,24.816736,0.01888093,0.020234412,-4.950935E-4,-4.8736873E-4,1053.6693,0.0,0.0,0.0,0.0,0.0,0.0,0.0,0.0,0.0,0.0,0.0,0.0,0.0,-80.17951,0.3645206,4.426689,0.0068800906,-0.0729083,0.0013621836,536976.5,119984.91,0.012686269,0.016337803,7516.47,6653.3184,6415.461,5250.8594,0.31026554,0.0,0.0,0.0
6.761522,6.761522,0.083,0.0,0.0,289.7143,10444.0,100.0,0.0,1.131611,0.0,8.0,1.0,0.0,4000000.0,110.0,1.0,0.0,0.0,10.0,0.0,0.0,464.55573,39.033474,-352.09775,-0.58182675,0.35423154,-0.035879202,295.409,295.44083,289.77832,289.34546,384.0,384.0,457.0,458.0,89.0,89.0,89.0,89.0,0.0,0.0,0.0,0.0,0.04549141,0.041696865,0.053149365,0.050672676,-15.06932,-22.683664,-9.866506,-8.022039,-597.55585,-798.6947,-307.26044,1.8909644,0.0,0.0,0.0,2.0,1.0,-1.5244542,-0.005017566,-0.0029962063,89.0,89.0,89.0,89.0,21.842827,21.842827,24.816736,24.816736,0.019004893,0.020414468,-4.8869953E-4,-4.885272E-4,1058.563,0.0,0.0,0.0,0.0,0.0,0.0,0.0,0.0,0.0,0.0,0.0,0.0,0.0,-80.368256,0.3805195,4.1492076,0.01212261,-0.0727367,0.0109447315,538179.1,119984.9,0.014144338,0.017597826,7433.168,6524.783,6199.4287,5087.257,0.31159782,0.0,0.0,0.0
9.442131,9.442131,0.133,0.0,0.0,290.12476,10464.0,100.0,0.0,1.1133825,0.0,8.0,1.0,0.0,4000000.0,110.0,1.0,0.0,0.0,10.0,0.0,0.0,461.8745,39.045624,-351.9628,-0.5784337,0.35119277,-0.13516462,295.97876,296.00168,290.18732,289.75674,383.0,383.0,456.0,457.0,89.0,89.0,89.0,89.0,0.0,0.0,0.0,0.0,0.04438283,0.04050035,0.052981976,0.050480668,0.0,0.0,0.0,0.0,-690.2397,-829.862,186.99019,118.258575,0.0,0.0,0.0,2.0,1.0,-1.5268694,-0.005304276,-0.002517581,89.0,89.0,89.0,89.0,21.842827,21.842827,24.816736,24.816736,0.019552683,0.020962281,-4.88718E-4,-4.8629343E-4,1062.5258,0.0,0.0,0.0,0.0,0.0,0.0,0.0,0.0,0.0,0.0,0.0,0.0,0.0,-80.49187,0.34653497,3.9650648,0.0059486907,-0.07242515,0.012542092,539161.3,119984.91,0.014496443,0.018963031,7112.1523,6210.8687,6155.7397,5007.906,0.31253433,0.0,0.0,0.0
14.815765,14.815765,0.183,0.0,0.0,290.9577,10489.0,100.0,0.0,1.0200007,0.0,8.0,1.0,0.0,4000000.0,110.0,1.0,0.0,0.0,10.0,0.0,0.0,456.49976,39.066975,-351.71118,-0.5732343,0.35450473,-0.03747359,296.67398,296.70322,291.00684,290.6034,381.0,381.0,454.0,455.0,89.0,89.0,89.0,89.0,0.0,0.0,0.0,0.0,0.04390667,0.040350597,0.053115048,0.05058364,8.898005,11.77825,1.5065073,1.5328823,434.8933,329.75076,-0.75101846,40.21972,0.0,0.0,0.0,2.0,1.0,-1.5315486,-0.0056321207,-0.0021117926,89.0,89.0,89.0,89.0,21.842827,21.842827,24.816736,24.816736,0.019089626,0.02039443,-4.8709055E-4,-4.8914994E-4,1067.4795,0.0,0.0,0.0,0.0,0.0,0.0,0.0,0.0,0.0,0.0,0.0,0.0,0.0,-80.740875,0.3051223,3.5980635,0.0028870835,-0.06759003,0.0071568065,540384.0,119984.9,0.014410436,0.018653408,7399.076,6553.5327,6304.1973,5153.238,0.3120823,0.0,0.0,0.0
18.856863,18.856863,0.233,0.0,0.0,291.56937,10512.0,100.0,0.0,1.0398922,0.0,8.0,1.0,0.0,4000000.0,110.0,1.0,0.0,0.0,10.0,0.0,0.0,452.4579,39.081738,-351.53845,-0.56239843,0.34829396,-0.07757558,297.34244,297.3524,291.61456,291.22003,379.0,379.0,452.0,453.0,89.0,89.0,89.0,89.0,0.0,0.0,0.0,0.0,0.04379282,0.04043777,0.053117834,0.050559495,-7.359087,-2.0722299,-3.4781544,-4.222914,-346.05856,-239.76263,-305.43652,-324.46677,0.0,0.0,0.0,2.0,1.0,-1.534885,-0.0056074364,-0.0017182827,89.0,89.0,89.0,89.0,21.842827,21.842827,24.816736,24.816736,0.019251449,0.02046472,-4.892654E-4,-4.8361756E-4,1071.343,0.0,0.0,0.0,0.0,0.0,0.0,0.0,0.0,0.0,0.0,0.0,0.0,0.0,-80.922646,0.28177008,3.3267727,-0.0022191363,-0.06642656,0.009819994,541153.2,119984.9,0.014816615,0.019213408,7273.8066,6497.804,6240.3843,5070.576,0.3125162,0.0,0.0,0.0
22.906967,22.906967,0.283,0.0,0.0,292.17593,10533.0,100.0,0.0,1.0222918,0.0,8.0,1.0,0.0,4000000.0,110.0,1.0,0.0,0.0,10.0,0.0,0.0,448.40704,39.09497,-351.3792,-0.5562687,0.34549704,-0.04665618,297.9462,297.9486,292.2208,291.8265,378.0,378.0,450.0,451.0,89.0,89.0,89.0,89.0,0.0,0.0,0.0,0.0,0.04356359,0.04038262,0.053213615,0.050662793,-1.7521529,1.7695873,4.251301,4.085004,201.27295,211.04958,136.49759,84.52979,0.0,0.0,0.0,2.0,1.0,-1.5382042,-0.005357473,-0.0012938976,89.0,89.0,89.0,89.0,21.842827,21.842827,24.816736,24.816736,0.019215537,0.020410176,-4.878678E-4,-4.8042394E-4,1074.2175,0.0,0.0,0.0,0.0,0.0,0.0,0.0,0.0,0.0,0.0,0.0,0.0,0.0,-81.10191,0.25285795,3.0590472,-0.0067293923,-0.06642541,0.004059341,541523.3,119984.9,0.014788031,0.01959573,7292.006,6528.6953,6399.455,5233.7725,0.31285858,0.0,0.0,0.0
26.966013,26.966013,0.333,0.0,0.0,292.7728,10551.0,100.0,0.0,1.007409,0.0,8.0,1.0,0.0,4000000.0,110.0,1.0,0.0,0.0,10.0,0.0,0.0,444.3473,39.108154,-351.23334,-0.55357873,0.33894888,0.020814708,298.4518,298.44617,292.81528,292.4226,376.0,376.0,449.0,450.0,89.0,89.0,89.0,89.0,0.0,0.0,0.0,0.0,0.04443318,0.04140576,0.053450428,0.050878793,16.407965,17.17396,-1.5787034,-2.9526649,-83.77887,-243.16908,-267.02725,-280.71994,0.0,0.0,0.0,2.0,1.0,-1.5415157,-0.0050056647,-0.0017584562,89.0,89.0,89.0,89.0,21.842827,21.842827,24.816736,24.816736,0.018871216,0.020036161,-4.854055E-4,-4.8008742E-4,1076.6702,0.0,0.0,0.0,0.0,0.0,0.0,0.0,0.0,0.0,0.0,0.0,0.0,0.0,-81.27739,0.27080274,2.7917752,-0.009349152,-0.06598381,-0.01205591,541833.75,119984.9,0.01521856,0.019204969,7483.695,6730.741,6478.6445,5300.5303,0.3129635,0.0,0.0,0.0
31.03382,31.03382,0.383,0.0,0.0,293.36072,10571.0,100.0,0.0,1.0029181,0.0,8.0,1.0,0.0,4000000.0,110.0,1.0,0.0,0.0,10.0,0.0,0.0,440.27884,39.122013,-351.10077,-0.5489269,0.3338793,0.03308958,299.02713,299.02576,293.40152,293.01547,374.0,374.0,447.0,448.0,89.0,89.0,89.0,89.0,0.0,0.0,0.0,0.0,0.044975713,0.041972447,0.053365227,0.05089277,8.404701,6.0841436,0.3737211,2.8207896,-150.92787,-399.23337,133.38623,170.28001,0.0,0.0,0.0,2.0,1.0,-1.5447794,-0.004574423,-0.002120614,89.0,89.0,89.0,89.0,21.842827,21.842827,24.816736,24.816736,0.018788697,0.019940581,-4.8383285E-4,-4.7737538E-4,1079.4203,0.0,0.0,0.0,0.0,0.0,0.0,0.0,0.0,0.0,0.0,0.0,0.0,0.0,-81.4494,0.2845214,2.5268483,-0.0069391998,-0.06495193,-0.004343794,542190.0,119984.9,0.01556124,0.019046143,7516.0625,6764.8745,6467.249,5348.9746,0.31325245,0.0,0.0,0.0
35.110214,35.110214,0.433,0.0,0.0,293.94675,10590.0,100.0,0.0,0.9512051,0.0,8.0,1.0,0.0,4000000.0,110.0,1.0,0.0,0.0,10.0,0.0,0.0,436.20187,39.135937,-350.98132,-0.54006,0.33634627,0.07162561,299.56802,299.5714,293.97977,293.60498,373.0,373.0,445.0,446.0,89.0,89.0,89.0,89.0,0.0,0.0,0.0,0.0,0.04495801,0.041975982,0.053535175,0.051112507,18.513947,21.114796,9.7940855,10.890885,1164.9637,1272.5605,155.0719,165.63977,0.0,0.0,0.0,2.0,1.0,-1.5479792,-0.0042182854,-0.0025242567,89.0,89.0,89.0,89.0,21.842827,21.842827,24.816736,24.816736,0.018666342,0.019786954,-4.8520716E-4,-4.8214232E-4,1082.0302,0.0,0.0,0.0,0.0,0.0,0.0,0.0,0.0,0.0,0.0,0.0,0.0,0.0,-81.61992,0.28822628,2.2658741,-0.0059936903,-0.0628368,-0.017949212,542525.8,119984.89,0.013693839,0.017728321,7600.347,6873.5957,6685.465,5584.206,0.31165695,0.0,0.0,0.0
39.195175,39.195175,0.483,0.0,0.0,294.53085,10608.0,100.0,0.0,0.9009972,0.0,8.0,1.0,0.0,4000000.0,110.0,1.0,0.0,0.0,10.0,0.0,0.0,432.11636,39.152004,-350.87488,-0.5265404,0.3313572,0.12109325,300.0568,300.05798,294.55664,294.19827,371.0,371.0,444.0,445.0,89.0,89.0,89.0,89.0,0.0,0.0,0.0,0.0,0.04675717,0.043718547,0.05367418,0.051270068,27.504486,25.587154,-0.20854174,0.3377348,-1050.3529,-1071.7838,-17.689165,21.041927,0.0,0.0,0.0,2.0,1.0,-1.5510486,-0.003993702,-0.003507018,89.0,89.0,89.0,89.0,21.842827,21.842827,24.816736,24.816736,0.018283136,0.01934469,-4.8294637E-4,-4.8319122E-4,1084.4722,0.0,0.0,0.0,0.0,0.0,0.0,0.0,0.0,0.0,0.0,0.0,0.0,0.0,-81.78873,0.35088336,2.0079432,-0.0060164155,-0.05992745,-0.013568563,542827.56,119984.89,0.012318848,0.015218779,7815.9346,7091.2417,6660.586,5568.4814,0.30974197,0.0,0.0,0.0
43.288486,43.288486,0.533,0.0,0.0,295.10995,10630.0,100.0,0.0,0.8183527,0.0,8.0,1.0,0.0,4000000.0,110.0,1.0,0.0,0.0,10.0,0.0,0.0,428.02255,39.17088,-350.78107,-0.4994507,0.32984063,0.07207875,300.6669,300.68158,295.12292,294.79422,369.0,370.0,442.0,443.0,89.0,89.0,89.0,89.0,0.0,0.0,0.0,0.0,0.04696648,0.044035755,0.05357395,0.051307753,-3.0612943,-1.4966725,-2.1958349,-0.08672475,-375.26782,-480.85297,10.2460375,-86.66216,0.0,0.0,0.0,2.0,1.0,-1.5539061,-0.0036641913,-0.0039098263,89.0,89.0,89.0,89.0,21.842827,21.842827,24.816736,24.816736,0.018387986,0.019396042,-4.813433E-4,-4.833865E-4,1087.4817,0.0,0.0,0.0,0.0,0.0,0.0,0.0,0.0,0.0,0.0,0.0,0.0,0.0,-81.955086,0.39705044,1.7619313,-0.0064001437,-0.054838754,-0.0040182346,543207.44,119984.9,0.01137826,0.014265564,7725.8584,7041.911,6594.2207,5567.628,0.30876637,0.0,0.0,0.0
47.390186,47.390186,0.583,0.0,0.0,295.68924,10648.0,100.0,0.0,0.82054067,0.0,8.0,1.0,0.0,4000000.0,110.0,1.0,0.0,0.0,10.0,0.0,0.0,423.9204,39.19148,-350.69922,-0.48069102,0.3317449,0.1585706,301.193,301.19843,295.6946,295.38177,368.0,368.0,441.0,442.0,89.0,89.0,89.0,89.0,0.0,0.0,0.0,0.0,0.047019087,0.04422096,0.05369101,0.051491167,21.197273,22.992788,13.422443,14.284774,1857.2954,1763.2169,1008.17523,992.26965,0.0,0.0,0.0,2.0,1.0,-1.5565794,-0.0033728562,-0.004048109,89.0,89.0,89.0,89.0,21.842827,21.842827,24.816736,24.816736,0.018194156,0.019124733,-4.8318392E-4,-4.7916995E-4,1089.9695,0.0,0.0,0.0,0.0,0.0,0.0,0.0,0.0,0.0,0.0,0.0,0.0,0.0,-82.12056,0.43621677,1.5262175,-0.006600808,-0.0524448,-0.0065971627,543529.75,119984.89,0.011203238,0.01399342,7902.9736,7248.4155,6874.34,5874.499,0.3083639,0.0,0.0,0.0
51.500053,51.500053,0.633,0.0,0.0,296.25195,10675.0,100.0,0.0,0.78451073,0.0,8.0,1.0,0.0,4000000.0,110.0,1.0,0.0,0.0,10.0,0.0,0.0,419.81015,39.21365,-350.62888,-0.45457637,0.320115,-0.08903244,301.95612,301.9604,296.25858,295.9517,366.0,366.0,439.0,440.0,89.0,89.0,89.0,89.0,0.0,0.0,0.0,0.0,0.046217557,0.043536387,0.053115286,0.05103801,-30.88787,-28.842909,-12.523457,-10.054483,-803.2143,-822.13715,92.64346,103.78806,0.0,0.0,0.0,2.0,1.0,-1.5591793,-0.003052775,-0.0037955046,89.0,89.0,89.0,89.0,21.842827,21.842827,24.816736,24.816736,0.018801905,0.019717343,-4.7760765E-4,-4.7429831E-4,1093.6735,0.0,0.0,0.0,0.0,0.0,0.0,0.0,0.0,0.0,0.0,0.0,0.0,0.0,-82.2808,0.43105376,1.3006774,-0.006027814,-0.051503263,0.018358866,543997.4,119984.9,0.0130722625,0.015780874,7394.7866,6779.9395,6191.38,5254.2197,0.31011677,0.0,0.0,0.0
55.618084,55.618084,0.683,0.0,0.0,296.81647,10697.0,100.0,0.0,0.7622875,0.0,8.0,1.0,0.0,4000000.0,110.0,1.0,0.0,0.0,10.0,0.0,0.0,415.6919,39.23337,-350.56958,-0.44301254,0.32326216,-0.109944575,302.57556,302.57962,296.82162,296.51596,365.0,365.0,437.0,438.0,89.0,89.0,89.0,89.0,0.0,0.0,0.0,0.0,0.044510998,0.041953854,0.052983746,0.050974526,-19.384995,-17.380266,1.252815,1.9933281,854.76624,843.6351,145.76462,163.21239,0.0,0.0,0.0,2.0,1.0,-1.5617646,-0.0028379562,-0.0029684305,89.0,89.0,89.0,89.0,21.842827,21.842827,24.816736,24.816736,0.019017825,0.019926522,-4.7928724E-4,-4.7632027E-4,1096.696,0.0,0.0,0.0,0.0,0.0,0.0,0.0,0.0,0.0,0.0,0.0,0.0,0.0,-82.44109,0.36652192,1.0830473,-0.0037654815,-0.05129687,0.013478281,544378.94,119984.89,0.013580851,0.017239362,7280.1343,6677.074,6271.532,5358.085,0.31093216,0.0,0.0,0.0
59.744156,59.744156,0.733,0.0,0.0,297.3754,10715.0,100.0,0.0,0.77942044,0.0,8.0,1.0,0.0,4000000.0,110.0,1.0,0.0,0.0,10.0,0.0,0.0,411.56564,39.250645,-350.52115,-0.43866342,0.31593254,-0.07082107,303.097,303.10718,297.37787,297.07788,363.0,363.0,436.0,437.0,89.0,89.0,89.0,89.0,0.0,0.0,0.0,0.0,0.044275027,0.041758,0.053058885,0.051108837,-1.8994509,-1.3558565,1.522377,2.5279818,92.791016,84.75779,23.268162,14.00113,0.0,0.0,0.0,2.0,1.0,-1.5643007,-0.002681168,-0.0023812056,89.0,89.0,89.0,89.0,21.842827,21.842827,24.816736,24.816736,0.018849641,0.019761983,-4.7877443E-4,-4.7110245E-4,1099.195,0.0,0.0,0.0,0.0,0.0,0.0,0.0,0.0,0.0,0.0,0.0,0.0,0.0,-82.59906,0.3287902,0.86826915,-0.0021493135,-0.050531715,0.01039452,544702.75,119984.9,0.014097916,0.017844656,7353.9043,6748.31,6329.1904,5443.541,0.31153107,0.0,0.0,0.0
63.87809,63.87809,0.783,0.0,0.0,297.92514,10735.0,100.0,0.0,0.8008601,0.0,8.0,1.0,0.0,4000000.0,110.0,1.0,0.0,0.0,10.0,0.0,0.0,407.4316,39.265797,-350.48334,-0.437535,0.31308186,-0.06794684,303.6562,303.66492,297.93024,297.62354,361.0,362.0,434.0,435.0,89.0,89.0,89.0,89.0,0.0,0.0,0.0,0.0,0.044060543,0.041540697,0.053120032,0.05119313,-0.19244848,-0.25771555,5.0195303,5.2689757,371.92847,340.0504,155.78267,108.978134,0.0,0.0,0.0,2.0,1.0,-1.5668546,-0.002590182,-0.0018569231,89.0,89.0,89.0,89.0,21.842827,21.842827,24.816736,24.816736,0.01885137,0.019779047,-4.791617E-4,-4.6964997E-4,1101.9429,0.0,0.0,0.0,0.0,0.0,0.0,0.0,0.0,0.0,0.0,0.0,0.0,0.0,-82.75391,0.28494796,0.65461403,-4.9847196E-4,-0.0517694,0.0046535237,545047.1,119984.89,0.013868706,0.018262202,7343.832,6733.4077,6406.685,5529.4033,0.31165695,0.0,0.0,0.0
68.0198,68.0198,0.833,0.0,0.0,298.46967,10751.0,100.0,0.0,0.80250514,0.0,8.0,1.0,0.0,4000000.0,110.0,1.0,0.0,0.0,10.0,0.0,0.0,403.28986,39.27979,-350.4563,-0.4401243,0.30773422,0.009193893,304.10443,304.11816,298.47473,298.16516,360.0,360.0,433.0,433.0,89.0,89.0,89.0,89.0,0.0,0.0,0.0,0.0,0.045022618,0.042446584,0.053348344,0.051413916,23.19172,20.964144,2.3096054,1.5977024,-136.89993,-245.12704,-249.09673,-308.2394,0.0,0.0,0.0,2.0,1.0,-1.5694561,-0.0026403938,-0.0020233393,89.0,89.0,89.0,89.0,21.842827,21.842827,24.816736,24.816736,0.018483443,0.01943411,-4.772555E-4,-4.6981752E-4,1104.1505,0.0,0.0,0.0,0.0,0.0,0.0,0.0,0.0,0.0,0.0,0.0,0.0,0.0,-82.9066,0.28130865,0.43940866,0.0018751496,-0.052149348,-0.0073567973,545326.25,119984.89,0.013639819,0.017417781,7559.236,6936.124,6519.0986,5636.534,0.31126595,0.0,0.0,0.0
72.16904,72.16904,0.883,0.0,0.0,299.0063,10769.0,100.0,0.0,0.7815012,0.0,8.0,1.0,0.0,4000000.0,110.0,1.0,0.0,0.0,10.0,0.0,0.0,399.1406,39.29404,-350.43997,-0.43684426,0.30479765,0.023845648,304.61282,304.62717,299.00873,298.7048,358.0,358.0,431.0,432.0,89.0,89.0,89.0,89.0,0.0,0.0,0.0,0.0,0.045804597,0.043179307,0.053404693,0.051474206,12.937634,12.862756,1.6077607,2.1815298,-129.80547,-81.68666,41.453533,61.70421,0.0,0.0,0.0,2.0,1.0,-1.5720356,-0.002685829,-0.002380371,89.0,89.0,89.0,89.0,21.842827,21.842827,24.816736,24.816736,0.01836199,0.019293826,-4.759084E-4,-4.7041196E-4,1106.6361,0.0,0.0,0.0,0.0,0.0,0.0,0.0,0.0,0.0,0.0,0.0,0.0,0.0,-83.05649,0.29004937,0.22474335,6.519484E-4,-0.051090803,-0.0074115754,545640.3,119984.9,0.013301532,0.01661923,7627.251,7013.7163,6551.3354,5675.173,0.31082344,0.0,0.0,0.0
76.32575,76.32575,0.933,0.0,0.0,299.53818,10787.0,100.0,0.0,0.784417,0.0,8.0,1.0,0.0,4000000.0,110.0,1.0,0.0,0.0,10.0,0.0,0.0,394.98392,39.309036,-350.43442,-0.43519112,0.30196378,0.028996319,305.12158,305.13385,299.5393,299.23697,357.0,357.0,429.0,430.0,89.0,89.0,89.0,89.0,0.0,0.0,0.0,0.0,0.046363104,0.043689538,0.053472206,0.051548872,7.559135,5.31055,0.07353722,-0.46581027,-345.92447,-438.19244,-117.81601,-172.93541,0.0,0.0,0.0,2.0,1.0,-1.5745795,-0.0027512307,-0.0028073788,89.0,89.0,89.0,89.0,21.842827,21.842827,24.816736,24.816736,0.018257292,0.019180033,-4.7639172E-4,-4.6985637E-4,1109.1226,0.0,0.0,0.0,0.0,0.0,0.0,0.0,0.0,0.0,0.0,0.0,0.0,0.0,-83.204475,0.3083411,0.010443654,0.0010314174,-0.050861586,-0.008929161,545953.75,119984.89,0.012650876,0.015594274,7672.1865,7050.8516,6571.7905,5694.786,0.31003475,0.0,0.0,0.0
80.48996,80.48996,0.983,0.0,0.0,300.0678,10804.0,100.0,0.0,0.7878231,0.0,8.0,1.0,0.0,4000000.0,110.0,1.0,0.0,0.0,10.0,0.0,0.0,390.81982,39.32516,-350.43948,-0.43307927,0.3004337,0.06573449,305.60468,305.61258,300.06726,299.76822,355.0,355.0,428.0,429.0,89.0,89.0,89.0,89.0,0.0,0.0,0.0,0.0,0.047003377,0.044318017,0.053539935,0.051677678,13.160034,11.946335,0.90993935,2.2253392,-34.198147,-110.13147,-66.840645,-41.681526,0.0,0.0,0.0,2.0,1.0,-1.5771055,-0.0028625736,-0.0032635927,89.0,89.0,89.0,89.0,21.842827,21.842827,24.816736,24.816736,0.01806884,0.018960143,-4.7683556E-4,-4.6959895E-4,1111.4752,0.0,0.0,0.0,0.0,0.0,0.0,0.0,0.0,0.0,0.0,0.0,0.0,0.0,-83.35124,0.3376639,-0.20276168,0.0041146465,-0.05034188,-0.008907412,546250.94,119984.89,0.011978723,0.014457899,7795.8584,7175.4775,6640.986,5798.0854,0.30913162,0.0,0.0,0.0
84.661514,84.661514,1.033,0.0,0.0,300.59094,10823.0,100.0,0.0,0.7756324,0.0,8.0,1.0,0.0,4000000.0,110.0,1.0,0.0,0.0,10.0,0.0,0.0,386.64844,39.34278,-350.45526,-0.4287722,0.29661107,0.028670728,306.14774,306.15347,300.5912,300.29443,354.0,354.0,426.0,427.0,89.0,89.0,89.0,89.0,0.0,0.0,0.0,0.0,0.04724451,0.04459167,0.05346116,0.051582806,-2.3058054,-0.37148592,-3.3102927,-1.6540288,-356.45215,-382.55,-55.2535,15.597044,0.0,0.0,0.0,2.0,1.0,-1.5796099,-0.0029252872,-0.0034381151,89.0,89.0,89.0,89.0,21.842827,21.842827,24.816736,24.816736,0.018087571,0.018962875,-4.7449602E-4,-4.673143E-4,1114.1104,0.0,0.0,0.0,0.0,0.0,0.0,0.0,0.0,0.0,0.0,0.0,0.0,0.0,-83.495674,0.36143878,-0.41465053,0.0016205322,-0.049964983,0.002577036,546584.8,119984.91,0.012198398,0.014243414,7757.6562,7151.9688,6539.3965,5690.47,0.30908966,0.0,0.0,0.0
88.84026,88.84026,1.083,0.0,0.0,301.1063,10843.0,100.0,0.0,0.79040897,0.0,8.0,1.0,0.0,4000000.0,110.0,1.0,0.0,0.0,10.0,0.0,0.0,382.4699,39.360966,-350.4816,-0.42942965,0.29334298,-0.006081618,306.72095,306.7305,301.10886,300.80692,352.0,352.0,425.0,426.0,89.0,89.0,89.0,89.0,0.0,0.0,0.0,0.0,0.046758387,0.04410193,0.053463604,0.051565148,-10.261684,-10.385736,1.4081596,-0.07130205,70.93099,37.537476,66.33102,13.343987,0.0,0.0,0.0,2.0,1.0,-1.5821315,-0.0030600228,-0.003284812,89.0,89.0,89.0,89.0,21.842827,21.842827,24.816736,24.816736,0.01825245,0.01916281,-4.7419354E-4,-4.6486376E-4,1116.8922,0.0,0.0,0.0,0.0,0.0,0.0,0.0,0.0,0.0,0.0,0.0,0.0,0.0,-83.6375,0.36332667,-0.62672156,0.00242779,-0.05094166,5.6775333E-4,546938.9,119984.89,0.012204359,0.014969883,7637.9663,7030.4355,6582.421,5714.2607,0.30946827,0.0,0.0,0.0
93.02617,93.02617,1.133,0.0,0.0,301.6188,10861.0,100.0,0.0,0.7987519,0.0,8.0,1.0,0.0,4000000.0,110.0,1.0,0.0,0.0,10.0,0.0,0.0,378.2843,39.379128,-350.5185,-0.43295538,0.2910042,-0.006021719,307.21307,307.2179,301.62378,301.3172,350.0,351.0,423.0,424.0,89.0,89.0,89.0,89.0,0.0,0.0,0.0,0.0,0.046627596,0.04398624,0.053481597,0.05149827,1.3893842,-0.68038696,0.70318574,-2.8824804,174.47768,97.86038,-8.368491,-0.6437301,0.0,0.0,0.0,2.0,1.0,-1.5846984,-0.0032983834,-0.0033220053,89.0,89.0,89.0,89.0,21.842827,21.842827,24.816736,24.816736,0.018144228,0.01905151,-4.7359764E-4,-4.6374052E-4,1119.3646,0.0,0.0,0.0,0.0,0.0,0.0,0.0,0.0,0.0,0.0,0.0,0.0,0.0,-83.77801,0.36242792,-0.8401701,0.0010686235,-0.05177209,0.0011336433,547241.2,119984.89,0.012377072,0.0149671035,7696.486,7083.9707,6567.457,5654.933,0.3094492,0.0,0.0,0.0
97.219086,97.219086,1.183,0.0,0.0,302.1242,10879.0,100.0,0.0,0.81052583,0.0,8.0,1.0,0.0,4000000.0,110.0,1.0,0.0,0.0,10.0,0.0,0.0,374.09177,39.397278,-350.56622,-0.43776292,0.28707492,0.003147868,307.72562,307.7175,302.13123,301.8192,349.0,349.0,421.0,422.0,89.0,89.0,89.0,89.0,0.0,0.0,0.0,0.0,0.04656351,0.044015355,0.0535742,0.051553484,-1.5979259,2.4683027,0.77135855,1.4957784,-36.196404,156.43982,-145.79146,-57.493145,0.0,0.0,0.0,2.0,1.0,-1.587309,-0.0030745289,-0.0033079386,89.0,89.0,89.0,89.0,21.842827,21.842827,24.816736,24.816736,0.018142816,0.019014396,-4.7285284E-4,-4.6250757E-4,1121.8593,0.0,0.0,0.0,0.0,0.0,0.0,0.0,0.0,0.0,0.0,0.0,0.0,0.0,-83.915955,0.36404958,-1.0561676,-0.006811369,-0.052679226,-0.0022626054,547553.3,119984.89,0.012230868,0.01502088,7677.6406,7099.654,6645.252,5728.9976,0.30942345,0.0,0.0,0.0
101.41894,101.41894,1.233,0.0,0.0,302.62436,10896.0,100.0,0.0,0.82215947,0.0,8.0,1.0,0.0,4000000.0,110.0,1.0,0.0,0.0,10.0,0.0,0.0,369.89236,39.415417,-350.6248,-0.44465962,0.2835807,-0.0088237645,308.2265,308.2187,302.63416,302.3182,347.0,348.0,420.0,421.0,89.0,89.0,89.0,89.0,0.0,0.0,0.0,0.0,0.046590075,0.044196777,0.053542227,0.051487736,0.5102902,0.84556633,-0.3046542,0.49933785,-79.97005,-283.5363,12.297926,185.9173,0.0,0.0,0.0,2.0,1.0,-1.5899583,-0.0026840381,-0.0032708645,89.0,89.0,89.0,89.0,21.842827,21.842827,24.816736,24.816736,0.018093076,0.01897912,-4.715428E-4,-4.6070013E-4,1124.2463,0.0,0.0,0.0,0.0,0.0,0.0,0.0,0.0,0.0,0.0,0.0,0.0,0.0,-84.05187,0.36139193,-1.2753705,-0.008031652,-0.053372223,0.0036398587,547862.25,119984.89,0.012429869,0.014990881,7691.093,7101.0967,6602.226,5673.9697,0.30966568,0.0,0.0,0.0
105.625565,105.625565,1.283,0.0,0.0,303.11856,10913.0,100.0,0.0,0.8198291,0.0,8.0,1.0,0.0,4000000.0,110.0,1.0,0.0,0.0,10.0,0.0,0.0,365.68625,39.43355,-350.6944,-0.4504159,0.28249872,0.01018638,308.7062,308.67908,303.12686,302.80917,346.0,346.0,418.0,419.0,89.0,89.0,89.0,89.0,0.0,0.0,0.0,0.0,0.04662992,0.04419867,0.05378013,0.051570415,6.3800807,5.3007154,4.470795,-2.3446975,422.59537,422.42105,-138.88478,-320.92624,0.0,0.0,0.0,2.0,1.0,-1.5926296,-0.002177765,-0.0034520626,89.0,89.0,89.0,89.0,21.842827,21.842827,24.816736,24.816736,0.018035,0.018883884,-4.73249E-4,-4.6143268E-4,1126.5969,0.0,0.0,0.0,0.0,0.0,0.0,0.0,0.0,0.0,0.0,0.0,0.0,0.0,-84.185486,0.36555204,-1.4974866,-0.017005078,-0.053641427,-0.010194258,548152.5,119984.89,0.011729972,0.014658242,7739.6323,7153.7866,6772.161,5736.7847,0.30906487,0.0,0.0,0.0
109.83889,109.83889,1.333,0.0,0.0,303.61105,10929.0,100.0,0.0,0.79096925,0.0,8.0,1.0,0.0,4000000.0,110.0,1.0,0.0,0.0,10.0,0.0,0.0,361.47354,39.452076,-350.77515,-0.449285,0.27980936,0.01007591,309.1698,309.13504,303.61823,303.30716,344.0,344.0,417.0,418.0,89.0,89.0,89.0,89.0,0.0,0.0,0.0,0.0,0.047183737,0.04497213,0.053606566,0.051531855,8.115693,10.555386,-3.3424792,-0.88535243,-308.22604,-478.55972,83.65808,65.781166,0.0,0.0,0.0,2.0,1.0,-1.595281,-0.0013314207,-0.003658414,89.0,89.0,89.0,89.0,21.842827,21.842827,24.816736,24.816736,0.017898051,0.018678997,-4.6978745E-4,-4.6171792E-4,1128.8329,0.0,0.0,0.0,0.0,0.0,0.0,0.0,0.0,0.0,0.0,0.0,0.0,0.0,-84.318016,0.37401628,-1.7207714,-0.01374788,-0.05233335,0.004565217,548436.4,119984.89,0.012000791,0.013784575,7806.9385,7254.888,6616.166,5676.9683,0.30882072,0.0,0.0,0.0
114.05888,114.05888,1.383,0.0,0.0,304.0931,10948.0,100.0,0.0,0.8078035,0.0,8.0,1.0,0.0,4000000.0,110.0,1.0,0.0,0.0,10.0,0.0,0.0,357.25424,39.470913,-350.8671,-0.45159817,0.2753345,8.4245356E-4,309.69394,309.68256,304.09906,303.78833,343.0,343.0,415.0,416.0,89.0,89.0,89.0,89.0,0.0,0.0,0.0,0.0,0.046991166,0.044625185,0.053729653,0.051675927,-3.638193,-9.203329,3.7168708,0.67010516,251.10838,156.9092,-18.681591,-248.22502,0.0,0.0,0.0,2.0,1.0,-1.5978919,-9.649605E-4,-0.0035110712,89.0,89.0,89.0,89.0,21.842827,21.842827,24.816736,24.816736,0.018022252,0.018884052,-4.6970235E-4,-4.5845343E-4,1131.4756,0.0,0.0,0.0,0.0,0.0,0.0,0.0,0.0,0.0,0.0,0.0,0.0,0.0,-84.44707,0.37747478,-1.9451241,-0.0064091682,-0.05243401,-0.004354859,548766.25,119984.9,0.011655699,0.014427903,7722.671,7126.109,6761.2617,5815.788,0.30892086,0.0,0.0,0.0
118.28494,118.28494,1.433,0.0,0.0,304.57477,10964.0,100.0,0.0,0.7833711,0.0,8.0,1.0,0.0,4000000.0,110.0,1.0,0.0,0.0,10.0,0.0,0.0,353.0285,39.48981,-350.97025,-0.44879293,0.27347013,0.002899076,310.13394,310.1229,304.5803,304.27197,341.0,341.0,414.0,415.0,89.0,89.0,89.0,89.0,0.0,0.0,0.0,0.0,0.047278356,0.04480615,0.05365229,0.051624414,7.6409426,5.1355357,-1.6774981,-0.60327345,-19.741056,-68.54384,43.50543,37.162,0.0,0.0,0.0,2.0,1.0,-1.6005023,-6.508556E-4,-0.0036786795,89.0,89.0,89.0,89.0,21.842827,21.842827,24.816736,24.816736,0.017857462,0.018689448,-4.6718627E-4,-4.5995892E-4,1133.6907,0.0,0.0,0.0,0.0,0.0,0.0,0.0,0.0,0.0,0.0,0.0,0.0,0.0,-84.57543,0.378725,-2.1695225,-0.0055817147,-0.051855687,6.3096057E-4,549038.2,119984.89,0.011736302,0.013847868,7811.668,7222.9624,6665.6562,5748.044,0.3085947,0.0,0.0,0.0
122.51736,122.51736,1.483,0.0,0.0,305.04868,10981.0,100.0,0.0,0.7855127,0.0,8.0,1.0,0.0,4000000.0,110.0,1.0,0.0,0.0,10.0,0.0,0.0,348.7964,39.508858,-351.08466,-0.44768578,0.26913872,-5.6737603E-4,310.62216,310.6228,305.05276,304.7473,340.0,340.0,412.0,413.0,89.0,89.0,89.0,89.0,0.0,0.0,0.0,0.0,0.047330413,0.04476401,0.053676385,0.05171869,-1.7291306,-2.8623638,0.41194257,1.3728439,-110.091255,-93.233574,-5.0425525,-47.662846,0.0,0.0,0.0,2.0,1.0,-1.6030827,-4.835318E-4,-0.0036207438,89.0,89.0,89.0,89.0,21.842827,21.842827,24.816736,24.816736,0.017883025,0.018746737,-4.6639502E-4,-4.5822756E-4,1136.0781,0.0,0.0,0.0,0.0,0.0,0.0,0.0,0.0,0.0,0.0,0.0,0.0,0.0,-84.70107,0.38170382,-2.3936265,-9.0848224E-4,-0.05142528,-3.3756375E-4,549342.6,119984.9,0.011626581,0.014008868,7780.6924,7174.4375,6713.1484,5825.707,0.3086548,0.0,0.0,0.0
126.75603,126.75603,1.549,0.0,0.0,305.51917,10998.0,100.0,0.0,0.750016,0.0,8.0,1.0,0.0,4000000.0,110.0,1.0,0.0,0.0,10.0,0.0,0.0,344.55807,39.52791,-351.21024,-0.44131863,0.26763844,-0.0040010586,311.07825,311.08185,305.51953,305.2217,338.0,338.0,411.0,412.0,89.0,89.0,89.0,89.0,0.0,0.0,0.0,0.0,0.04739222,0.044762697,0.053666748,0.051720127,0.0,0.0,0.0,0.0,109.50117,97.99449,16.227364,8.958576,0.0,0.0,0.0,2.0,1.0,-1.6056266,-4.987918E-4,-0.0036565065,89.0,89.0,89.0,89.0,21.842827,21.842827,24.816736,24.816736,0.017822051,0.018674536,-4.6474225E-4,-4.595371E-4,1138.4218,0.0,0.0,0.0,0.0,0.0,0.0,0.0,0.0,0.0,0.0,0.0,0.0,0.0,-84.82526,0.38021004,-2.6158028,5.8711803E-4,-0.05000806,-1.8424127E-4,549625.0,119984.89,0.0115944855,0.013820216,7817.749,7206.0815,6697.508,5813.581,0.30851746,0.0,0.0,0.0
131.00089,131.00089,1.583,0.0,0.0,305.98492,11014.0,100.0,0.0,0.6290673,0.0,8.0,1.0,0.0,4000000.0,110.0,1.0,0.0,0.0,10.0,0.0,0.0,340.31357,39.54693,-351.34677,-0.42038128,0.26487046,-0.0019936375,311.5357,311.54318,305.97427,305.69986,337.0,337.0,409.0,410.0,89.0,89.0,89.0,89.0,0.0,0.0,0.0,0.0,0.04747002,0.044871572,0.053667005,0.051782943,0.7279962,3.1135974,-0.40054318,1.2619792,-45.77189,81.4855,-36.706024,-15.141068,0.0,0.0,0.0,2.0,1.0,-1.608036,-4.78848E-4,-0.0036729574,89.0,89.0,89.0,89.0,21.842827,21.842827,24.816736,24.816736,0.017807096,0.018596824,-4.5888926E-4,-4.646265E-4,1140.1761,0.0,0.0,0.0,0.0,0.0,0.0,0.0,0.0,0.0,0.0,0.0,0.0,0.0,-84.947784,0.3799995,-2.8314435,-0.0022732746,-0.045536768,-7.321304E-4,549672.4,119984.89,0.011478523,0.01367833,7817.7803,7230.9736,6707.4077,5855.6655,0.30836964,0.0,0.0,0.0
135.25186,135.25186,1.633,0.0,0.0,306.44672,11030.0,100.0,0.0,0.34547237,0.0,8.0,1.0,0.0,4000000.0,110.0,1.0,0.0,0.0,10.0,0.0,0.0,336.06296,39.565872,-351.49365,-0.3631696,0.26199943,-0.0070524965,311.9827,312.01572,306.4001,306.2017,335.0,335.0,408.0,408.0,89.0,89.0,89.0,89.0,0.0,0.0,0.0,0.0,0.047426447,0.045103844,0.05354633,0.05189496,-2.2579727,3.4309921,-2.261996,3.2081454,-75.08843,-111.63353,36.022064,43.787067,0.0,0.0,0.0,2.0,1.0,-1.6099837,-2.3701592E-4,-0.003620267,89.0,89.0,89.0,89.0,21.842827,21.842827,24.816736,24.816736,0.017844746,0.0184768,-4.4876186E-4,-4.7371653E-4,1141.8685,0.0,0.0,0.0,0.0,0.0,0.0,0.0,0.0,0.0,0.0,0.0,0.0,0.0,-85.06947,0.37761,-3.0252707,-0.006930484,-0.031753317,0.0017603803,549689.7,119984.9,0.011545846,0.013640647,7783.3506,7266.57,6645.6147,5910.3,0.3084259,0.0,0.0,0.0
139.50887,139.50887,1.683,0.0,0.0,306.90472,11046.0,100.0,0.0,0.11717237,0.0,8.0,1.0,0.0,4000000.0,110.0,1.0,0.0,0.0,10.0,0.0,0.0,331.80627,39.58466,-351.64926,-0.28035206,0.25994146,-6.710624E-4,312.41476,312.47568,306.80798,306.7115,334.0,334.0,406.0,407.0,89.0,89.0,89.0,89.0,0.0,0.0,0.0,0.0,0.047213454,0.045354277,0.05343314,0.05214176,-3.0163674,7.3260064,-1.991987,5.2557883,116.83702,170.97739,15.006958,-1.2606238,0.0,0.0,0.0,2.0,1.0,-1.6111048,1.5567648E-4,-0.003622532,89.0,89.0,89.0,89.0,21.842827,21.842827,24.816736,24.816736,0.017892797,0.01831204,-4.4850106E-4,-4.7490434E-4,1143.5598,0.0,0.0,0.0,0.0,0.0,0.0,0.0,0.0,0.0,0.0,0.0,0.0,0.0,-85.19107,0.37532827,-3.1822321,-0.008495651,-0.014444263,-0.0031235542,549706.5,119984.89,0.011294963,0.013568021,7736.3633,7343.8115,6618.4604,6051.7124,0.3082838,0.0,0.0,0.0
143.77196,143.77196,1.733,0.0,0.0,307.3621,11061.0,100.0,0.0,0.13171618,0.0,8.0,1.0,0.0,4000000.0,110.0,1.0,0.0,0.0,10.0,0.0,0.0,327.5435,39.603165,-351.81158,-0.20488411,0.25920862,-0.0056897206,312.845,312.91492,307.23492,307.20132,332.0,333.0,405.0,405.0,89.0,89.0,89.0,89.0,0.0,0.0,0.0,0.0,0.047114115,0.04576021,0.0532144,0.05231115,1.6453116,10.19597,-2.5422869,4.895031,175.42986,76.33563,69.50944,84.30181,0.0,0.0,0.0,2.0,1.0,-1.6115131,4.931667E-4,-0.0036553144,89.0,89.0,89.0,89.0,21.842827,21.842827,24.816736,24.816736,0.017855033,0.018140143,-4.605823E-4,-4.6268853E-4,1145.1469,0.0,0.0,0.0,0.0,0.0,0.0,0.0,0.0,0.0,0.0,0.0,0.0,0.0,-85.31381,0.36777,-3.2987444,-0.0049028783,-0.004983336,7.1250316E-4,549722.9,119984.9,0.010820458,0.012897536,7726.754,7436.462,6507.855,6119.517,0.30767822,0.0,0.0,0.0
148.04115,148.04115,1.783,0.0,0.0,307.8161,11077.0,100.0,0.0,0.26914647,0.0,8.0,1.0,0.0,4000000.0,110.0,1.0,0.0,0.0,10.0,0.0,0.0,323.27454,39.621563,-351.97903,-0.16268045,0.25694966,-0.0031565595,313.29703,313.3462,307.6995,307.64435,331.0,331.0,403.0,404.0,89.0,89.0,89.0,89.0,0.0,0.0,0.0,0.0,0.047204923,0.0460653,0.05316848,0.052498527,1.0187923,3.5119054,-0.087171786,2.544969,-42.928753,-154.14655,51.216774,-56.78236,0.0,0.0,0.0,2.0,1.0,-1.6118484,5.329797E-4,-0.0036107302,89.0,89.0,89.0,89.0,21.842827,21.842827,24.816736,24.816736,0.017795105,0.018084323,-4.6897057E-4,-4.53402E-4,1146.8381,0.0,0.0,0.0,0.0,0.0,0.0,0.0,0.0,0.0,0.0,0.0,0.0,0.0,-85.43648,0.3673478,-3.3894665,0.0019802528,-0.009657212,1.2999766E-4,549739.56,119984.89,0.010259605,0.012394999,7711.6016,7469.668,6509.667,6211.496,0.30720997,0.0,0.0,0.0
152.31639,152.31639,1.833,0.0,0.0,308.26358,11092.0,100.0,0.0,0.41081542,0.0,8.0,1.0,0.0,4000000.0,110.0,1.0,0.0,0.0,10.0,0.0,0.0,318.99948,39.640423,-352.1507,-0.16122086,0.25165603,-0.013482249,313.7538,313.75024,308.17795,308.06314,329.0,330.0,402.0,402.0,89.0,89.0,89.0,89.0,0.0,0.0,0.0,0.0,0.047614887,0.04652756,0.053136505,0.05249901,0.19937752,0.65691763,-6.3975153,-5.791559,-427.50385,-550.2283,-227.8,-258.61856,0.0,0.0,0.0,2.0,1.0,-1.6126004,3.7350963E-4,-0.0037190914,89.0,89.0,89.0,89.0,21.842827,21.842827,24.816736,24.816736,0.017648678,0.017996324,-4.679805E-4,-4.4872207E-4,1148.4249,0.0,0.0,0.0,0.0,0.0,0.0,0.0,0.0,0.0,0.0,0.0,0.0,0.0,-85.55748,0.37837437,-3.4729826,0.0057350476,-0.020040622,0.0035590564,549755.75,119984.914,0.010805468,0.012250577,7752.0625,7516.453,6405.599,6119.82,0.3072605,0.0,0.0,0.0
156.5975,156.5975,1.883,0.0,0.0,308.70334,11110.0,100.0,0.0,0.46830234,0.0,8.0,1.0,0.0,4000000.0,110.0,1.0,0.0,0.0,10.0,0.0,0.0,314.7185,39.658783,-352.32666,-0.1831717,0.24974856,-0.050398134,314.26505,314.24734,308.6409,308.47992,328.0,328.0,400.0,401.0,89.0,89.0,89.0,89.0,0.0,0.0,0.0,0.0,0.04715968,0.045926675,0.0530699,0.052393347,-8.672475,-11.933594,0.38310882,-1.265779,240.44664,254.86343,-14.309583,-57.949116,0.0,0.0,0.0,2.0,1.0,-1.6138152,-9.565482E-5,-0.0033574104,89.0,89.0,89.0,89.0,21.842827,21.842827,24.816736,24.816736,0.017829092,0.018235633,-4.64208E-4,-4.502946E-4,1150.3282,0.0,0.0,0.0,0.0,0.0,0.0,0.0,0.0,0.0,0.0,0.0,0.0,0.0,-85.6761,0.35616508,-3.563737,0.01179804,-0.02770529,0.006891877,549774.7,119984.9,0.0114059,0.013111274,7647.5293,7366.021,6428.875,6118.826,0.30801296,0.0,0.0,0.0
160.88446,160.88446,1.933,0.0,0.0,309.13754,11125.0,100.0,0.0,0.47399262,0.0,8.0,1.0,0.0,4000000.0,110.0,1.0,0.0,0.0,10.0,0.0,0.0,310.4316,39.676098,-352.50754,-0.21248218,0.24510999,-0.03233479,314.68478,314.6672,309.0873,308.90128,327.0,327.0,399.0,399.0,89.0,89.0,89.0,89.0,0.0,0.0,0.0,0.0,0.047080617,0.04563443,0.05319623,0.05234695,0.8440017,-2.0431726,1.6855447,-0.96894795,117.480736,244.72473,-87.037674,-16.240774,0.0,0.0,0.0,2.0,1.0,-1.6153249,-6.956815E-4,-0.0031588078,89.0,89.0,89.0,89.0,21.842827,21.842827,24.816736,24.816736,0.01772348,0.01819264,-4.591595E-4,-4.522469E-4,1151.9147,0.0,0.0,0.0,0.0,0.0,0.0,0.0,0.0,0.0,0.0,0.0,0.0,0.0,-85.79246,0.3385559,-3.6690006,0.011374223,-0.031588923,0.0030351668,549790.56,119984.914,0.011943519,0.013721208,7709.46,7381.294,6503.5366,6113.753,0.30859566,0.0,0.0,0.0
165.17708,165.17708,1.983,0.0,0.0,309.56024,11143.0,100.0,0.0,0.459925,0.0,8.0,1.0,0.0,4000000.0,110.0,1.0,0.0,0.0,10.0,0.0,0.0,306.139,39.69244,-352.69406,-0.23401406,0.23589166,-0.14154732,315.18988,315.20517,309.51202,309.32535,325.0,325.0,397.0,398.0,89.0,89.0,89.0,89.0,0.0,0.0,0.0,0.0,0.046848357,0.045192637,0.05297555,0.052168004,-21.668001,-24.01985,-12.392922,-8.073002,-1527.0485,-1293.589,-780.29474,-457.2361,0.0,0.0,0.0,2.0,1.0,-1.616911,-0.0013863997,-0.0028275251,89.0,89.0,89.0,89.0,21.842827,21.842827,24.816736,24.816736,0.01794909,0.018510133,-4.5187946E-4,-4.4924434E-4,1153.8195,0.0,0.0,0.0,0.0,0.0,0.0,0.0,0.0,0.0,0.0,0.0,0.0,0.0,-85.905014,0.30530012,-3.7862637,0.018611044,-0.03146061,0.012482513,549810.1,119984.91,0.012620525,0.014590599,7491.13,7108.622,6211.23,5865.0737,0.30958843,0.0,0.0,0.0
169.47525,169.47525,2.033,0.0,0.0,309.9856,11153.0,100.0,0.0,0.4619929,0.0,8.0,1.0,0.0,4000000.0,110.0,1.0,0.0,0.0,10.0,0.0,0.0,301.84076,39.707054,-352.88666,-0.25084674,0.24000643,0.03916998,315.47946,315.47586,309.93127,309.74673,324.0,324.0,396.0,396.0,89.0,89.0,89.0,89.0,0.0,0.0,0.0,0.0,0.047190346,0.045310415,0.053592063,0.052486457,24.473145,20.829811,13.948827,7.7956166,1131.9055,1233.0919,-126.05043,-17.04543,0.0,0.0,0.0,2.0,1.0,-1.6184721,-0.002279132,-0.0028637648,89.0,89.0,89.0,89.0,21.842827,21.842827,24.816736,24.816736,0.017531889,0.018058283,-4.592241E-4,-4.532649E-4,1154.8773,0.0,0.0,0.0,0.0,0.0,0.0,0.0,0.0,0.0,0.0,0.0,0.0,0.0,-86.01766,0.29549667,-3.912639,0.012046276,-0.031156462,-0.015677074,549820.8,119984.91,0.011041628,0.013634053,7861.9834,7451.039,6863.585,6345.1074,0.3082819,0.0,0.0,0.0
173.77893,173.77893,2.083,0.0,0.0,310.40366,11164.0,100.0,0.0,0.43848422,0.0,8.0,1.0,0.0,4000000.0,110.0,1.0,0.0,0.0,10.0,0.0,0.0,297.53696,39.72321,-353.08566,-0.25204462,0.23618333,0.10297425,315.77615,315.79782,310.3435,310.17252,322.0,322.0,394.0,395.0,89.0,89.0,89.0,89.0,0.0,0.0,0.0,0.0,0.04867457,0.04733892,0.05363323,0.052660655,0.62517816,28.265787,-3.787279,1.9897518,-2158.4402,-953.3911,-45.771885,-5.552165,0.0,0.0,0.0,2.0,1.0,-1.6199503,-0.0023576734,-0.0036947727,89.0,89.0,89.0,89.0,21.842827,21.842827,24.816736,24.816736,0.017118476,0.017651798,-4.5652062E-4,-4.5461452E-4,1156.0411,0.0,0.0,0.0,0.0,0.0,0.0,0.0,0.0,0.0,0.0,0.0,0.0,0.0,-86.12781,0.3471954,-4.040689,-0.0034800712,-0.028509716,-0.009592297,549832.56,119984.91,0.010734359,0.01181138,8146.292,7683.2236,6746.506,6323.8555,0.3074007,0.0,0.0,0.0
176.65103,176.65103,2.133,0.0,0.0,310.67627,11175.0,100.0,0.0,0.453104,0.0,8.0,1.0,0.0,4000000.0,110.0,1.0,0.0,0.0,10.0,0.0,0.0,294.66473,39.7353,-353.2219,-0.25234243,0.23151085,0.076906584,316.07852,316.09473,310.6151,310.44736,321.0,321.0,393.0,394.0,89.0,89.0,89.0,89.0,0.0,0.0,0.0,0.0,0.048422553,0.047539305,0.053612266,0.05273606,0.0,0.0,0.0,0.0,18.721817,-610.0147,216.07872,-76.48318,0.0,0.0,0.0,2.0,1.0,-1.6208891,-0.0023171061,-0.003916025,89.0,89.0,89.0,89.0,21.842827,21.842827,24.816736,24.816736,0.01719165,0.017706355,-4.5719012E-4,-4.504976E-4,1157.2039,0.0,0.0,0.0,0.0,0.0,0.0,0.0,0.0,0.0,0.0,0.0,0.0,0.0,-86.19942,0.3746587,-4.126857,0.0023609262,-0.028276006,-0.006414738,549843.8,119984.914,0.010341116,0.011739728,8073.138,7631.4663,6781.4062,6382.318,0.3071661,0.0,0.0,0.0
182.40707,182.40707,2.183,0.0,0.0,311.2194,11193.0,100.0,0.0,0.4480815,0.0,8.0,1.0,0.0,4000000.0,110.0,1.0,0.0,0.0,10.0,0.0,0.0,288.91318,39.76194,-353.503,-0.25247368,0.23070545,0.07233463,316.61517,316.60986,311.16202,310.98572,319.0,320.0,391.0,392.0,89.0,89.0,89.0,89.0,0.0,0.0,0.0,0.0,0.048511326,0.047675338,0.053746376,0.052649613,0.37953255,6.453171,-0.20630656,-1.6958265,-270.36664,95.607315,-49.848846,7.4163074,0.0,0.0,0.0,2.0,1.0,-1.6228302,-0.0022310482,-0.004558325,89.0,89.0,89.0,89.0,21.842827,21.842827,24.816736,24.816736,0.017128922,0.01760543,-4.5675813E-4,-4.5093862E-4,1159.1095,0.0,0.0,0.0,0.0,0.0,0.0,0.0,0.0,0.0,0.0,0.0,0.0,0.0,-86.34182,0.4230743,-4.2993913,-0.009358458,-0.029621612,-0.009308834,549863.6,119984.914,0.009840975,0.010975525,8102.297,7692.663,6821.558,6319.7026,0.30652523,0.0,0.0,0.0
186.73773,186.73773,2.233,0.0,0.0,311.62277,11209.0,100.0,0.0,0.47151113,0.0,8.0,1.0,0.0,4000000.0,110.0,1.0,0.0,0.0,10.0,0.0,0.0,284.59326,39.783665,-353.72144,-0.25764576,0.22859602,0.014045521,317.0619,317.0517,311.56818,311.38913,318.0,318.0,390.0,391.0,89.0,89.0,89.0,89.0,0.0,0.0,0.0,0.0,0.048252895,0.047595743,0.053577267,0.05254505,-3.0648706,-7.073655,-0.95240766,-2.1663306,419.29626,-246.30722,395.15637,25.534628,0.0,0.0,0.0,2.0,1.0,-1.6243176,-0.0018450274,-0.004710436,89.0,89.0,89.0,89.0,21.842827,21.842827,24.816736,24.816736,0.017241498,0.017697887,-4.5621302E-4,-4.475254E-4,1160.8016,0.0,0.0,0.0,0.0,0.0,0.0,0.0,0.0,0.0,0.0,0.0,0.0,0.0,-86.44733,0.4395041,-4.4301496,-0.0022971581,-0.030266877,0.0012505483,549880.3,119984.914,0.009767733,0.010840903,7983.685,7607.754,6713.064,6236.755,0.3061819,0.0,0.0,0.0
191.07475,191.07475,2.283,0.0,0.0,312.0229,11224.0,100.0,0.0,0.4681011,0.0,8.0,1.0,0.0,4000000.0,110.0,1.0,0.0,0.0,10.0,0.0,0.0,280.26813,39.805687,-353.94647,-0.26145878,0.22588241,-0.010765519,317.49384,317.48804,311.97043,311.78806,317.0,317.0,388.0,389.0,89.0,89.0,89.0,89.0,0.0,0.0,0.0,0.0,0.048135445,0.047120567,0.05356775,0.05247891,-5.7072935,-10.034814,-0.7885694,0.90613955,-215.38136,111.20435,-51.82027,161.83107,0.0,0.0,0.0,2.0,1.0,-1.6258494,-0.0016768549,-0.004499078,89.0,89.0,89.0,89.0,21.842827,21.842827,24.816736,24.816736,0.01731808,0.017797306,-4.539085E-4,-4.4735466E-4,1162.3896,0.0,0.0,0.0,0.0,0.0,0.0,0.0,0.0,0.0,0.0,0.0,0.0,0.0,-86.55168,0.43938342,-4.563608,-0.0045319665,-0.030729838,0.004141289,549896.7,119984.914,0.009902018,0.011235133,7904.873,7525.5684,6711.038,6227.834,0.30650902,0.0,0.0,0.0
195.41797,195.41797,2.333,0.0,0.0,312.41843,11238.0,100.0,0.0,0.47912085,0.0,8.0,1.0,0.0,4000000.0,110.0,1.0,0.0,0.0,10.0,0.0,0.0,275.93787,39.827316,-354.17825,-0.2686496,0.2243052,-0.028595548,317.89203,317.8892,312.36765,312.1826,315.0,315.0,387.0,388.0,89.0,89.0,89.0,89.0,0.0,0.0,0.0,0.0,0.04817562,0.046721336,0.05352567,0.052382845,7.092654,-5.3516774,0.4007667,-3.1940637,390.23456,183.23509,148.20543,-61.39576,0.0,0.0,0.0,2.0,1.0,-1.6274021,-0.0016643017,-0.004315138,89.0,89.0,89.0,89.0,21.842827,21.842827,24.816736,24.816736,0.017296046,0.017805422,-4.5280167E-4,-4.459333E-4,1163.8715,0.0,0.0,0.0,0.0,0.0,0.0,0.0,0.0,0.0,0.0,0.0,0.0,0.0,-86.65447,0.42572677,-4.7001925,-0.0010403729,-0.031201974,0.0056587793,549911.75,119984.91,0.010420572,0.011660936,7925.3447,7509.2236,6676.8926,6141.9883,0.3068695,0.0,0.0,0.0
199.76761,199.76761,2.383,0.0,0.0,312.80652,11253.0,100.0,0.0,0.46049324,0.0,8.0,1.0,0.0,4000000.0,110.0,1.0,0.0,0.0,10.0,0.0,0.0,271.6024,39.848064,-354.41693,-0.2692237,0.21917929,-0.05249748,318.3181,318.32068,312.75528,312.57153,314.0,314.0,385.0,386.0,89.0,89.0,89.0,89.0,0.0,0.0,0.0,0.0,0.047903188,0.04633956,0.053462546,0.05242747,-4.550814,-9.307712,-0.2543628,2.0556896,126.560036,-86.970604,62.991673,58.83425,0.0,0.0,0.0,2.0,1.0,-1.6289588,-0.001776068,-0.003957987,89.0,89.0,89.0,89.0,21.842827,21.842827,24.816736,24.816736,0.01741177,0.017917294,-4.491292E-4,-4.4549088E-4,1165.4591,0.0,0.0,0.0,0.0,0.0,0.0,0.0,0.0,0.0,0.0,0.0,0.0,0.0,-86.754944,0.40356612,-4.838386,0.008302763,-0.030874766,0.005487942,549927.9,119984.914,0.010682179,0.012415509,7809.8843,7413.0522,6660.6045,6199.5947,0.30729866,0.0,0.0,0.0
204.1235,204.1235,2.433,0.0,0.0,313.19055,11266.0,100.0,0.0,0.48402894,0.0,8.0,1.0,0.0,4000000.0,110.0,1.0,0.0,0.0,10.0,0.0,0.0,267.26196,39.867954,-354.66254,-0.27372935,0.21679232,-0.018011417,318.6489,318.67065,313.13818,312.95496,312.0,313.0,384.0,385.0,89.0,89.0,89.0,89.0,0.0,0.0,0.0,0.0,0.048214737,0.046333905,0.05354415,0.05249116,4.628822,2.0706651,-0.8732825,0.7760524,-323.4475,48.601616,-108.294174,43.223793,0.0,0.0,0.0,2.0,1.0,-1.6305,-0.002298891,-0.003944397,89.0,89.0,89.0,89.0,21.842827,21.842827,24.816736,24.816736,0.01722752,0.017798653,-4.504831E-4,-4.4404995E-4,1166.8326,0.0,0.0,0.0,0.0,0.0,0.0,0.0,0.0,0.0,0.0,0.0,0.0,0.0,-86.853935,0.3933775,-4.978246,0.011071144,-0.03089512,1.1442037E-4,549940.7,119984.91,0.010973977,0.012416097,7944.308,7482.4155,6698.493,6229.49,0.30754185,0.0,0.0,0.0
208.48553,208.48553,2.483,0.0,0.0,313.56805,11278.0,100.0,0.0,0.5191754,0.0,8.0,1.0,0.0,4000000.0,110.0,1.0,0.0,0.0,10.0,0.0,0.0,262.91666,39.887638,-354.9152,-0.27833992,0.21353857,0.016025865,318.99622,319.01025,313.51712,313.32922,311.0,311.0,383.0,383.0,89.0,89.0,89.0,89.0,0.0,0.0,0.0,0.0,0.048363082,0.04662988,0.053669058,0.05260457,5.2852926,6.600916,4.0787454,0.59410924,129.95302,10.728835,72.43303,-140.23929,0.0,0.0,0.0,2.0,1.0,-1.6320534,-0.0028996908,-0.004077673,89.0,89.0,89.0,89.0,21.842827,21.842827,24.816736,24.816736,0.017101068,0.017682716,-4.533139E-4,-4.419095E-4,1168.1031,0.0,0.0,0.0,0.0,0.0,0.0,0.0,0.0,0.0,0.0,0.0,0.0,0.0,-86.95075,0.39663494,-5.119486,0.01127758,-0.03190041,-0.004794862,549953.7,119984.91,0.010729019,0.012171331,8043.922,7547.4404,6817.9272,6317.306,0.307333,0.0,0.0,0.0
212.85367,212.85367,2.533,0.0,0.0,313.94296,11291.0,100.0,0.0,0.5242533,0.0,8.0,1.0,0.0,4000000.0,110.0,1.0,0.0,0.0,10.0,0.0,0.0,258.56662,39.90724,-355.17493,-0.2817807,0.2125827,0.023903493,319.3603,319.37027,313.89786,313.69894,310.0,310.0,381.0,382.0,89.0,89.0,89.0,89.0,0.0,0.0,0.0,0.0,0.048482783,0.046861492,0.05370614,0.05257496,9.306371,7.919893,5.7794895,2.864152,88.08374,68.8389,194.87587,143.27017,0.0,0.0,0.0,2.0,1.0,-1.6336921,-0.003524491,-0.0041675568,89.0,89.0,89.0,89.0,21.842827,21.842827,24.816736,24.816736,0.017029714,0.017607667,-4.524282E-4,-4.4306755E-4,1169.4786,0.0,0.0,0.0,0.0,0.0,0.0,0.0,0.0,0.0,0.0,0.0,0.0,0.0,-87.046524,0.39450273,-5.2630506,0.009366343,-0.033659924,-0.0013128405,549967.3,119984.91,0.010219723,0.011530382,8070.1016,7590.708,6850.0537,6331.369,0.30684376,0.0,0.0,0.0
217.2281,217.2281,2.583,0.0,0.0,314.31317,11303.0,100.0,0.0,0.53954375,0.0,8.0,1.0,0.0,4000000.0,110.0,1.0,0.0,0.0,10.0,0.0,0.0,254.21176,39.92743,-355.44196,-0.29076892,0.20961428,0.025878852,319.71457,319.72693,314.27176,314.0651,308.0,308.0,380.0,380.0,89.0,89.0,89.0,89.0,0.0,0.0,0.0,0.0,0.04851514,0.04725937,0.053755555,0.052696314,-3.5901365,6.1753387,0.5757808,2.968311,-361.669,-180.05669,162.4748,193.60182,0.0,0.0,0.0,2.0,1.0,-1.635409,-0.0036725425,-0.0042921305,89.0,89.0,89.0,89.0,21.842827,21.842827,24.816736,24.816736,0.016941834,0.017543407,-4.5107453E-4,-4.4303524E-4,1170.7501,0.0,0.0,0.0,0.0,0.0,0.0,0.0,0.0,0.0,0.0,0.0,0.0,0.0,-87.14042,0.41034862,-5.41085,0.0022176134,-0.034877613,-0.0014645105,549980.75,119984.91,0.009385574,0.011042428,8128.986,7620.064,6853.2217,6382.749,0.30620956,0.0,0.0,0.0
221.6087,221.6087,2.633,0.0,0.0,314.68176,11315.0,100.0,0.0,0.6364688,0.0,8.0,1.0,0.0,4000000.0,110.0,1.0,0.0,0.0,10.0,0.0,0.0,249.8523,39.94832,-355.71655,-0.31153497,0.21031113,0.019786883,320.06827,320.06674,314.64825,314.423,307.0,307.0,378.0,379.0,89.0,89.0,89.0,89.0,0.0,0.0,0.0,0.0,0.048647,0.047470625,0.053887665,0.05266629,4.863962,5.649402,1.707673,-3.8614867,34.33227,125.55418,-94.68197,-198.3091,0.0,0.0,0.0,2.0,1.0,-1.6372187,-0.0038790153,-0.004511833,89.0,89.0,89.0,89.0,21.842827,21.842827,24.816736,24.816736,0.016849056,0.017475398,-4.572741E-4,-4.3868858E-4,1172.0209,0.0,0.0,0.0,0.0,0.0,0.0,0.0,0.0,0.0,0.0,0.0,0.0,0.0,-87.23319,0.4235234,-5.5658193,0.0022317097,-0.03849531,-0.0038041796,549993.8,119984.91,0.008277461,0.009910253,8191.4404,7663.001,6903.2397,6334.085,0.30490303,0.0,0.0,0.0
225.9955,225.9955,2.683,0.0,0.0,315.05008,11325.0,100.0,0.0,0.83839333,0.0,8.0,1.0,0.0,4000000.0,110.0,1.0,0.0,0.0,10.0,0.0,0.0,245.4882,39.97009,-355.99927,-0.35757565,0.20903254,0.20037746,320.35483,320.3304,315.04108,314.76135,306.0,306.0,377.0,378.0,89.0,89.0,89.0,89.0,0.0,0.0,0.0,0.0,0.049330104,0.048177317,0.054244187,0.05305867,39.87327,36.689487,20.730793,22.334753,2434.7344,2276.4978,1241.7955,1214.1152,0.0,0.0,0.0,2.0,1.0,-1.6393611,-0.0040440415,-0.0046924353,89.0,89.0,89.0,89.0,21.842827,21.842827,24.816736,24.816736,0.016485194,0.017188093,-4.6584808E-4,-4.3336846E-4,1173.0791,0.0,0.0,0.0,0.0,0.0,0.0,0.0,0.0,0.0,0.0,0.0,0.0,0.0,-87.32435,0.46439055,-5.738232,0.011871681,-0.04836841,-0.011680067,550004.3,119984.91,0.007336373,0.008886573,8570.919,7965.379,7417.8086,6881.949,0.30398846,0.0,0.0,0.0
230.38837,230.38837,2.733,0.0,0.0,315.4014,11344.0,100.0,0.0,1.1060934,0.0,8.0,1.0,0.0,4000000.0,110.0,1.0,0.0,0.0,10.0,0.0,0.0,241.11974,39.994194,-356.29138,-0.4325336,0.19636713,-0.088156335,320.8742,320.86578,315.443,315.07092,304.0,304.0,375.0,376.0,89.0,89.0,89.0,89.0,0.0,0.0,0.0,0.0,0.048553877,0.047445726,0.053837433,0.052320514,-26.119574,-32.215115,-9.978041,-17.725601,-420.7849,-933.62317,80.305305,-2.2665021,0.0,0.0,0.0,2.0,1.0,-1.642187,-0.0044437377,-0.0045212507,89.0,89.0,89.0,89.0,21.842827,21.842827,24.816736,24.816736,0.016807094,0.017835602,-4.5767994E-4,-4.1619266E-4,1175.0892,0.0,0.0,0.0,0.0,0.0,0.0,0.0,0.0,0.0,0.0,0.0,0.0,0.0,-87.40839,0.47368386,-5.943428,0.0070175626,-0.06452468,0.020067323,550024.0,119984.91,0.009426932,0.010547685,8146.1904,7364.8237,6692.831,5982.3843,0.30575466,0.0,0.0,0.0
234.78716,234.78716,2.783,0.0,0.0,315.7516,11360.0,100.0,0.0,1.2198936,0.0,8.0,1.0,0.0,4000000.0,110.0,1.0,0.0,0.0,10.0,0.0,0.0,236.7472,40.0153,-356.59494,-0.52083206,0.20440593,-0.15929186,321.3583,321.28098,315.83652,315.36984,303.0,303.0,374.0,375.0,89.0,89.0,89.0,89.0,0.0,0.0,0.0,0.0,0.047738828,0.045251288,0.053923804,0.05168406,4.0622053,-23.023857,9.450763,-10.027661,871.44965,1257.0707,353.47485,69.18754,0.0,0.0,0.0,2.0,1.0,-1.6458611,-0.005163376,-0.0036617517,89.0,89.0,89.0,89.0,21.842827,21.842827,24.816736,24.816736,0.01715687,0.018252043,-4.5722956E-4,-4.213423E-4,1176.7827,0.0,0.0,0.0,0.0,0.0,0.0,0.0,0.0,0.0,0.0,0.0,0.0,0.0,-87.48913,0.3820902,-6.1916265,0.012157913,-0.08030172,0.015423235,550040.9,119984.9,0.010283381,0.011925523,7894.535,7166.767,6860.7593,5779.8115,0.3065958,0.0,0.0,0.0
239.19191,239.19191,2.833,0.0,0.0,316.098,11370.0,100.0,0.0,1.1884525,0.0,8.0,1.0,0.0,4000000.0,110.0,1.0,0.0,0.0,10.0,0.0,0.0,232.3707,40.032925,-356.912,-0.58483636,0.19777519,-0.09696823,321.6583,321.5946,316.18832,315.7014,302.0,302.0,373.0,373.0,89.0,89.0,89.0,89.0,0.0,0.0,0.0,0.0,0.04824528,0.045014773,0.05424177,0.051576056,5.3116674,-0.73425466,3.6638973,-1.001805,-492.7888,152.55061,-197.66536,-4.076954,0.0,0.0,0.0,2.0,1.0,-1.6499676,-0.0054269508,-0.003009081,89.0,89.0,89.0,89.0,21.842827,21.842827,24.816736,24.816736,0.016981883,0.018114023,-4.4232595E-4,-4.4823647E-4,1177.8434,0.0,0.0,0.0,0.0,0.0,0.0,0.0,0.0,0.0,0.0,0.0,0.0,0.0,-87.56515,0.32958716,-6.4772162,-0.0032800566,-0.081335165,0.011936601,550052.44,119984.91,0.01115396,0.012559253,8033.6343,7220.081,7020.353,5800.3784,0.30719566,0.0,0.0,0.0
243.60239,243.60239,2.883,0.0,0.0,316.41757,11394.0,100.0,0.0,1.2948217,0.0,8.0,1.0,0.0,4000000.0,110.0,1.0,0.0,0.0,10.0,0.0,0.0,227.99063,40.047367,-357.24405,-0.653343,0.16653222,-0.11230698,322.06195,322.50925,316.50458,316.0237,300.0,300.0,371.0,372.0,89.0,89.0,89.0,89.0,0.0,0.0,0.0,0.0,0.04790813,0.044537917,0.05437928,0.051497914,-0.34019348,-6.9674845,9.635164,6.006583,529.7228,133.77513,342.92035,183.27531,0.0,0.0,0.0,2.0,1.0,-1.6539892,-0.0049999603,-0.0021362305,89.0,89.0,89.0,89.0,21.842827,21.842827,24.816736,24.816736,0.017173931,0.019841915,-4.3936883E-4,-4.2351746E-4,1179.6644,0.0,0.0,0.0,0.0,0.0,0.0,0.0,0.0,0.0,0.0,0.0,0.0,0.0,-87.63055,0.2596648,-6.792269,-0.003980527,-0.0810584,0.0104728,549742.44,119984.9,0.010967091,0.013361792,7958.247,7120.4688,7163.744,5840.256,0.3073635,0.0,0.0,0.0
248.0184,248.0184,2.933,0.0,0.0,316.7422,11401.0,100.0,0.0,1.7940389,0.0,8.0,1.0,0.0,4000000.0,110.0,1.0,0.0,0.0,10.0,0.0,0.0,223.60742,40.060173,-357.59283,-0.745859,0.18547632,0.058327522,322.2677,322.7319,316.85657,316.29926,299.0,299.0,370.0,371.0,89.0,89.0,89.0,89.0,0.0,0.0,0.0,0.0,0.04918885,0.04572425,0.054986544,0.051739313,13.246312,26.206074,6.633773,-1.0976939,-2122.3916,-801.9133,-819.50867,-767.17865,0.0,0.0,0.0,2.0,1.0,-1.6583161,-0.005021678,-0.0022794008,89.0,89.0,89.0,89.0,21.842827,21.842827,24.816736,24.816736,0.0167389,0.019757215,-4.6899932E-4,-4.1479216E-4,1180.0624,0.0,0.0,0.0,0.0,0.0,0.0,0.0,0.0,0.0,0.0,0.0,0.0,0.0,-87.69277,0.26738167,-7.1470485,-0.006244125,-0.0956977,-0.009909109,549590.25,119984.91,0.0112668155,0.012881097,8487.4,7357.5586,7464.5195,5977.1226,0.3077383,0.0,0.0,0.0
252.49628,252.49628,2.983,0.0,0.0,317.0436,11413.0,100.0,0.0,2.6018,0.0,8.0,1.0,0.0,4000000.0,110.0,1.0,0.0,0.0,10.0,0.0,0.0,219.22142,40.074078,-357.9609,-0.9110159,0.17326495,0.043733917,322.61884,323.03326,317.2533,316.48035,298.0,298.0,368.0,369.0,89.0,89.0,89.0,89.0,0.0,0.0,0.0,0.0,0.049259145,0.04579792,0.05509306,0.051734444,8.042827,-8.122175,7.136017,-0.27157363,488.63132,-481.33572,385.78207,-52.262833,0.0,0.0,0.0,2.0,1.0,-1.6640352,-0.0051211114,-0.0026545525,89.0,89.0,89.0,89.0,21.842827,21.842827,24.816736,24.816736,0.016545093,0.020052565,-4.8707164E-4,-3.800084E-4,1180.8146,0.0,0.0,0.0,0.0,0.0,0.0,0.0,0.0,0.0,0.0,0.0,0.0,0.0,-87.741356,0.28831246,-7.568749,0.020716868,-0.13508373,-0.0081160795,549362.4,119984.91,0.011278277,0.013209544,8629.344,7217.4995,7524.6113,5988.034,0.30845165,0.0,0.0,0.0
257.03595,257.03595,3.033,0.0,0.0,317.3267,11422.0,100.0,0.0,3.0021918,0.0,8.0,1.0,0.0,4000000.0,110.0,1.0,0.0,0.0,10.0,0.0,0.0,214.83342,40.089615,-358.35266,-1.1201255,0.16818427,0.048068807,322.89108,323.27597,317.65012,316.6145,296.0,296.0,367.0,368.0,89.0,89.0,89.0,89.0,0.0,0.0,0.0,0.0,0.04975557,0.045399606,0.055604465,0.051499385,-6.0494986,-12.739821,1.3408809,-9.787603,-1541.4653,-605.978,-842.6963,-419.75223,0.0,0.0,0.0,2.0,1.0,-1.672005,-0.0065646926,-0.0035321712,89.0,89.0,89.0,89.0,21.842827,21.842827,24.816736,24.816736,0.016188428,0.020325195,-4.7368064E-4,-3.879953E-4,1181.3563,0.0,0.0,0.0,0.0,0.0,0.0,0.0,0.0,0.0,0.0,0.0,0.0,0.0,-87.77368,0.3291117,-8.089682,0.035615355,-0.17864835,-0.016249575,549181.3,119984.91,0.009801063,0.011663556,8935.112,7067.0547,7682.795,5811.568,0.30694962,0.0,0.0,0.0
261.5678,261.5678,3.083,0.0,0.0,317.59793,11428.0,100.0,0.0,2.832245,0.0,8.0,1.0,0.0,4000000.0,110.0,1.0,0.0,0.0,10.0,0.0,0.0,210.44423,40.107853,-358.77307,-1.3021585,0.16561675,0.17661354,323.06128,323.43033,317.96133,316.82352,295.0,295.0,366.0,367.0,89.0,89.0,89.0,89.0,0.0,0.0,0.0,0.0,0.05060133,0.045962118,0.056282226,0.051215675,2.5961547,14.149993,11.310875,-2.6500223,-1090.224,-39.200474,-277.0051,219.37787,0.0,0.0,0.0,2.0,1.0,-1.681456,-0.0077188257,-0.004289627,89.0,89.0,89.0,89.0,21.842827,21.842827,24.816736,24.816736,0.015728904,0.020052375,-4.4494908E-4,-4.2040623E-4,1181.729,0.0,0.0,0.0,0.0,0.0,0.0,0.0,0.0,0.0,0.0,0.0,0.0,0.0,-87.78995,0.40533134,-8.7074375,0.004543476,-0.19273421,-0.0091267405,549066.1,119984.9,0.008629799,0.009738202,9503.857,7234.1694,8143.8447,5825.3145,0.30535507,0.0,0.0,0.0
266.09268,266.09268,3.133,0.0,0.0,317.8431,11440.0,100.0,0.0,2.280284,0.0,8.0,1.0,0.0,4000000.0,110.0,1.0,0.0,0.0,10.0,0.0,0.0,206.05464,40.13046,-359.226,-1.3667741,0.15594052,0.086528994,323.3444,323.8268,318.1556,317.12027,294.0,294.0,364.0,365.0,89.0,89.0,89.0,89.0,0.0,0.0,0.0,0.0,0.050213404,0.04573417,0.05627723,0.051162977,-14.270246,-20.659714,-4.3234973,-5.6035814,-126.50642,-663.69916,-197.53128,-212.57846,0.0,0.0,0.0,2.0,1.0,-1.690651,-0.007694737,-0.0045779943,89.0,89.0,89.0,89.0,21.842827,21.842827,24.816736,24.816736,0.016022127,0.020318475,-4.1694543E-4,-4.428396E-4,1182.4618,0.0,0.0,0.0,0.0,0.0,0.0,0.0,0.0,0.0,0.0,0.0,0.0,0.0,-87.78918,0.48134127,-9.375962,-1.2572855E-6,-0.17230904,-0.00326446,548830.3,119984.914,0.009143672,0.010782112,9326.52,6984.224,8019.873,5704.742,0.30601215,0.0,0.0,0.0
270.61133,270.61133,3.183,0.0,0.0,318.08466,11451.0,100.0,0.0,1.9122891,0.0,8.0,1.0,0.0,4000000.0,110.0,1.0,0.0,0.0,10.0,0.0,0.0,201.66537,40.154957,-359.7126,-1.3453884,0.15779276,-0.012948855,323.61523,324.19888,318.31,317.45776,292.0,293.0,363.0,364.0,89.0,89.0,89.0,89.0,0.0,0.0,0.0,0.0,0.04971271,0.044488087,0.056057677,0.050833985,-7.8624477,-22.805704,-3.3802538,-4.9050894,125.151855,217.44666,61.127525,151.94711,0.0,0.0,0.0,2.0,1.0,-1.6984341,-0.00781971,-0.0046420097,89.0,89.0,89.0,89.0,21.842827,21.842827,24.816736,24.816736,0.016402856,0.020471042,-4.1901207E-4,-4.4520595E-4,1183.1174,0.0,0.0,0.0,0.0,0.0,0.0,0.0,0.0,0.0,0.0,0.0,0.0,0.0,-87.78245,0.49198794,-10.046544,0.0018774258,-0.14077422,8.564771E-5,548607.1,119984.9,0.009923233,0.012045127,9037.98,6819.849,7878.5444,5509.452,0.30689526,0.0,0.0,0.0
275.12512,275.12512,3.233,0.0,0.0,318.33484,11459.0,100.0,0.0,1.7029994,0.0,8.0,1.0,0.0,4000000.0,110.0,1.0,0.0,0.0,10.0,0.0,0.0,197.2764,40.17933,-360.23193,-1.2622579,0.16126963,-0.009291339,323.82538,324.4524,318.4876,317.79514,291.0,291.0,362.0,362.0,89.0,89.0,89.0,89.0,0.0,0.0,0.0,0.0,0.049533468,0.04403988,0.05591801,0.05086177,-0.28297302,3.313869,-3.9824095,5.0065665,195.62689,628.97797,-22.39643,164.45964,0.0,0.0,0.0,2.0,1.0,-1.7047225,-0.0074021006,-0.004716277,89.0,89.0,89.0,89.0,21.842827,21.842827,24.816736,24.816736,0.016496466,0.020243874,-4.2882096E-4,-4.4194865E-4,1183.5941,0.0,0.0,0.0,0.0,0.0,0.0,0.0,0.0,0.0,0.0,0.0,0.0,0.0,-87.7771,0.48627892,-10.6846695,-0.009002947,-0.11406845,-0.0034855292,548445.0,119984.9,0.0098909885,0.012125825,8941.504,6938.8174,7842.167,5581.6597,0.30686283,0.0,0.0,0.0
279.6353,279.6353,3.283,0.0,0.0,318.59134,11467.0,100.0,0.0,1.7649045,0.0,8.0,1.0,0.0,4000000.0,110.0,1.0,0.0,0.0,10.0,0.0,0.0,192.88763,40.203815,-360.78207,-1.1742818,0.16066076,0.0068308227,324.05377,324.69073,318.71695,318.09106,290.0,290.0,360.0,361.0,89.0,89.0,89.0,89.0,0.0,0.0,0.0,0.0,0.04956368,0.04447584,0.05579628,0.05108425,-2.4137645,6.6196914,-1.7499177,4.8201528,-249.61975,-286.52695,67.80624,89.06274,0.0,0.0,0.0,2.0,1.0,-1.7101012,-0.0070246113,-0.0047944784,89.0,89.0,89.0,89.0,21.842827,21.842827,24.816736,24.816736,0.016444692,0.020069044,-4.4315413E-4,-4.2709563E-4,1184.068,0.0,0.0,0.0,0.0,0.0,0.0,0.0,0.0,0.0,0.0,0.0,0.0,0.0,-87.77433,0.49329132,-11.280447,-0.007868259,-0.10436991,-0.0022452231,548281.8,119984.9,0.009443806,0.011806806,8921.07,7017.521,7810.689,5700.4604,0.3065529,0.0,0.0,0.0
284.14313,284.14313,3.333,0.0,0.0,318.85294,11476.0,100.0,0.0,1.9044774,0.0,8.0,1.0,0.0,4000000.0,110.0,1.0,0.0,0.0,10.0,0.0,0.0,188.49887,40.2287,-361.361,-1.1123942,0.16223025,0.016882397,324.3059,324.90466,318.98987,318.34512,289.0,289.0,359.0,360.0,89.0,89.0,89.0,89.0,0.0,0.0,0.0,0.0,0.04961264,0.04482663,0.055678178,0.051383503,4.5331564,8.370056,-3.5215168,7.648989,234.88101,87.46682,-93.246994,161.10689,0.0,0.0,0.0,2.0,1.0,-1.7153988,-0.0067580254,-0.0049943924,89.0,89.0,89.0,89.0,21.842827,21.842827,24.816736,24.816736,0.016359035,0.019937314,-4.513599E-4,-4.2058708E-4,1184.6448,0.0,0.0,0.0,0.0,0.0,0.0,0.0,0.0,0.0,0.0,0.0,0.0,0.0,-87.77379,0.50283563,-11.840592,0.0018384787,-0.108564325,-0.0064145243,548118.7,119984.91,0.008466981,0.010979645,8927.677,7105.572,7766.8984,5868.5654,0.30569458,0.0,0.0,0.0
288.64954,288.64954,3.383,0.0,0.0,319.13422,11471.0,100.0,0.0,1.9465959,0.0,8.0,1.0,0.0,4000000.0,110.0,1.0,0.0,0.0,10.0,0.0,0.0,184.11014,40.254517,-361.96765,-1.1160916,0.19202599,0.133155,324.42334,324.504,319.30603,318.5929,287.0,287.0,358.0,358.0,89.0,89.0,89.0,89.0,0.0,0.0,0.0,0.0,0.050400447,0.04570012,0.055743564,0.05172062,29.763802,40.305103,7.4270363,9.0611725,1176.7788,2116.8928,483.8034,382.5232,0.0,0.0,0.0,2.0,1.0,-1.7212292,-0.0075173373,-0.0054785013,89.0,89.0,89.0,89.0,21.842827,21.842827,24.816736,24.816736,0.015797803,0.017961407,-4.6144926E-4,-4.282747E-4,1184.3328,0.0,0.0,0.0,0.0,0.0,0.0,0.0,0.0,0.0,0.0,0.0,0.0,0.0,-87.77594,0.5394173,-12.394781,0.02277381,-0.12080896,-0.007513384,548213.2,119984.89,0.0077728103,0.009439483,9330.487,7375.9785,7941.76,6129.5137,0.3045349,0.0,0.0,0.0
293.1556,293.1556,3.433,0.0,0.0,319.39014,11484.0,100.0,0.0,1.8137017,0.0,8.0,1.0,0.0,4000000.0,110.0,1.0,0.0,0.0,10.0,0.0,0.0,179.7215,40.28234,-362.60178,-1.083103,0.15462542,-0.057103552,324.79108,324.86935,319.57074,318.85956,286.0,286.0,356.0,357.0,89.0,89.0,89.0,89.0,0.0,0.0,0.0,0.0,0.0495899,0.045460474,0.0553932,0.05132971,-22.817997,-21.1291,-9.425729,-11.421292,-225.09097,-696.6769,-161.48236,-170.72261,0.0,0.0,0.0,2.0,1.0,-1.7272698,-0.00807606,-0.005310416,89.0,89.0,89.0,89.0,21.842827,21.842827,24.816736,24.816736,0.015998552,0.018171055,-4.37655E-4,-4.0940152E-4,1185.1268,0.0,0.0,0.0,0.0,0.0,0.0,0.0,0.0,0.0,0.0,0.0,0.0,0.0,-87.76951,0.55402285,-12.936508,0.002586289,-0.12028717,0.015877023,547959.75,119984.9,0.0092444355,0.010760605,8907.541,7001.5244,7485.1323,5642.8804,0.3055563,0.0,0.0,0.0
297.6621,297.6621,3.483,0.0,0.0,319.64255,11496.0,100.0,0.0,1.6335962,0.0,8.0,1.0,0.0,4000000.0,110.0,1.0,0.0,0.0,10.0,0.0,0.0,175.33324,40.308826,-363.2626,-1.058206,0.15560566,-0.12322069,325.13968,325.20837,319.81265,319.12625,285.0,285.0,355.0,356.0,89.0,89.0,89.0,89.0,0.0,0.0,0.0,0.0,0.048903435,0.044148557,0.055334877,0.051072,-3.7935374,-23.96509,-0.2789497,-3.627911,517.59924,298.63712,8.10027,129.28244,0.0,0.0,0.0,2.0,1.0,-1.7331886,-0.0085570505,-0.0046675205,89.0,89.0,89.0,89.0,21.842827,21.842827,24.816736,24.816736,0.016377423,0.01842488,-4.312784E-4,-4.1592095E-4,1185.8484,0.0,0.0,0.0,0.0,0.0,0.0,0.0,0.0,0.0,0.0,0.0,0.0,0.0,-87.761086,0.5045426,-13.465873,0.0067550456,-0.11541729,0.009491997,547721.06,119984.9,0.010335399,0.012631498,8541.281,6836.8843,7534.1826,5595.2725,0.3071699,0.0,0.0,0.0
