LapDistance [m],TotalDistance [m],LapTime [s],Sector1Time [s],Sector2Time [s],Speed [km/h],EngineRevs [rpm],ThrottlePercentage [%],BrakePercentage [%],Steer [%],Clutch [%],Gear [int],DRS [0/1],CanUseDRS [0/1],KERSLevel [J],EngineTemperature [C],RacePosition [int],Sector [int],InPits [int],FuelRemaining [kg],CurrentFlag [int],CurrentLapInvalid [int],X [m],Y [m],Z [m],GForceLatitudinal [G],GForceLongitudinal [G],GForceVertical [G],WheelSpeedRearLeft [km/h],WheelSpeedRearRight [km/h],WheelSpeedFrontLeft [km/h],WheelSpeedFrontRight [km/h],BrakeTemperatureRearLeft [C],BrakeTemperatureRearRight [C],BrakeTemperatureFrontLeft [C],BrakeTemperatureFrontRight [C],TyreTemperatureRearLeft [C],TyreTemperatureRearRight [C],TyreTemperatureFrontLeft [C],TyreTemperatureFrontRight [C],TyreWearRearLeft [%],TyreWearRearRight [%],TyreWearFrontLeft [%],TyreWearFrontRight [%],SuspensionPositionRearLeft [m],SuspensionPositionRearRight [m],SuspensionPositionFrontLeft [m],SuspensionPositionFrontRight [m],SuspensionVelocityRearLeft [m/s],SuspensionVelocityRearRight [m/s],SuspensionVelocityFrontLeft [m/s],SuspensionVelocityFrontRight [m/s],SuspensionAccelerationRearLeft [m/s^2],SuspensionAccelerationRearRight [m/s^2],SuspensionAccelerationFrontLeft [m/s^2],SuspensionAccelerationFrontRight [m/s^2],MGUKHarvested [J],MGUHHarvested [J],ERSSpent [J],ERSMode [int],FuelMixMode [int],Yaw [rad],Roll [rad],Pitch [rad],TyreCarcassTemperatureRearLeft [C],TyreCarcassTemperatureRearRight [C],TyreCarcassTemperatureFrontLeft [C],TyreCarcassTemperatureFrontRight [C],TyrePressureRearLeft [PSI],TyrePressureRearRight [PSI],TyrePressureFrontLeft [PSI],TyrePressureFrontRight [PSI],WheelSlipRearLeft [%],WheelSlipRearRight [%],WheelSlipFrontLeft [%],WheelSlipFrontRight [%],Torque [Nm],Handbrake [%],RearLeftInside [C],RearLeftMiddle [C],RearLeftOutside [C],RearRightInside [C],RearRightMiddle [C],RearRightOutside [C],FrontLeftInside [C],FrontLeftMiddle [C],FrontLeftOutside [C],FrontRightInside [C],FrontRightMiddle [C],FrontRightOutside [C],WoldSpeedX [km/h],WoldSpeedY [km/h],WoldSpeedZ [km/h],LocalAngularVelocityX [rad/s],LocalAngularVelocityY [rad/s],LocalAngularVelocityZ [rad/s],IcePower [W],MgukPower [W],FrontRideHeight [m],RearRideHeight [m],LoadRearLeft [N],LoadRearRight [N],LoadFrontLeft [N],LoadFrontRight [N],Extra1 [m],Extra2 [],Extra3 [],Extra4 []
0.79154325,0.79154325,0.016,0.0,0.0,325.96274,11718.0,100.0,0.0,-0.19618243,0.0,8.0,1.0,0.0,4000000.0,110.0,1.0,0.0,0.0,10.0,0.0,0.0,-517.1411,57.443336,352.33292,0.13002728,0.1016152,-0.6309112,331.50647,331.4487,325.82126,325.8779,216.0,216.0,271.0,275.0,93.0,93.0,93.0,93.0,0.0,0.0,0.0,0.0,0.04478473,0.045519717,0.051957898,0.05218304,0.0,0.0,0.0,0.0,-708.6529,-383.42145,365.89346,165.90796,0.0,0.0,0.0,2.0,1.0,0.25988868,-0.002456354,-0.025604963,93.0,93.0,93.0,93.0,21.775778,21.775778,24.740557,24.740557,0.017036013,0.016722608,-3.657044E-4,-3.7341326E-4,1199.0463,0.0,0.0,0.0,0.0,0.0,0.0,0.0,0.0,0.0,0.0,0.0,0.0,0.0,23.165222,2.4954858,87.49617,0.0901304,0.009980365,-0.0013951808,543324.7,119984.91,0.012312638,0.014303732,6669.1284,6928.7344,5606.9624,5679.995,0.30255032,0.0,0.0,0.0
5.3383403,5.3383403,0.066,0.0,0.0,326.14014,11722.0,100.0,0.0,-0.23068,0.0,8.0,1.0,0.0,4000000.0,110.0,1.0,0.0,0.0,10.0,0.0,0.0,-515.9811,57.560688,356.7088,0.12047278,0.10427565,-0.4273546,331.60104,331.52893,325.98172,326.047,215.0,215.0,270.0,274.0,93.0,93.0,93.0,93.0,0.0,0.0,0.0,0.0,0.041696157,0.043048553,0.052595213,0.052754175,0.0,0.0,0.0,0.0,2680.1836,2494.0652,273.85342,316.01788,0.0,0.0,0.0,2.0,1.0,0.26038027,-0.0010784038,-0.022748232,93.0,93.0,93.0,93.0,21.775778,21.775778,24.740557,24.740557,0.016954381,0.016578581,-3.8109667E-4,-3.9062893E-4,1199.3151,0.0,0.0,0.0,0.0,0.0,0.0,0.0,0.0,0.0,0.0,0.0,0.0,0.0,23.234812,2.2363214,87.53572,0.028714087,0.011957437,0.02637052,543261.06,119984.9,0.01225357,0.018185236,6830.409,7122.586,6417.383,6487.12,0.30696297,0.0,0.0,0.0
9.887649,9.887649,0.116,0.0,0.0,326.30325,11714.0,100.0,0.0,-0.12122509,0.0,8.0,1.0,0.0,4000000.0,110.0,1.0,0.0,0.0,10.0,0.0,0.0,-514.8176,57.671837,361.0864,0.10367348,0.09068305,-0.07623755,331.35678,331.29904,326.14526,326.2023,214.0,215.0,269.0,273.0,93.0,93.0,93.0,93.0,0.0,0.0,0.0,0.0,0.046506155,0.047981884,0.053334553,0.053497188,0.0,0.0,0.0,0.0,-2006.1042,-2586.695,-301.5473,-525.8605,0.0,0.0,0.0,2.0,1.0,0.26093003,2.0006711E-4,-0.023569465,93.0,93.0,93.0,93.0,21.775778,21.775778,24.740557,24.740557,0.015632194,0.015303411,-3.9033842E-4,-3.8201464E-4,1198.8481,0.0,0.0,0.0,0.0,0.0,0.0,0.0,0.0,0.0,0.0,0.0,0.0,0.0,23.298698,2.2077038,87.56637,-0.007801107,0.009649745,0.026749885,543420.44,119984.9,0.014248246,0.01576549,7759.9844,8089.3164,6594.1953,6634.5273,0.31076622,0.0,0.0,0.0
14.439087,14.439087,0.166,0.0,0.0,326.4533,11712.0,100.0,0.0,0.010191846,0.0,8.0,1.0,0.0,4000000.0,110.0,1.0,0.0,0.0,10.0,0.0,0.0,-513.65125,57.78305,365.46545,0.07286465,0.08709242,0.20877452,331.30438,331.2357,326.30124,326.32248,213.0,214.0,268.0,272.0,93.0,93.0,93.0,93.0,0.0,0.0,0.0,0.0,0.049247,0.049597733,0.054385796,0.054455224,0.0,0.0,0.0,0.0,2164.4617,3014.159,-109.192764,-268.3416,0.0,0.0,0.0,2.0,1.0,0.26124093,0.0010221134,-0.02552998,93.0,93.0,93.0,93.0,21.775778,21.775778,24.740557,24.740557,0.015021085,0.014756138,-4.0924712E-4,-3.947467E-4,1198.7218,0.0,0.0,0.0,0.0,0.0,0.0,0.0,0.0,0.0,0.0,0.0,0.0,0.0,23.349262,2.2616355,87.59467,-0.06595604,0.0028109432,0.024660949,543455.94,119984.9,0.008942011,0.011627155,8349.383,8723.842,7593.913,7609.751,0.3083849,0.0,0.0,0.0
18.992548,18.992548,0.216,0.0,0.0,326.62155,11707.0,100.0,0.0,-0.1032119,0.0,8.0,1.0,0.0,4000000.0,110.0,1.0,0.0,0.0,10.0,0.0,0.0,-512.4828,57.90197,369.84607,0.059024088,0.09253962,0.5904988,331.1512,331.1195,326.4775,326.48666,212.0,213.0,267.0,271.0,93.0,93.0,93.0,93.0,0.0,0.0,0.0,0.0,0.051172685,0.05143793,0.05499171,0.055071406,0.0,0.0,0.0,0.0,-424.0169,-22.75852,-138.26791,133.81541,0.0,0.0,0.0,2.0,1.0,0.26126125,0.0016042341,-0.028269649,93.0,93.0,93.0,93.0,21.775778,21.775778,24.740557,24.740557,0.01390886,0.013789981,-4.0745645E-4,-4.1688888E-4,1198.4028,0.0,0.0,0.0,0.0,0.0,0.0,0.0,0.0,0.0,0.0,0.0,0.0,0.0,23.387291,2.5052261,87.62629,-0.024923204,0.0021645045,0.021354176,543543.4,119984.9,0.0046481476,0.0042483904,9540.969,9709.425,7855.999,7905.105,0.30250072,0.0,0.0,0.0
23.547829,23.547829,0.266,0.0,0.0,326.76767,11721.0,100.0,0.0,0.035683416,0.0,8.0,1.0,0.0,4000000.0,110.0,1.0,0.0,0.0,10.0,0.0,0.0,-511.31265,58.033863,374.22815,0.022184143,0.079317436,0.29445282,331.5287,331.5098,326.6386,326.63257,211.0,212.0,266.0,270.0,93.0,93.0,93.0,93.0,0.0,0.0,0.0,0.0,0.04984221,0.049901277,0.05485482,0.054939676,0.0,0.0,0.0,0.0,56.031185,-103.52004,-346.86322,-578.09644,0.0,0.0,0.0,2.0,1.0,0.26129085,0.0017286503,-0.028777242,93.0,93.0,93.0,93.0,21.775778,21.775778,24.740557,24.740557,0.014525481,0.0144913895,-4.0036908E-4,-3.9516567E-4,1199.2576,0.0,0.0,0.0,0.0,0.0,0.0,0.0,0.0,0.0,0.0,0.0,0.0,0.0,23.410995,2.7235806,87.65547,-0.0029736168,-0.0014376931,-0.0019043765,543281.4,119984.9,0.0053644055,0.0065690055,8808.422,8871.178,7534.6094,7556.0796,0.30236626,0.0,0.0,0.0
28.10491,28.10491,0.316,0.0,0.0,326.9132,11734.0,100.0,0.0,0.05187653,0.0,8.0,1.0,0.0,4000000.0,110.0,1.0,0.0,0.0,10.0,0.0,0.0,-510.1417,58.17048,378.61188,0.0052297227,0.08556746,-0.14992465,331.92163,331.90735,326.79367,326.77872,210.0,211.0,265.0,269.0,93.0,93.0,93.0,93.0,0.0,0.0,0.0,0.0,0.04827596,0.048299927,0.0537438,0.053811952,0.0,0.0,0.0,0.0,565.8254,879.5902,62.736855,14.457206,0.0,0.0,0.0,2.0,1.0,0.26118088,0.0016860625,-0.028850079,93.0,93.0,93.0,93.0,21.775778,21.775778,24.740557,24.740557,0.015312921,0.01531353,-3.8607037E-4,-3.8223006E-4,1199.9895,0.0,0.0,0.0,0.0,0.0,0.0,0.0,0.0,0.0,0.0,0.0,0.0,0.0,23.427265,2.7107966,87.69339,0.0038514463,-0.002803386,-0.002562249,543010.7,119984.9,0.009043728,0.010160173,7979.5967,7996.6553,6654.0386,6682.3647,0.30542755,0.0,0.0,0.0
32.66425,32.66425,0.366,0.0,0.0,327.06845,11741.0,100.0,0.0,0.08155883,0.0,8.0,1.0,0.0,4000000.0,110.0,1.0,0.0,0.0,10.0,0.0,0.0,-508.97003,58.303852,382.9977,-0.014592602,0.088808075,-0.13583049,332.12143,332.10345,326.9551,326.92325,209.0,210.0,264.0,268.0,93.0,93.0,93.0,93.0,0.0,0.0,0.0,0.0,0.04800076,0.048011,0.053571656,0.053538717,0.0,0.0,0.0,0.0,403.9138,622.25903,208.30032,517.03595,0.0,0.0,0.0,2.0,1.0,0.26095718,0.0015342375,-0.028614044,93.0,93.0,93.0,93.0,21.775778,21.775778,24.740557,24.740557,0.015471903,0.015501061,-3.9061962E-4,-3.8688022E-4,1200.4005,0.0,0.0,0.0,0.0,0.0,0.0,0.0,0.0,0.0,0.0,0.0,0.0,0.0,23.434587,2.6339746,87.73843,-0.0060248533,-0.0057523623,-0.003523632,542872.8,119984.9,0.009102955,0.01109608,7845.0366,7851.9893,6851.8066,6848.008,0.30613708,0.0,0.0,0.0
37.22589,37.22589,0.416,0.0,0.0,327.2333,11740.0,100.0,0.0,0.1979758,0.0,8.0,1.0,0.0,4000000.0,110.0,1.0,0.0,0.0,10.0,0.0,0.0,-507.79834,58.435234,387.38593,-0.04892174,0.09434967,0.09704994,332.0808,332.05927,327.1316,327.07095,208.0,209.0,263.0,267.0,93.0,93.0,93.0,93.0,0.0,0.0,0.0,0.0,0.04944432,0.04931901,0.054003652,0.053794645,0.0,0.0,0.0,0.0,-779.94604,-642.3084,-58.217293,0.7107925,0.0,0.0,0.0,2.0,1.0,0.26056254,0.0013755308,-0.029227495,93.0,93.0,93.0,93.0,21.775778,21.775778,24.740557,24.740557,0.014786634,0.0148987165,-4.0374062E-4,-3.9066304E-4,1200.354,0.0,0.0,0.0,0.0,0.0,0.0,0.0,0.0,0.0,0.0,0.0,0.0,0.0,23.428965,2.6411693,87.78713,-0.007644753,-0.010905182,0.0017732013,542898.0,119984.9,0.0074915793,0.0080457,8517.867,8437.76,7155.3594,7054.0,0.30387115,0.0,0.0,0.0
41.77132,41.77132,0.466,0.0,0.0,327.38342,11745.0,100.0,0.0,0.22874574,0.0,8.0,1.0,0.0,4000000.0,110.0,1.0,0.0,0.0,10.0,0.0,0.0,-506.62747,58.569912,391.77652,-0.08109149,0.08055653,0.14957076,332.22607,332.1947,327.29852,327.20596,207.0,208.0,262.0,266.0,93.0,93.0,93.0,93.0,0.0,0.0,0.0,0.0,0.04943197,0.04925609,0.054431196,0.05415876,0.0,0.0,0.0,0.0,-484.90308,-569.4866,-448.45187,-588.034,0.0,0.0,0.0,2.0,1.0,0.25986856,0.0013431783,-0.02949953,93.0,93.0,93.0,93.0,21.775778,21.775778,24.740557,24.740557,0.01468407,0.0148473205,-3.9769517E-4,-3.897365E-4,1200.6484,0.0,0.0,0.0,0.0,0.0,0.0,0.0,0.0,0.0,0.0,0.0,0.0,0.0,23.405426,2.7341547,87.83373,-0.005523666,-0.016075758,-3.4004892E-4,542800.0,119984.9,0.0076069697,0.008325562,8597.133,8463.369,7355.0117,7221.2344,0.30398655,0.0,0.0,0.0
46.316936,46.316936,0.516,0.0,0.0,327.52203,11754.0,100.0,0.0,0.34393823,0.0,8.0,1.0,0.0,4000000.0,110.0,1.0,0.0,0.0,10.0,0.0,0.0,-505.4583,58.7073,396.16956,-0.12985305,0.07677376,-0.036211453,332.4783,332.44424,327.46268,327.32886,207.0,207.0,261.0,265.0,93.0,93.0,93.0,93.0,0.0,0.0,0.0,0.0,0.048835088,0.048555236,0.054069083,0.0535009,0.0,0.0,0.0,0.0,-217.33937,-218.7878,103.73439,70.1263,0.0,0.0,0.0,2.0,1.0,0.25886285,0.0012987343,-0.02937901,93.0,93.0,93.0,93.0,21.775778,21.775778,24.740557,24.740557,0.0149533,0.015224604,-3.8985605E-4,-3.7610135E-4,1201.1908,0.0,0.0,0.0,0.0,0.0,0.0,0.0,0.0,0.0,0.0,0.0,0.0,0.0,23.360046,2.7461276,87.8853,0.010925842,-0.02311916,3.9572036E-4,542629.4,119984.9,0.010895701,0.010975644,8279.528,8074.3022,6967.7686,6688.55,0.30681133,0.0,0.0,0.0
50.8646,50.8646,0.566,0.0,0.0,327.65582,11765.0,100.0,0.0,0.44555464,0.0,8.0,1.0,0.0,4000000.0,110.0,1.0,0.0,0.0,10.0,0.0,0.0,-504.292,58.842056,400.56534,-0.17842443,0.0856847,-0.22792704,332.82568,332.76556,327.61038,327.4453,206.0,206.0,260.0,264.0,93.0,93.0,93.0,93.0,0.0,0.0,0.0,0.0,0.04728584,0.046792656,0.053675227,0.052901316,0.0,0.0,0.0,0.0,2608.6892,2734.2166,1901.23,3088.6035,0.0,0.0,0.0,2.0,1.0,0.25757113,0.0020654132,-0.028668523,93.0,93.0,93.0,93.0,21.775778,21.775778,24.740557,24.740557,0.015636861,0.015907852,-3.941732E-4,-3.7709996E-4,1201.818,0.0,0.0,0.0,0.0,0.0,0.0,0.0,0.0,0.0,0.0,0.0,0.0,0.0,23.29415,2.6359532,87.944626,0.0107834395,-0.02806448,0.015493028,542405.1,119984.914,0.010988969,0.013168521,7742.9404,7544.5054,6891.0347,6575.126,0.30841255,0.0,0.0,0.0
55.41439,55.41439,0.616,0.0,0.0,327.7979,11755.0,100.0,0.0,0.4814717,0.0,8.0,1.0,0.0,4000000.0,110.0,1.0,0.0,0.0,10.0,0.0,0.0,-503.12955,58.97429,404.96432,-0.23032817,0.07480791,0.4927596,332.50012,332.473,327.75092,327.5595,205.0,206.0,259.0,263.0,93.0,93.0,93.0,93.0,0.0,0.0,0.0,0.0,0.051627334,0.051188737,0.055647485,0.054380044,0.0,0.0,0.0,0.0,5617.216,6917.6436,3082.85,1720.4087,0.0,0.0,0.0,2.0,1.0,0.25601348,0.0024600045,-0.030158877,93.0,93.0,93.0,93.0,21.775778,21.775778,24.740557,24.740557,0.01416087,0.014576142,-4.052246E-4,-3.9339822E-4,1201.2411,0.0,0.0,0.0,0.0,0.0,0.0,0.0,0.0,0.0,0.0,0.0,0.0,0.0,23.203331,2.7147644,88.007065,-0.06350533,-0.032280516,0.032930184,542605.94,119984.9,0.007877334,0.008272889,9375.5,8963.817,8560.351,8053.4897,0.3048582,0.0,0.0,0.0
59.965714,59.965714,0.666,0.0,0.0,327.91498,11758.0,100.0,0.0,0.45789754,0.0,8.0,1.0,0.0,4000000.0,110.0,1.0,0.0,0.0,10.0,0.0,0.0,-501.97232,59.117504,409.3662,-0.2574664,0.05194965,0.39575616,332.6044,332.55237,327.88315,327.68634,204.0,205.0,258.0,262.0,93.0,93.0,93.0,93.0,0.0,0.0,0.0,0.0,0.050728995,0.050304484,0.055218447,0.054339446,0.0,0.0,0.0,0.0,-1026.7228,-1408.3607,-191.5231,-295.76715,0.0,0.0,0.0,2.0,1.0,0.25433952,0.003407213,-0.03180659,93.0,93.0,93.0,93.0,21.775778,21.775778,24.740557,24.740557,0.014002146,0.01435036,-3.8789175E-4,-3.829298E-4,1201.4093,0.0,0.0,0.0,0.0,0.0,0.0,0.0,0.0,0.0,0.0,0.0,0.0,0.0,23.090227,2.969912,88.06221,-0.0021466725,-0.032940716,0.009779699,542543.5,119984.9,0.011271279,0.010037191,9366.43,8982.684,7634.5703,7272.3135,0.3071766,0.0,0.0,0.0
64.51813,64.51813,0.716,0.0,0.0,327.99362,11784.0,100.0,0.0,0.5886557,0.0,8.0,1.0,0.0,4000000.0,110.0,1.0,0.0,0.0,10.0,0.0,0.0,-500.82114,59.2672,413.77072,-0.28174302,0.042601682,-0.5236172,333.34033,333.3265,327.97995,327.76114,203.0,204.0,257.0,261.0,93.0,93.0,93.0,93.0,0.0,0.0,0.0,0.0,0.046682917,0.04654997,0.05324588,0.05308309,0.0,0.0,0.0,0.0,-7329.6577,-4783.4243,-4821.9272,-1895.423,0.0,0.0,0.0,2.0,1.0,0.25260407,0.0028289612,-0.031745195,93.0,93.0,93.0,93.0,21.775778,21.775778,24.740557,24.740557,0.0160945,0.01650858,-3.65098E-4,-3.5105168E-4,1202.9557,0.0,0.0,0.0,0.0,0.0,0.0,0.0,0.0,0.0,0.0,0.0,0.0,0.0,22.964487,2.937389,88.11876,-0.0042209607,-0.03927171,-0.063750006,542043.2,119984.89,0.015016154,0.016383193,7028.074,6823.3613,5681.046,5752.9307,0.31197834,0.0,0.0,0.0
69.07217,69.07217,0.766,0.0,0.0,328.1234,11770.0,100.0,0.0,0.40915394,0.0,8.0,1.0,0.0,4000000.0,110.0,1.0,0.0,0.0,10.0,0.0,0.0,-499.67648,59.412506,418.17865,-0.29569706,0.071690425,0.25971362,332.9469,332.89355,328.07947,327.874,202.0,203.0,256.0,260.0,93.0,93.0,93.0,93.0,0.0,0.0,0.0,0.0,0.050796144,0.048156615,0.055869166,0.053511206,0.0,0.0,0.0,0.0,3305.4463,6081.3716,-1586.8083,1078.1138,0.0,0.0,0.0,2.0,1.0,0.25075018,3.9055847E-4,-0.033475876,93.0,93.0,93.0,93.0,21.775778,21.775778,24.740557,24.740557,0.014589127,0.014967387,-4.1074998E-4,-3.9616413E-4,1202.1248,0.0,0.0,0.0,0.0,0.0,0.0,0.0,0.0,0.0,0.0,0.0,0.0,0.0,22.830616,2.9404688,88.1907,-0.080401376,-0.035043713,0.030666254,542313.06,119984.9,0.007831004,0.009686339,8816.595,8410.452,8397.151,7406.658,0.30578423,0.0,0.0,0.0
73.62778,73.62778,0.816,0.0,0.0,328.25537,11762.0,100.0,0.0,0.47053188,0.0,8.0,1.0,0.0,4000000.0,110.0,1.0,0.0,0.0,10.0,0.0,0.0,-498.53864,59.56838,422.5899,-0.30095235,0.06324459,0.807702,332.7528,332.61932,328.20914,328.0219,201.0,202.0,255.0,259.0,93.0,93.0,93.0,93.0,0.0,0.0,0.0,0.0,0.051837362,0.051929977,0.056287553,0.054932907,0.0,0.0,0.0,0.0,1060.9879,-1892.4457,2191.244,-50.90835,0.0,0.0,0.0,2.0,1.0,0.24909987,0.0034451094,-0.036081553,93.0,93.0,93.0,93.0,21.775778,21.775778,24.740557,24.740557,0.013436758,0.013524483,-4.2023885E-4,-4.00409E-4,1201.6423,0.0,0.0,0.0,0.0,0.0,0.0,0.0,0.0,0.0,0.0,0.0,0.0,0.0,22.690783,3.2960413,88.25208,-0.0062938007,-0.03106958,0.035911333,542464.2,119984.9,0.0018153681,0.0029936184,10118.01,10036.494,8738.74,8079.9062,0.30075932,0.0,0.0,0.0
78.18281,78.18281,0.866,0.0,0.0,328.15524,11775.0,100.0,0.0,0.56358105,0.0,8.0,1.0,0.0,4000000.0,110.0,1.0,0.0,0.0,10.0,0.0,0.0,-497.40927,59.741432,427.00244,-0.32312268,-0.0045375526,0.035269447,333.1175,333.02676,328.11496,327.93,200.0,201.0,254.0,258.0,93.0,93.0,93.0,93.0,0.0,0.0,0.0,0.0,0.04912527,0.04877134,0.05547099,0.052870866,0.0,0.0,0.0,0.0,441.47824,2069.4045,-947.34265,-339.54068,0.0,0.0,0.0,2.0,1.0,0.24759218,0.0055555375,-0.037116885,93.0,93.0,93.0,93.0,21.775778,21.775778,24.740557,24.740557,0.014824306,0.015096886,-4.0698028E-4,-3.5954043E-4,1202.4155,0.0,0.0,0.0,0.0,0.0,0.0,0.0,0.0,0.0,0.0,0.0,0.0,0.0,22.506437,3.515976,88.26207,0.013802282,-0.029964346,0.084371865,542213.94,119984.89,0.0038336737,0.0062228963,8446.108,8196.667,7227.3154,6050.2344,0.30000782,0.0,0.0,0.0
82.74842,82.74842,0.916,0.0,0.0,328.18106,11774.0,100.0,0.0,0.40066427,0.0,8.0,1.0,0.0,4000000.0,110.0,1.0,0.0,0.0,10.0,0.0,0.0,-496.28793,59.91825,431.4165,-0.2479791,0.08351679,0.057286896,333.1024,332.9388,328.14575,327.9526,200.0,200.0,253.0,257.0,93.0,93.0,93.0,93.0,0.0,0.0,0.0,0.0,0.049576923,0.049621876,0.05499858,0.05282018,0.0,0.0,0.0,0.0,-7975.0244,-3834.5928,-4240.8003,-1896.1204,0.0,0.0,0.0,2.0,1.0,0.24591559,0.0106132375,-0.038298488,93.0,93.0,93.0,93.0,21.775778,21.775778,24.740557,24.740557,0.014795835,0.014824647,-3.9246102E-4,-3.8207532E-4,1202.3856,0.0,0.0,0.0,0.0,0.0,0.0,0.0,0.0,0.0,0.0,0.0,0.0,0.0,22.364922,3.5680318,88.303345,0.017073806,-0.028238563,0.1249296,542246.5,119984.9,0.006094588,0.006878709,8435.303,8486.882,7244.9014,6360.65,0.3006878,0.0,0.0,0.0
87.31555,87.31555,0.966,0.0,0.0,328.29877,11800.0,100.0,0.0,0.40469462,0.0,8.0,1.0,0.0,4000000.0,110.0,1.0,0.0,0.0,10.0,0.0,0.0,-495.17267,60.09342,435.83347,-0.2651028,0.06040989,-0.8237498,333.865,333.72717,328.27658,328.09393,199.0,200.0,252.0,256.0,93.0,93.0,93.0,93.0,0.0,0.0,0.0,0.0,0.04568221,0.04601215,0.052958228,0.051379304,0.0,0.0,0.0,0.0,-5320.496,-5954.624,-1214.6919,-2995.6116,0.0,0.0,0.0,2.0,1.0,0.2443559,0.014519771,-0.036293983,93.0,93.0,93.0,93.0,21.775778,21.775778,24.740557,24.740557,0.016698353,0.016746607,-3.660331E-4,-3.4396275E-4,1203.8962,0.0,0.0,0.0,0.0,0.0,0.0,0.0,0.0,0.0,0.0,0.0,0.0,0.0,22.252335,3.3698153,88.373314,0.08844037,-0.028841037,0.027010534,541731.44,119984.89,0.008129144,0.0104063405,6565.4805,6601.2324,5606.6597,4837.267,0.3041258,0.0,0.0,0.0
91.88428,91.88428,1.016,0.0,0.0,328.24866,11787.0,100.0,0.0,0.39691782,0.0,8.0,1.0,0.0,4000000.0,110.0,1.0,0.0,0.0,10.0,0.0,0.0,-494.0641,60.256958,440.25348,-0.5157052,-0.2765199,0.19792034,333.4444,333.36353,328.19165,328.01477,198.0,199.0,252.0,255.0,93.0,93.0,93.0,93.0,0.0,0.0,0.0,0.0,0.045361176,0.044713203,0.053711485,0.051323567,0.0,0.0,0.0,0.0,5174.2354,2036.2524,-2858.014,-4329.9297,0.0,0.0,0.0,2.0,1.0,0.24277334,0.01671328,-0.035020947,93.0,93.0,93.0,93.0,21.775778,21.775778,24.740557,24.740557,0.015747191,0.016137024,-4.2389377E-4,-3.6917234E-4,1203.1469,0.0,0.0,0.0,0.0,0.0,0.0,0.0,0.0,0.0,0.0,0.0,0.0,0.0,22.08113,3.2375174,88.40683,-0.006762092,-0.02985576,0.06026886,541991.4,119984.9,0.0032103034,0.0065859878,7891.3994,7487.117,6427.97,5195.1045,0.29906082,0.0,0.0,0.0
96.452774,96.452774,1.066,0.0,0.0,328.17648,11777.0,100.0,0.0,0.33603442,0.0,8.0,1.0,0.0,4000000.0,110.0,1.0,0.0,0.0,10.0,0.0,0.0,-492.9638,60.41663,444.67502,-0.49514806,-0.338719,0.8564164,333.1282,333.13647,328.0438,328.02606,197.0,198.0,251.0,254.0,93.0,93.0,93.0,93.0,0.0,0.0,0.0,0.0,0.04923558,0.04874736,0.054078147,0.052196372,0.0,0.0,0.0,0.0,9126.819,6135.7,3219.7903,983.9681,0.0,0.0,0.0,2.0,1.0,0.24172895,0.020483332,-0.033850193,93.0,93.0,93.0,93.0,21.775778,21.775778,24.740557,24.740557,0.015073685,0.015217472,-4.6289884E-4,-3.8299334E-4,1202.5302,0.0,0.0,0.0,0.0,0.0,0.0,0.0,0.0,0.0,0.0,0.0,0.0,0.0,21.91908,3.2504756,88.426,0.039290357,-0.003262665,0.06935974,542173.5,119984.89,0.00418558,0.0048326976,8706.301,8461.935,7470.8516,6559.926,0.29743958,0.0,0.0,0.0
101.02161,101.02161,1.116,0.0,0.0,328.31104,11804.0,100.0,0.0,0.28482923,0.0,8.0,1.0,0.0,4000000.0,110.0,1.0,0.0,0.0,10.0,0.0,0.0,-491.86963,60.57339,449.09802,-0.16153988,0.076510265,-0.80643594,333.9347,333.85077,328.26407,328.14288,196.0,197.0,250.0,253.0,93.0,93.0,93.0,93.0,0.0,0.0,0.0,0.0,0.04427726,0.045031965,0.052139383,0.051491488,0.0,0.0,0.0,0.0,-727.05273,-1555.8553,380.27,-65.07041,0.0,0.0,0.0,2.0,1.0,0.2410092,0.024150074,-0.030139565,93.0,93.0,93.0,93.0,21.775778,21.775778,24.740557,24.740557,0.016919985,0.016984819,-3.557836E-4,-3.4841563E-4,1204.1622,0.0,0.0,0.0,0.0,0.0,0.0,0.0,0.0,0.0,0.0,0.0,0.0,0.0,21.854748,2.970198,88.4903,0.109608345,-0.016995808,0.016649146,541667.56,119984.89,0.01149486,0.014653523,6569.027,6600.3975,5474.148,5245.2085,0.3069439,0.0,0.0,0.0
105.593315,105.593315,1.166,0.0,0.0,328.46704,11808.0,100.0,0.0,0.2811773,0.0,8.0,1.0,0.0,4000000.0,110.0,1.0,0.0,0.0,10.0,0.0,0.0,-490.77823,60.709496,453.52432,-0.17536771,0.09998579,-0.66375095,334.02725,334.01434,328.40613,328.28644,195.0,196.0,249.0,253.0,93.0,93.0,93.0,93.0,0.0,0.0,0.0,0.0,0.0398392,0.039999742,0.052350428,0.051670354,0.0,0.0,0.0,0.0,4134.4907,4078.3115,320.9397,434.11545,0.0,0.0,0.0,2.0,1.0,0.24010704,0.024928369,-0.025919557,93.0,93.0,93.0,93.0,21.775778,21.775778,24.740557,24.740557,0.016922452,0.017201563,-3.8472615E-4,-3.7372147E-4,1204.3727,0.0,0.0,0.0,0.0,0.0,0.0,0.0,0.0,0.0,0.0,0.0,0.0,0.0,21.800583,2.5470128,88.5615,0.056239348,-0.018992176,-0.007599441,541578.7,119984.91,0.010717674,0.017359486,6752.0195,6586.332,6215.34,5892.49,0.30853462,0.0,0.0,0.0
110.16825,110.16825,1.216,0.0,0.0,328.6292,11800.0,100.0,0.0,0.09397857,0.0,8.0,1.0,0.0,4000000.0,110.0,1.0,0.0,0.0,10.0,0.0,0.0,-489.68994,60.831562,457.95425,-0.16243756,0.0918192,-0.26729584,333.76785,333.7598,328.54834,328.44904,195.0,195.0,248.0,252.0,93.0,93.0,93.0,93.0,0.0,0.0,0.0,0.0,0.043620724,0.04308733,0.053552564,0.05287374,0.0,0.0,0.0,0.0,1014.3713,1267.0486,-620.2742,-439.4397,0.0,0.0,0.0,2.0,1.0,0.23916677,0.025390029,-0.024777174,93.0,93.0,93.0,93.0,21.775778,21.775778,24.740557,24.740557,0.015634272,0.015865086,-3.8161594E-4,-3.977828E-4,1203.9309,0.0,0.0,0.0,0.0,0.0,0.0,0.0,0.0,0.0,0.0,0.0,0.0,0.0,21.734888,2.3700101,88.62896,-2.055671E-4,-0.01566565,0.010934554,541747.06,119984.91,0.0080644665,0.013037838,7677.5054,7498.845,6929.625,6633.755,0.3065834,0.0,0.0,0.0
114.74427,114.74427,1.266,0.0,0.0,328.78696,11799.0,100.0,0.0,-0.117631234,0.0,8.0,1.0,0.0,4000000.0,110.0,1.0,0.0,0.0,10.0,0.0,0.0,-488.60468,60.94797,462.3873,-0.112960234,0.090452164,-0.085259825,333.7217,333.74863,328.66696,328.64716,194.0,195.0,247.0,251.0,93.0,93.0,93.0,93.0,0.0,0.0,0.0,0.0,0.048894648,0.048229367,0.053664375,0.053356268,0.0,0.0,0.0,0.0,-3848.5671,-3351.2588,-373.67188,-91.409676,0.0,0.0,0.0,2.0,1.0,0.23871556,0.025734933,-0.025094986,93.0,93.0,93.0,93.0,21.775778,21.775778,24.740557,24.740557,0.01506591,0.015162574,-3.7772194E-4,-4.0650964E-4,1203.8651,0.0,0.0,0.0,0.0,0.0,0.0,0.0,0.0,0.0,0.0,0.0,0.0,0.0,21.683107,2.3036678,88.68851,0.004099875,-0.0015530712,0.0027438086,541763.4,119984.91,0.0073325713,0.008356233,8146.017,8010.8564,6853.496,6746.56,0.30442524,0.0,0.0,0.0
119.32226,119.32226,1.316,0.0,0.0,328.93805,11809.0,100.0,0.0,-0.21788077,0.0,8.0,1.0,0.0,4000000.0,110.0,1.0,0.0,0.0,10.0,0.0,0.0,-487.5212,61.06198,466.8231,-0.04019841,0.0812434,-0.3202509,333.97736,334.0656,328.7788,328.8491,193.0,194.0,246.0,250.0,93.0,93.0,93.0,93.0,0.0,0.0,0.0,0.0,0.047887556,0.047734477,0.053119626,0.053341184,0.0,0.0,0.0,0.0,-2314.0352,-3027.4492,-958.2593,-1468.1738,0.0,0.0,0.0,2.0,1.0,0.23908895,0.025728583,-0.024050951,93.0,93.0,93.0,93.0,21.775778,21.775778,24.740557,24.740557,0.015466765,0.015502552,-3.7445466E-4,-3.942487E-4,1204.459,0.0,0.0,0.0,0.0,0.0,0.0,0.0,0.0,0.0,0.0,0.0,0.0,0.0,21.664673,2.2311633,88.73808,0.03285977,0.013710553,-0.020352304,541571.6,119984.9,0.007062403,0.008314001,7683.635,7569.881,6271.601,6386.3096,0.304183,0.0,0.0,0.0
123.90297,123.90297,1.366,0.0,0.0,329.09775,11812.0,100.0,0.0,-0.20975964,0.0,8.0,1.0,0.0,4000000.0,110.0,1.0,0.0,0.0,10.0,0.0,0.0,-486.4377,61.170364,471.2612,0.026266275,0.09169548,-0.12877889,334.0668,334.15814,328.9186,329.01834,192.0,193.0,245.0,249.0,93.0,93.0,93.0,93.0,0.0,0.0,0.0,0.0,0.048031356,0.04767362,0.053397167,0.053809825,0.0,0.0,0.0,0.0,1614.8102,1119.0845,470.88852,110.93616,0.0,0.0,0.0,2.0,1.0,0.23990184,0.024989543,-0.022807479,93.0,93.0,93.0,93.0,21.775778,21.775778,24.740557,24.740557,0.01527618,0.015275184,-3.8981566E-4,-3.9737302E-4,1204.6244,0.0,0.0,0.0,0.0,0.0,0.0,0.0,0.0,0.0,0.0,0.0,0.0,0.0,21.680622,2.1288564,88.78238,0.007713491,0.017206272,-0.019473117,541508.44,119984.9,0.005431063,0.0077063763,7970.599,7895.961,6890.33,7075.335,0.30278873,0.0,0.0,0.0
128.48636,128.48636,1.416,0.0,0.0,329.25818,11813.0,100.0,0.0,-0.18035725,0.0,8.0,1.0,0.0,4000000.0,110.0,1.0,0.0,0.0,10.0,0.0,0.0,-485.35266,61.275555,475.7013,0.07637647,0.09032351,0.05642923,334.1156,334.16135,329.07928,329.17737,191.0,192.0,244.0,248.0,93.0,93.0,93.0,93.0,0.0,0.0,0.0,0.0,0.04919394,0.049292482,0.053550366,0.054227352,0.0,0.0,0.0,0.0,2040.4098,789.4679,829.63403,607.7214,0.0,0.0,0.0,2.0,1.0,0.2407682,0.024156258,-0.022390962,93.0,93.0,93.0,93.0,21.775778,21.775778,24.740557,24.740557,0.014896262,0.014783254,-3.929517E-4,-3.9560418E-4,1204.6814,0.0,0.0,0.0,0.0,0.0,0.0,0.0,0.0,0.0,0.0,0.0,0.0,0.0,21.721601,2.1008048,88.818924,0.004445128,0.016353376,-0.02479312,541488.2,119984.89,0.00572045,0.006763026,8377.277,8430.514,7039.8804,7356.724,0.30191422,0.0,0.0,0.0
133.0723,133.0723,1.466,0.0,0.0,329.39832,11825.0,100.0,0.0,-0.21083432,0.0,8.0,1.0,0.0,4000000.0,110.0,1.0,0.0,0.0,10.0,0.0,0.0,-484.26517,61.379463,480.143,0.1075463,0.074414834,-0.25430983,334.4696,334.48895,329.23035,329.3199,191.0,191.0,243.0,247.0,93.0,93.0,93.0,93.0,0.0,0.0,0.0,0.0,0.047859427,0.047909085,0.0531509,0.053711858,0.0,0.0,0.0,0.0,-679.6181,-175.16165,-358.18216,6.9469066,0.0,0.0,0.0,2.0,1.0,0.24157311,0.02313753,-0.021057487,93.0,93.0,93.0,93.0,21.775778,21.775778,24.740557,24.740557,0.015500006,0.015330255,-3.7523528E-4,-3.812159E-4,1205.3984,0.0,0.0,0.0,0.0,0.0,0.0,0.0,0.0,0.0,0.0,0.0,0.0,0.0,21.779121,2.0327053,88.84651,0.029566959,0.01578494,-0.017893013,541260.7,119984.89,0.008582596,0.010081108,7675.273,7792.038,6460.972,6727.931,0.30386448,0.0,0.0,0.0
137.66061,137.66061,1.516,0.0,0.0,329.53604,11832.0,100.0,0.0,-0.3271317,0.0,8.0,1.0,0.0,4000000.0,110.0,1.0,0.0,0.0,10.0,0.0,0.0,-483.17435,61.477226,484.586,0.1391512,0.077566385,-0.2930439,334.67493,334.6829,329.35657,329.46573,190.0,190.0,243.0,246.0,93.0,93.0,93.0,93.0,0.0,0.0,0.0,0.0,0.046761706,0.04721513,0.052816655,0.0535714,0.0,0.0,0.0,0.0,-237.59009,269.26694,130.637,278.09137,0.0,0.0,0.0,2.0,1.0,0.24244092,0.022850597,-0.019711971,93.0,93.0,93.0,93.0,21.775778,21.775778,24.740557,24.740557,0.015786452,0.015495363,-3.709679E-4,-3.8847735E-4,1205.811,0.0,0.0,0.0,0.0,0.0,0.0,0.0,0.0,0.0,0.0,0.0,0.0,0.0,21.85241,1.8880806,88.87111,0.019860389,0.01943279,-0.0104020815,541125.6,119984.89,0.01034816,0.012572157,7474.0835,7700.6807,6378.845,6738.3726,0.3071251,0.0,0.0,0.0
142.25134,142.25134,1.566,0.0,0.0,329.67484,11830.0,100.0,0.0,-0.307684,0.0,8.0,1.0,0.0,4000000.0,110.0,1.0,0.0,0.0,10.0,0.0,0.0,-482.07956,61.56935,489.03012,0.15796775,0.079717204,-0.05322103,334.61676,334.65198,329.47546,329.60162,189.0,190.0,242.0,245.0,93.0,93.0,93.0,93.0,0.0,0.0,0.0,0.0,0.047538687,0.04855199,0.05359384,0.054315023,0.0,0.0,0.0,0.0,1664.5385,1553.3341,-70.27381,3.5807416,0.0,0.0,0.0,2.0,1.0,0.24347238,0.022630258,-0.01982987,93.0,93.0,93.0,93.0,21.775778,21.775778,24.740557,24.740557,0.015264657,0.01503242,-3.9069002E-4,-3.9901375E-4,1205.666,0.0,0.0,0.0,0.0,0.0,0.0,0.0,0.0,0.0,0.0,0.0,0.0,0.0,21.935558,1.8219941,88.89172,-0.030112365,0.020779664,0.0059467237,541152.0,119984.9,0.006733385,0.010044679,7957.4663,8200.493,7107.2314,7433.3506,0.3055935,0.0,0.0,0.0
146.83945,146.83945,1.616,0.0,0.0,329.82657,11824.0,100.0,0.0,-0.24377017,0.0,8.0,1.0,0.0,4000000.0,110.0,1.0,0.0,0.0,10.0,0.0,0.0,-480.9804,61.662933,493.47525,0.1693006,0.08613511,0.38364023,334.442,334.45676,329.62994,329.75146,188.0,189.0,241.0,244.0,93.0,93.0,93.0,93.0,0.0,0.0,0.0,0.0,0.050547414,0.05094162,0.05428171,0.05489047,0.0,0.0,0.0,0.0,-5135.8125,-4065.692,-1196.5736,-1196.9758,0.0,0.0,0.0,2.0,1.0,0.24452281,0.022403901,-0.021362543,93.0,93.0,93.0,93.0,21.775778,21.775778,24.740557,24.740557,0.014193418,0.013925063,-4.077598E-4,-4.0286072E-4,1205.3184,0.0,0.0,0.0,0.0,0.0,0.0,0.0,0.0,0.0,0.0,0.0,0.0,0.0,22.023802,1.9504751,88.91061,-0.0069283717,0.019836327,9.620562E-6,541270.5,119984.9,0.0046031885,0.0044883215,9001.932,9367.145,7379.8726,7647.5815,0.30196285,0.0,0.0,0.0
151.42131,151.42131,1.666,0.0,0.0,329.94617,11846.0,100.0,0.0,-0.19191937,0.0,8.0,1.0,0.0,4000000.0,110.0,1.0,0.0,0.0,10.0,0.0,0.0,-479.87708,61.76244,497.9211,0.15629204,0.064410485,-0.37626782,335.11218,335.06628,329.78076,329.86215,187.0,188.0,240.0,243.0,93.0,93.0,93.0,93.0,0.0,0.0,0.0,0.0,0.04721771,0.04775948,0.053380806,0.053968035,0.0,0.0,0.0,0.0,-4281.3687,-3959.0476,-2131.994,-2059.1184,0.0,0.0,0.0,2.0,1.0,0.24534543,0.022357931,-0.020317435,93.0,93.0,93.0,93.0,21.775778,21.775778,24.740557,24.740557,0.01574198,0.015403779,-3.792846E-4,-3.7885932E-4,1206.6162,0.0,0.0,0.0,0.0,0.0,0.0,0.0,0.0,0.0,0.0,0.0,0.0,0.0,22.106857,1.9556513,88.92412,0.033274822,0.014077713,-0.010222768,540847.0,119984.9,0.0051637413,0.008062418,7274.386,7644.2725,6211.3604,6479.7085,0.30178928,0.0,0.0,0.0
156.00505,156.00505,1.716,0.0,0.0,329.94778,11848.0,100.0,0.0,-0.1711631,0.0,8.0,1.0,0.0,4000000.0,110.0,1.0,0.0,0.0,10.0,0.0,0.0,-478.76947,61.856106,502.368,0.13698429,0.09373122,-0.16777901,335.1197,335.152,329.9425,330.00903,187.0,187.0,239.0,243.0,93.0,93.0,93.0,93.0,0.0,0.0,0.0,0.0,0.046821464,0.048259094,0.05328744,0.05383481,0.0,0.0,0.0,0.0,2084.1028,1345.1678,230.62971,332.36588,0.0,0.0,0.0,2.0,1.0,0.24595606,0.022454266,-0.019396782,93.0,93.0,93.0,93.0,21.775778,21.775778,24.740557,24.740557,0.01531105,0.015181839,-3.907069E-4,-3.953332E-4,1206.7449,0.0,0.0,0.0,0.0,0.0,0.0,0.0,0.0,0.0,0.0,0.0,0.0,0.0,22.152378,1.8962572,88.914536,-0.017926525,-7.166753E-4,-0.020802967,540813.4,119984.9,0.0032978992,0.005984565,7822.781,8022.9336,6742.1733,6993.0576,0.29823875,0.0,0.0,0.0
160.589,160.589,1.766,0.0,0.0,330.1262,11847.0,100.0,0.0,-0.17303665,0.0,8.0,1.0,0.0,4000000.0,110.0,1.0,0.0,0.0,10.0,0.0,0.0,-477.6597,61.94677,506.8147,0.11944581,0.09240173,-0.039874405,335.1177,335.06467,329.98752,330.01514,186.0,186.0,238.0,242.0,93.0,93.0,93.0,93.0,0.0,0.0,0.0,0.0,0.047900487,0.04881904,0.052991137,0.053900983,0.0,0.0,0.0,0.0,3206.9426,4546.022,2464.4402,3832.9702,0.0,0.0,0.0,2.0,1.0,0.24610905,0.022491084,-0.018053412,93.0,93.0,93.0,93.0,21.775778,21.775778,24.740557,24.740557,0.015136129,0.014897366,-3.808231E-4,-3.94585E-4,1206.7084,0.0,0.0,0.0,0.0,0.0,0.0,0.0,0.0,0.0,0.0,0.0,0.0,0.0,22.229418,1.770417,88.949,0.039594203,0.0059731863,-0.007742078,540842.7,119984.9,0.0060039647,0.007494636,8112.7324,8376.439,6976.144,7317.107,0.29974365,0.0,0.0,0.0
165.17505,165.17505,1.816,0.0,0.0,330.25848,11862.0,100.0,0.0,-0.164206,0.0,8.0,1.0,0.0,4000000.0,110.0,1.0,0.0,0.0,10.0,0.0,0.0,-476.54657,62.031464,511.26282,0.09123302,0.07370293,-0.46828774,335.53683,335.52667,330.1145,330.1617,185.0,186.0,237.0,241.0,93.0,93.0,93.0,93.0,0.0,0.0,0.0,0.0,0.046343934,0.046699967,0.052680526,0.053213865,0.0,0.0,0.0,0.0,-926.52875,-408.08463,-492.62784,-219.84723,0.0,0.0,0.0,2.0,1.0,0.24651098,0.02162288,-0.015833378,93.0,93.0,93.0,93.0,21.775778,21.775778,24.740557,24.740557,0.016042486,0.01589257,-3.670192E-4,-3.7592096E-4,1207.5791,0.0,0.0,0.0,0.0,0.0,0.0,0.0,0.0,0.0,0.0,0.0,0.0,0.0,22.289574,1.5977231,88.9751,0.03815141,0.008858503,-0.025416926,540548.5,119984.91,0.009616205,0.012464543,7200.2695,7308.7925,6141.2666,6362.9707,0.30357456,0.0,0.0,0.0
169.76321,169.76321,1.866,0.0,0.0,330.4188,11865.0,100.0,0.0,-0.26686037,0.0,8.0,1.0,0.0,4000000.0,110.0,1.0,0.0,0.0,10.0,0.0,0.0,-475.43045,62.102615,515.7125,0.106839344,0.097453415,-0.4045289,335.608,335.60922,330.25146,330.3296,184.0,185.0,236.0,240.0,93.0,93.0,93.0,93.0,0.0,0.0,0.0,0.0,0.044042397,0.044490192,0.052593134,0.053194765,0.0,0.0,0.0,0.0,2433.139,2750.4038,382.6841,294.39914,0.0,0.0,0.0,2.0,1.0,0.24709968,0.021393852,-0.013693213,93.0,93.0,93.0,93.0,21.775778,21.775778,24.740557,24.740557,0.015947482,0.015721943,-3.8242538E-4,-4.0018608E-4,1207.763,0.0,0.0,0.0,0.0,0.0,0.0,0.0,0.0,0.0,0.0,0.0,0.0,0.0,22.354307,1.3115093,89.00946,0.023164634,0.014380734,-0.00849953,540494.1,119984.9,0.0062917667,0.010991024,7352.9897,7508.0737,6469.0093,6751.214,0.30112362,0.0,0.0,0.0
174.35274,174.35274,1.916,0.0,0.0,330.3963,11860.0,100.0,0.0,-0.25984675,0.0,8.0,1.0,0.0,4000000.0,110.0,1.0,0.0,0.0,10.0,0.0,0.0,-474.31183,62.167213,520.1631,-0.07714346,-0.23169564,0.29132658,335.47913,335.44485,330.24606,330.26315,183.0,184.0,236.0,239.0,93.0,93.0,93.0,93.0,0.0,0.0,0.0,0.0,0.047094997,0.047476947,0.053055335,0.05343952,0.0,0.0,0.0,0.0,-2401.3547,-3460.1836,-1994.4634,-2752.08,0.0,0.0,0.0,2.0,1.0,0.24762967,0.020940641,-0.013420105,93.0,93.0,93.0,93.0,21.775778,21.775778,24.740557,24.740557,0.015512798,0.01541859,-3.9447454E-4,-4.2287906E-4,1207.472,0.0,0.0,0.0,0.0,0.0,0.0,0.0,0.0,0.0,0.0,0.0,0.0,0.0,22.374464,1.3031334,88.99807,0.005312263,0.004431967,-0.00648323,540591.75,119984.89,0.0045597004,0.0062910193,7747.241,7812.3203,6300.566,6413.0615,0.29841042,0.0,0.0,0.0
178.94286,178.94286,1.966,0.0,0.0,330.5605,11863.0,100.0,0.0,-0.18287937,0.0,8.0,1.0,0.0,4000000.0,110.0,1.0,0.0,0.0,10.0,0.0,0.0,-473.19116,62.229992,524.61383,0.11175751,0.085503206,-0.15692061,335.58466,335.5251,330.40048,330.47006,183.0,183.0,235.0,238.0,93.0,93.0,93.0,93.0,0.0,0.0,0.0,0.0,0.048146766,0.048734687,0.053207453,0.053682055,0.0,0.0,0.0,0.0,-4111.893,-5836.835,-1550.3434,-1758.0536,0.0,0.0,0.0,2.0,1.0,0.2481381,0.021283891,-0.012009859,93.0,93.0,93.0,93.0,21.775778,21.775778,24.740557,24.740557,0.015294837,0.014947476,-3.869437E-4,-3.888083E-4,1207.6346,0.0,0.0,0.0,0.0,0.0,0.0,0.0,0.0,0.0,0.0,0.0,0.0,0.0,22.445429,1.2253587,89.02834,0.040099088,0.012409258,-0.010790627,540527.8,119984.9,0.006748261,0.007976371,7762.385,8096.827,6594.875,6803.551,0.30066204,0.0,0.0,0.0
183.53494,183.53494,2.016,0.0,0.0,330.69534,11882.0,100.0,0.0,-0.10274452,0.0,8.0,1.0,0.0,4000000.0,110.0,1.0,0.0,0.0,10.0,0.0,0.0,-472.06726,62.286095,529.0659,0.09296249,0.078907676,-0.6542492,336.11258,336.07968,330.54636,330.59903,182.0,183.0,234.0,237.0,93.0,93.0,93.0,93.0,0.0,0.0,0.0,0.0,0.045059714,0.045876358,0.05250721,0.052833922,0.0,0.0,0.0,0.0,-2604.1562,-2223.3096,-627.73065,-63.79634,0.0,0.0,0.0,2.0,1.0,0.2486815,0.021641828,-0.009744644,93.0,93.0,93.0,93.0,21.775778,21.775778,24.740557,24.740557,0.016503088,0.016282545,-3.7722563E-4,-3.7606547E-4,1208.7603,0.0,0.0,0.0,0.0,0.0,0.0,0.0,0.0,0.0,0.0,0.0,0.0,0.0,22.507317,0.9933586,89.05425,0.044526372,0.009648665,0.0025691157,540166.5,119984.9,0.008824867,0.011882961,6718.8125,6919.623,5879.051,6051.986,0.30349636,0.0,0.0,0.0
188.12912,188.12912,2.066,0.0,0.0,330.8638,11875.0,100.0,0.0,-0.060469866,0.0,8.0,1.0,0.0,4000000.0,110.0,1.0,0.0,0.0,10.0,0.0,0.0,-470.9403,62.33027,533.51953,0.078846514,0.09175683,-0.22106695,335.90814,335.8767,330.71774,330.7492,181.0,182.0,233.0,237.0,93.0,93.0,93.0,93.0,0.0,0.0,0.0,0.0,0.045647856,0.046579797,0.0531126,0.05351567,0.0,0.0,0.0,0.0,2382.5122,2087.0667,116.08606,-240.87575,0.0,0.0,0.0,2.0,1.0,0.24905102,0.022182792,-0.008486867,93.0,93.0,93.0,93.0,21.775778,21.775778,24.740557,24.740557,0.015360401,0.015196198,-3.9407852E-4,-3.9060626E-4,1208.344,0.0,0.0,0.0,0.0,0.0,0.0,0.0,0.0,0.0,0.0,0.0,0.0,0.0,22.563768,0.81856716,89.09002,0.011122178,0.005153308,0.004667116,540298.75,119984.9,0.00725138,0.009733704,7758.156,7930.749,6770.824,6940.3354,0.30098057,0.0,0.0,0.0
192.72563,192.72563,2.116,0.0,0.0,331.02,11878.0,100.0,0.0,-0.1018132,0.0,8.0,1.0,0.0,4000000.0,110.0,1.0,0.0,0.0,10.0,0.0,0.0,-469.81082,62.36929,537.975,0.06765768,0.08643629,-0.1650211,336.01425,335.954,330.87958,330.90753,180.0,181.0,232.0,236.0,93.0,93.0,93.0,93.0,0.0,0.0,0.0,0.0,0.048371367,0.048682056,0.053347975,0.053475395,0.0,0.0,0.0,0.0,-1495.7738,-3617.9104,-523.84875,-1316.9376,0.0,0.0,0.0,2.0,1.0,0.24929067,0.02256412,-0.007740736,93.0,93.0,93.0,93.0,21.775778,21.775778,24.740557,24.740557,0.015115283,0.014904897,-3.8901716E-4,-3.8803217E-4,1208.5078,0.0,0.0,0.0,0.0,0.0,0.0,0.0,0.0,0.0,0.0,0.0,0.0,0.0,22.610771,0.7471934,89.12349,0.032749087,0.005135349,0.0033921972,540235.56,119984.9,0.0081152795,0.008493048,7932.693,8123.279,6613.9277,6604.689,0.30105782,0.0,0.0,0.0
197.32407,197.32407,2.166,0.0,0.0,331.16125,11886.0,100.0,0.0,-0.10057168,0.0,8.0,1.0,0.0,4000000.0,110.0,1.0,0.0,0.0,10.0,0.0,0.0,-468.67917,62.404076,542.43195,0.05802571,0.07800932,-0.2196042,336.23547,336.19363,331.01926,331.0474,180.0,180.0,231.0,235.0,93.0,93.0,93.0,93.0,0.0,0.0,0.0,0.0,0.047600113,0.04801269,0.05343025,0.053663593,0.0,0.0,0.0,0.0,196.67288,275.54327,-4.023313,-83.72514,0.0,0.0,0.0,2.0,1.0,0.24953926,0.023211114,-0.0061873198,93.0,93.0,93.0,93.0,21.775778,21.775778,24.740557,24.740557,0.015402539,0.015205729,-3.8453445E-4,-3.8928134E-4,1208.9744,0.0,0.0,0.0,0.0,0.0,0.0,0.0,0.0,0.0,0.0,0.0,0.0,0.0,22.651855,0.6469678,89.15433,0.019525805,0.005266216,0.0054639047,540080.4,119984.9,0.008943544,0.01078358,7671.0244,7866.745,6797.921,6909.6035,0.3036394,0.0,0.0,0.0
201.9245,201.9245,2.216,0.0,0.0,331.3067,11888.0,100.0,0.0,-0.11200992,0.0,8.0,1.0,0.0,4000000.0,110.0,1.0,0.0,0.0,10.0,0.0,0.0,-467.54556,62.433327,546.89056,0.057315957,0.08371778,-0.13228239,336.27057,336.25674,331.1543,331.19275,179.0,180.0,231.0,234.0,93.0,93.0,93.0,93.0,0.0,0.0,0.0,0.0,0.0479612,0.048487805,0.05357723,0.05391605,0.0,0.0,0.0,0.0,1245.7518,1009.3286,316.21896,416.9493,0.0,0.0,0.0,2.0,1.0,0.249845,0.023421548,-0.0057656765,93.0,93.0,93.0,93.0,21.775778,21.775778,24.740557,24.740557,0.015111031,0.014970365,-3.92395E-4,-3.9764866E-4,1209.0986,0.0,0.0,0.0,0.0,0.0,0.0,0.0,0.0,0.0,0.0,0.0,0.0,0.0,22.691608,0.5461073,89.186584,-0.005161697,0.0064672474,0.0033337355,540045.0,119984.9,0.0068693636,0.009358932,7958.7344,8092.6016,6990.628,7152.802,0.3025961,0.0,0.0,0.0
206.52686,206.52686,2.266,0.0,0.0,331.4618,11887.0,100.0,0.0,-0.08930227,0.0,8.0,1.0,0.0,4000000.0,110.0,1.0,0.0,0.0,10.0,0.0,0.0,-466.40997,62.46083,551.3507,0.05578313,0.088517144,0.13457534,336.22034,336.2249,331.3068,331.34543,178.0,179.0,230.0,233.0,93.0,93.0,93.0,93.0,0.0,0.0,0.0,0.0,0.04959593,0.049716134,0.054074693,0.054445177,0.0,0.0,0.0,0.0,-1437.0872,-582.57574,-164.0439,184.603,0.0,0.0,0.0,2.0,1.0,0.25017112,0.023195492,-0.006219983,93.0,93.0,93.0,93.0,21.775778,21.775778,24.740557,24.740557,0.014457939,0.0143684605,-4.030656E-4,-4.0693066E-4,1209.0499,0.0,0.0,0.0,0.0,0.0,0.0,0.0,0.0,0.0,0.0,0.0,0.0,0.0,22.72864,0.57267904,89.22145,-0.0029407963,0.0065128827,-0.0037698727,540068.7,119984.9,0.0036665772,0.0051460788,8605.971,8711.574,7276.513,7462.2637,0.2993698,0.0,0.0,0.0
211.13194,211.13194,2.316,0.0,0.0,331.60373,11891.0,100.0,0.0,-0.110232584,0.0,8.0,1.0,0.0,4000000.0,110.0,1.0,0.0,0.0,10.0,0.0,0.0,-465.2726,62.492294,555.8127,0.058250055,0.07518017,0.2034054,336.34735,336.35757,331.45264,331.48962,177.0,178.0,229.0,232.0,93.0,93.0,93.0,93.0,0.0,0.0,0.0,0.0,0.04981391,0.049876373,0.05437149,0.054912783,0.0,0.0,0.0,0.0,-3606.8599,-4015.9636,-1688.7722,-2178.2886,0.0,0.0,0.0,2.0,1.0,0.2504936,0.02251296,-0.006068945,93.0,93.0,93.0,93.0,21.775778,21.775778,24.740557,24.740557,0.014351483,0.0142823905,-3.9522158E-4,-4.0261087E-4,1209.2593,0.0,0.0,0.0,0.0,0.0,0.0,0.0,0.0,0.0,0.0,0.0,0.0,0.0,22.762875,0.68427646,89.252625,0.0043267766,0.0065317503,-0.02431279,539980.5,119984.9,0.0045026066,0.0057590976,8684.704,8749.321,7317.066,7553.254,0.30051613,0.0,0.0,0.0
215.73935,215.73935,2.366,0.0,0.0,331.72537,11907.0,100.0,0.0,-0.11332992,0.0,8.0,1.0,0.0,4000000.0,110.0,1.0,0.0,0.0,10.0,0.0,0.0,-464.1335,62.524807,560.27594,0.061386935,0.07031347,-0.28330502,336.81192,336.82364,331.57745,331.6146,177.0,177.0,228.0,231.0,93.0,93.0,93.0,93.0,0.0,0.0,0.0,0.0,0.047560435,0.04762235,0.05347166,0.054078616,0.0,0.0,0.0,0.0,429.27405,776.7141,738.3986,1538.5819,0.0,0.0,0.0,2.0,1.0,0.2508287,0.021619976,-0.005188346,93.0,93.0,93.0,93.0,21.775778,21.775778,24.740557,24.740557,0.015420581,0.0153442295,-3.795762E-4,-3.904498E-4,1210.1931,0.0,0.0,0.0,0.0,0.0,0.0,0.0,0.0,0.0,0.0,0.0,0.0,0.0,22.800835,0.59306985,89.278465,0.0010801479,0.006659512,-0.023059694,539671.3,119984.89,0.007750945,0.010115732,7595.5684,7656.445,6725.064,7056.6143,0.30445194,0.0,0.0,0.0
220.34856,220.34856,2.416,0.0,0.0,331.86533,11908.0,100.0,0.0,-0.074575424,0.0,8.0,1.0,0.0,4000000.0,110.0,1.0,0.0,0.0,10.0,0.0,0.0,-462.9924,62.551136,564.7406,0.057637256,0.0770728,-0.16467422,336.81973,336.84195,331.71893,331.75464,176.0,177.0,227.0,231.0,93.0,93.0,93.0,93.0,0.0,0.0,0.0,0.0,0.048417814,0.04835323,0.05322931,0.053694602,0.0,0.0,0.0,0.0,579.1962,625.93365,361.57513,323.1525,0.0,0.0,0.0,2.0,1.0,0.25115734,0.020541258,-0.0050321817,93.0,93.0,93.0,93.0,21.775778,21.775778,24.740557,24.740557,0.01501166,0.014989878,-3.8427985E-4,-3.859152E-4,1210.2694,0.0,0.0,0.0,0.0,0.0,0.0,0.0,0.0,0.0,0.0,0.0,0.0,0.0,22.840677,0.48137215,89.30908,0.0022190325,0.005997881,-0.020159857,539660.0,119984.9,0.010516811,0.010386136,8013.4854,8027.5293,6650.552,6848.888,0.3057642,0.0,0.0,0.0
224.95969,224.95969,2.466,0.0,0.0,331.98566,11919.0,100.0,0.3032747,-0.101385064,0.0,8.0,1.0,0.0,4000000.0,110.0,1.0,0.0,0.0,10.0,0.0,0.0,-461.84933,62.573246,569.2068,0.056472365,0.055058625,-0.45455012,337.12695,337.14316,331.81778,331.85565,175.0,176.0,226.0,230.0,93.0,93.0,93.0,93.0,0.0,0.0,0.0,0.0,0.047502767,0.047254898,0.052810863,0.05294401,0.0,0.0,0.0,0.0,-4497.3667,-6225.9424,-1704.5571,-2921.0593,0.0,0.0,0.0,2.0,1.0,0.2514795,0.02013524,-0.0038357973,93.0,93.0,93.0,93.0,21.775778,21.775778,24.740557,24.740557,0.015508966,0.015524161,-4.58898E-4,-4.608415E-4,1210.9323,0.0,0.0,0.0,0.0,0.0,0.0,0.0,0.0,0.0,0.0,0.0,0.0,0.0,22.87955,0.3736023,89.33415,0.046622448,0.007241386,0.0017311526,539457.25,119984.9,0.012543121,0.013003662,7368.6006,7278.5015,5931.5264,5920.1494,0.30834007,0.0,0.0,0.0
229.57059,229.57059,2.516,0.0,0.0,331.66626,11817.0,87.30144,11.671312,-0.23694602,0.0,8.0,0.0,1.0,4000000.0,110.0,1.0,0.0,0.0,10.0,0.0,0.0,-460.70468,62.589058,573.6724,0.08233342,-0.43512017,0.031776022,334.2222,334.2558,330.5816,330.676,179.0,180.0,230.0,233.0,93.0,93.0,93.0,93.0,0.0,0.0,0.0,0.0,0.048071757,0.048375905,0.053769924,0.054702207,0.0,0.0,0.0,0.0,3429.8477,2627.116,384.85678,5.163116,0.0,0.0,0.0,2.0,1.0,0.25190848,0.020219414,-0.003376007,93.0,93.0,93.0,93.0,21.775778,21.775778,24.740557,24.740557,0.008155688,0.008071331,-0.0032298751,-0.0031570194,1204.9369,0.0,0.0,0.0,0.0,0.0,0.0,0.0,0.0,0.0,0.0,0.0,0.0,0.0,22.89424,0.30713716,89.239044,-0.038726684,0.010886316,-0.01275201,541419.75,0.0,0.0076972796,0.010802031,8154.7607,8219.956,7623.6465,8079.997,0.3054123,0.0,0.0,0.0
234.16696,234.16696,2.566,0.0,0.0,329.97012,11724.0,63.03807,23.925987,-0.27822402,0.0,8.0,0.0,1.0,4000000.0,110.0,1.0,0.0,0.0,10.0,0.0,0.0,-459.56168,62.61055,578.12354,0.10713883,-1.1833951,0.57126635,330.3486,330.41702,327.98322,328.12842,193.0,194.0,242.0,246.0,93.0,93.0,93.0,93.0,0.0,0.0,0.0,0.0,0.051920928,0.051606387,0.05505947,0.056007303,0.0,0.0,0.0,0.0,-3913.2886,-2023.2301,-627.18085,144.10165,0.0,0.0,0.0,2.0,1.0,0.25258216,0.017942853,-0.0058709383,93.0,93.0,93.0,93.0,21.775778,21.775778,24.740557,24.740557,0.0013477319,0.0012940218,-0.0058769584,-0.0057440735,1199.4109,0.0,0.0,0.0,0.0,0.0,0.0,0.0,0.0,0.0,0.0,0.0,0.0,0.0,22.817825,0.5593358,88.771,-0.029428557,0.016174931,-0.03582039,543211.8,0.0,0.006624884,0.0063066655,9975.429,9896.895,8339.611,8792.764,0.30298805,0.0,0.0,0.0
238.73207,238.73207,2.616,0.0,0.0,327.2701,11568.0,48.297855,36.621685,-0.49810475,0.0,8.0,0.0,1.0,4000000.0,110.0,1.0,0.0,0.0,10.0,0.0,0.0,-458.4238,62.642857,582.54376,0.16890135,-1.7335775,0.12513494,326.11188,326.21463,324.18958,324.4948,216.0,216.0,262.0,265.0,93.0,93.0,93.0,93.0,0.0,0.0,0.0,0.0,0.050180268,0.050178546,0.05431107,0.055926803,0.0,0.0,0.0,0.0,750.28076,-52.356716,4.4793315,62.991673,0.0,0.0,0.0,2.0,1.0,0.2536905,0.015966337,-0.006090045,93.0,93.0,93.0,93.0,21.775778,21.775778,24.740557,24.740557,-0.003163281,-0.003295695,-0.009163157,-0.008751022,1190.1892,0.0,0.0,0.0,0.0,0.0,0.0,0.0,0.0,0.0,0.0,0.0,0.0,0.0,22.696863,0.68959165,88.02674,-0.019273352,0.028103165,-0.054201923,546304.44,0.0,0.01029387,0.011425155,8958.7,8956.486,7936.085,8720.285,0.30755138,0.0,0.0,0.0
243.25165,243.25165,2.666,0.0,0.0,323.52582,11372.0,34.692913,48.860115,-0.64146006,0.0,8.0,0.0,1.0,4000000.0,110.0,1.0,0.0,0.0,10.0,0.0,0.0,-457.29303,62.674408,586.91895,0.24326485,-2.2934048,-0.30719715,320.7665,320.91214,319.3946,319.8738,246.0,247.0,290.0,293.0,93.0,93.0,93.0,93.0,0.0,0.0,0.0,0.0,0.048641495,0.04843119,0.05313496,0.05503595,0.0,0.0,0.0,0.0,7671.09,8720.37,3968.9443,4801.6367,0.0,0.0,0.0,2.0,1.0,0.25543025,0.012904305,-0.0066843033,93.0,93.0,93.0,93.0,21.775778,21.775778,24.740557,24.740557,-0.008080663,-0.008275097,-0.01246255,-0.011704701,1178.0533,0.0,0.0,0.0,0.0,0.0,0.0,0.0,0.0,0.0,0.0,0.0,0.0,0.0,22.538607,0.5488857,86.994354,-0.045108385,0.039991584,-0.054870687,550053.75,0.0,0.008553127,0.011682813,8172.382,8219.072,7638.6045,8561.963,0.30703926,0.0,0.0,0.0
247.7122,247.7122,2.716,0.0,0.0,318.87753,11170.0,24.03601,62.292744,-0.8687163,0.0,8.0,0.0,1.0,4000000.0,110.0,1.0,0.0,0.0,10.0,0.0,0.0,-456.17078,62.70599,591.2356,0.34492528,-2.7750535,0.9398246,315.1481,315.35147,313.82358,314.46472,283.0,283.0,324.0,327.0,93.0,93.0,93.0,93.0,0.0,0.0,0.0,0.0,0.05350327,0.0538862,0.054577626,0.05716863,0.0,0.0,0.0,0.0,-1689.054,-2965.3425,-1532.2385,-1122.0485,0.0,0.0,0.0,2.0,1.0,0.25785348,0.009713037,-0.0094947815,93.0,93.0,93.0,93.0,21.775778,21.775778,24.740557,24.740557,-0.011093811,-0.011325356,-0.015311668,-0.014317772,1156.6766,0.0,0.0,0.0,0.0,0.0,0.0,0.0,0.0,0.0,0.0,0.0,0.0,0.0,22.356709,0.7991798,85.70554,-0.057376094,0.053988688,-0.07182853,549839.3,0.0,0.0012583003,0.0022133489,10572.452,10674.978,9050.105,10298.697,0.29916954,0.0,0.0,0.0
252.09851,252.09851,2.766,0.0,0.0,312.8686,10873.0,11.9035635,87.571625,-1.1809227,0.0,8.0,0.0,1.0,4000000.0,110.0,1.0,0.0,0.0,10.0,0.0,0.0,-455.05942,62.75767,595.47864,0.36835575,-3.6818998,0.43288094,306.78363,306.91925,304.54108,305.62317,328.0,328.0,368.0,371.0,93.0,93.0,93.0,93.0,0.0,0.0,0.0,0.0,0.050241183,0.050296683,0.053652108,0.05639019,0.0,0.0,0.0,0.0,-471.0626,-1265.6941,-1933.4297,-1802.833,0.0,0.0,0.0,2.0,1.0,0.2603008,0.0057263942,-0.010207891,93.0,93.0,93.0,93.0,21.775778,21.775778,24.740557,24.740557,-0.018762495,-0.019045739,-0.025890643,-0.023474662,1121.0361,0.0,0.0,0.0,0.0,0.0,0.0,0.0,0.0,0.0,0.0,0.0,0.0,0.0,22.098494,1.1634084,84.0434,-0.03408222,0.047809172,-0.07450543,547453.5,0.0,0.0018638092,0.0072065988,8572.287,8681.384,8146.7324,9423.42,0.3013258,0.0,0.0,0.0
256.39166,256.39166,2.816,0.0,0.0,305.69843,10547.0,1.699855,100.0,-1.2186517,0.0,8.0,0.0,1.0,4000000.0,110.0,1.0,0.0,0.0,10.0,0.0,0.0,-453.96237,62.8155,599.62946,0.46991956,-4.212172,0.2053145,297.75156,297.99,296.01602,297.42075,377.0,377.0,420.0,423.0,93.0,93.0,93.0,93.0,0.0,0.0,0.0,0.0,0.04873263,0.048589796,0.052744493,0.05561787,0.0,0.0,0.0,0.0,4708.912,2873.3696,3138.7876,2609.6147,0.0,0.0,0.0,2.0,1.0,0.26335543,0.001616728,-0.010673881,93.0,93.0,93.0,93.0,21.775778,21.775778,24.740557,24.740557,-0.025219817,-0.025620725,-0.030680222,-0.027437478,1076.1279,0.0,0.0,0.0,0.0,0.0,0.0,0.0,0.0,0.0,0.0,0.0,0.0,0.0,21.79441,1.1687969,82.063416,-0.051100455,0.07091602,-0.07311928,541766.25,0.0,0.003001323,0.010507591,7770.193,7895.2656,8654.038,9942.697,0.3028946,0.0,0.0,0.0
260.58276,260.58276,2.866,0.0,0.0,298.3749,10272.0,0.0,100.0,-1.2878232,0.0,8.0,0.0,1.0,4000000.0,110.0,1.0,0.0,0.0,10.0,0.0,0.0,-452.88028,62.874596,603.6791,0.5473759,-4.131112,-0.025530014,290.03003,290.26062,287.3133,289.5998,421.0,422.0,466.0,469.0,93.0,93.0,93.0,93.0,0.0,0.0,0.0,0.0,0.04793858,0.048033994,0.051472645,0.05477782,0.0,0.0,0.0,0.0,-305.9595,-2362.2615,336.79147,-431.64783,0.0,0.0,0.0,2.0,1.0,0.26715884,-0.0023178656,-0.011238337,93.0,93.0,93.0,93.0,21.775778,21.775778,24.740557,24.740557,-0.02712075,-0.027682723,-0.035955846,-0.029943513,1024.6927,0.0,0.0,0.0,0.0,0.0,0.0,0.0,0.0,0.0,0.0,0.0,0.0,0.0,21.50988,1.1748956,80.03348,-0.008609974,0.07882563,-0.08928023,529682.56,0.0,0.0057646595,0.011980832,7171.992,7426.08,7312.867,8835.405,0.30500126,0.0,0.0,0.0
264.67157,264.67157,2.916,0.0,0.0,291.06323,10000.0,0.0,100.0,-1.2161623,0.0,8.0,0.0,1.0,4000000.0,110.0,1.0,0.0,0.0,10.0,0.0,0.0,-451.81186,62.932205,607.62695,0.5902322,-4.116198,-0.062215805,282.39734,282.57028,279.9225,282.44498,461.0,462.0,508.0,511.0,93.0,93.0,93.0,93.0,0.0,0.0,0.0,0.0,0.045770258,0.04598887,0.050888393,0.05443128,0.0,0.0,0.0,0.0,33.447186,-1901.4982,282.90594,-447.9959,0.0,0.0,0.0,2.0,1.0,0.27116966,-0.007036745,-0.010182381,93.0,93.0,93.0,93.0,21.775778,21.775778,24.740557,24.740557,-0.028941812,-0.029723406,-0.03723419,-0.03013983,972.3219,0.0,0.0,0.0,0.0,0.0,0.0,0.0,0.0,0.0,0.0,0.0,0.0,0.0,21.24438,1.1295581,78.00172,-0.0021622013,0.0805809,-0.101367086,516282.1,0.0,0.009796563,0.016504029,6588.931,6754.5522,7127.447,8752.354,0.30964756,0.0,0.0,0.0
268.6489,268.6489,2.966,0.0,0.0,283.78976,9733.0,0.0,100.0,-1.2820667,0.0,8.0,0.0,1.0,4000000.0,110.0,1.0,0.0,0.0,10.0,0.0,0.0,-450.7563,62.986538,611.47363,0.62879497,-4.1074514,-0.090467885,274.85373,275.04602,272.40213,275.37045,498.0,498.0,545.0,549.0,93.0,93.0,93.0,93.0,0.0,0.0,0.0,0.0,0.042573817,0.042874806,0.050313238,0.054144308,0.0,0.0,0.0,0.0,772.3422,-998.64,415.36682,-40.943916,0.0,0.0,0.0,2.0,1.0,0.27520305,-0.011724231,-0.008734107,93.0,93.0,93.0,93.0,21.775778,21.775778,24.740557,24.740557,-0.030674422,-0.03138868,-0.039119456,-0.030317314,908.2489,0.0,0.0,0.0,0.0,0.0,0.0,0.0,0.0,0.0,0.0,0.0,0.0,0.0,20.992855,1.0534337,75.976555,-0.005452251,0.08143301,-0.106590606,495490.3,0.0,0.013503691,0.022549639,6079.6797,6321.021,6864.8276,8655.9,0.31501484,0.0,0.0,0.0
272.52155,272.52155,3.016,0.0,0.0,276.5773,9467.0,0.0,100.0,-1.4483498,0.0,8.0,0.0,1.0,4000000.0,110.0,1.0,0.0,0.0,10.0,0.0,0.0,-449.713,63.035915,615.21954,0.6643224,-4.142681,-0.16909218,267.3213,267.58554,264.57367,268.3921,531.0,531.0,579.0,583.0,93.0,93.0,93.0,93.0,0.0,0.0,0.0,0.0,0.03893541,0.039229166,0.049651198,0.053702064,0.0,0.0,0.0,0.0,2641.479,2243.2249,2514.9326,2892.9497,0.0,0.0,0.0,2.0,1.0,0.27938774,-0.016354546,-0.007563472,93.0,93.0,93.0,93.0,21.775778,21.775778,24.740557,24.740557,-0.03274545,-0.033228457,-0.043262664,-0.03072816,844.94525,0.0,0.0,0.0,0.0,0.0,0.0,0.0,0.0,0.0,0.0,0.0,0.0,0.0,20.750208,0.9261629,73.96596,-0.008954486,0.0867392,-0.10508623,473907.1,0.0,0.013562474,0.025749214,5638.3955,6016.0615,6538.3105,8472.016,0.31723404,0.0,0.0,0.0
276.29303,276.29303,3.066,0.0,0.0,269.3584,10559.0,0.0,100.0,-1.7007701,0.0,7.0,0.0,1.0,4000000.0,110.0,1.0,0.0,0.0,10.0,0.0,0.0,-448.68152,63.083065,618.8639,0.75001585,-3.9616504,0.27363583,261.48456,261.99496,258.7539,261.73553,561.0,561.0,610.0,613.0,93.0,93.0,93.0,93.0,0.0,0.0,0.0,0.0,0.03967602,0.04033025,0.050343797,0.054861035,0.0,0.0,0.0,0.0,-283.76425,-405.75116,-1573.4507,-1766.288,0.0,0.0,0.0,2.0,1.0,0.28407204,-0.021429274,-0.007920146,93.0,93.0,93.0,93.0,21.775778,21.775778,24.740557,24.740557,-0.027619123,-0.02750598,-0.037721418,-0.02902893,1077.7622,0.0,0.0,0.0,0.0,0.0,0.0,0.0,0.0,0.0,0.0,0.0,0.0,0.0,20.533163,0.9902938,71.94238,-0.067056276,0.09781009,-0.10629877,541972.4,0.0,0.012393788,0.025121372,6134.375,6671.72,7077.7812,9201.171,0.3162117,0.0,0.0,0.0
279.9658,279.9658,3.116,0.0,0.0,262.2944,10243.0,0.0,100.0,-2.2192209,0.0,7.0,0.0,1.0,4000000.0,110.0,1.0,0.0,0.0,10.0,0.0,0.0,-447.65982,63.134155,622.4086,0.8227409,-4.010379,0.17394923,253.86855,254.32692,250.38022,254.62477,588.0,589.0,637.0,641.0,93.0,93.0,93.0,93.0,0.0,0.0,0.0,0.0,0.039778464,0.040041924,0.049544685,0.054352656,0.0,0.0,0.0,0.0,-1614.1666,-144.8661,-124.226524,781.5822,0.0,0.0,0.0,2.0,1.0,0.28942102,-0.026916897,-0.009172916,93.0,93.0,93.0,93.0,21.775778,21.775778,24.740557,24.740557,-0.030787855,-0.0312307,-0.04377067,-0.030346919,1019.0526,0.0,0.0,0.0,0.0,0.0,0.0,0.0,0.0,0.0,0.0,0.0,0.0,0.0,20.351068,1.0483872,69.95177,-0.04542046,0.11427678,-0.10656038,528258.44,0.0,0.013899628,0.025691025,5840.703,6475.576,6381.263,8666.24,0.31735802,0.0,0.0,0.0
283.54016,283.54016,3.166,0.0,0.0,255.25693,9940.0,0.0,100.0,-3.1389787,0.0,7.0,0.0,1.0,4000000.0,110.0,1.0,0.0,0.0,10.0,0.0,0.0,-446.64627,63.187088,625.8535,0.9575219,-3.9524047,0.030600246,246.27571,246.88602,241.49467,247.6633,613.0,613.0,662.0,666.0,93.0,93.0,93.0,93.0,0.0,0.0,0.0,0.0,0.03768096,0.03798515,0.04863601,0.054108635,0.0,0.0,0.0,0.0,-2093.0344,-346.20596,-805.38684,587.578,0.0,0.0,0.0,2.0,1.0,0.2961027,-0.03252504,-0.009394765,93.0,93.0,93.0,93.0,21.775778,21.775778,24.740557,24.740557,-0.033495415,-0.03399303,-0.05150286,-0.03142309,957.6975,0.0,0.0,0.0,0.0,0.0,0.0,0.0,0.0,0.0,0.0,0.0,0.0,0.0,20.210245,1.0580739,67.955154,-0.030109204,0.15094091,-0.10777015,511586.38,0.0,0.014703044,0.027619481,5184.174,5922.741,5779.583,8391.768,0.3183279,0.0,0.0,0.0
287.009,287.009,3.216,0.0,0.0,248.17282,9662.0,0.0,100.0,-4.27214,0.0,7.0,0.0,0.0,4000000.0,110.0,1.0,0.0,0.0,10.0,0.0,0.0,-445.63788,63.24035,629.19775,1.205322,-4.0375543,0.23668417,239.32227,240.11293,233.93971,241.21191,635.0,636.0,684.0,689.0,93.0,93.0,93.0,93.0,0.0,0.0,0.0,0.0,0.035978377,0.036646143,0.048266295,0.054563288,0.0,0.0,0.0,0.0,912.93005,2699.576,556.1023,1595.4716,0.0,0.0,0.0,2.0,1.0,0.30510366,-0.038129292,-0.0092659,93.0,93.0,93.0,93.0,21.775778,21.775778,24.740557,24.740557,-0.03338386,-0.034430582,-0.054578476,-0.030106558,891.528,0.0,0.0,0.0,0.0,0.0,0.0,0.0,0.0,0.0,0.0,0.0,0.0,0.0,20.146305,1.0862212,65.91845,-0.02514518,0.20482567,-0.09315416,489942.34,0.0,0.015132112,0.029315816,5305.6533,6310.3706,5882.767,8881.89,0.31862354,0.0,0.0,0.0
290.34723,290.34723,3.266,0.0,0.0,241.68307,9462.0,0.0,100.0,-5.5390835,0.0,7.0,0.0,0.0,4000000.0,110.0,1.0,0.0,0.0,10.0,0.0,0.0,-444.6291,63.295467,632.44116,1.5444503,-3.1791475,0.023476355,234.31119,235.26578,232.67958,236.36697,656.0,657.0,704.0,709.0,93.0,93.0,93.0,93.0,0.0,0.0,0.0,0.0,0.033803903,0.035700217,0.046722166,0.054327086,0.0,0.0,0.0,0.0,825.19495,531.1846,-939.43024,-1190.9008,0.0,0.0,0.0,2.0,1.0,0.31708202,-0.043325085,-0.009341359,93.0,93.0,93.0,93.0,21.775778,21.775778,24.740557,24.740557,-0.026704693,-0.02868341,-0.03125327,-0.023077214,843.64276,0.0,0.0,0.0,0.0,0.0,0.0,0.0,0.0,0.0,0.0,0.0,0.0,0.0,20.25117,1.0947871,63.997585,-0.039963324,0.2733075,-0.07842565,473426.6,0.0,0.018173369,0.032354604,4576.961,5928.736,4785.79,8383.58,0.32161617,0.0,0.0,0.0
293.6011,293.6011,3.316,0.0,0.0,235.83797,10975.0,0.0,100.0,-6.323854,0.0,7.0,0.0,0.0,4000000.0,110.0,1.0,0.0,0.0,10.0,0.0,0.0,-443.61014,63.348637,635.59326,1.7610519,-3.1400726,-0.037195854,227.84271,228.946,222.77415,229.92403,675.0,676.0,723.0,728.0,93.0,93.0,93.0,93.0,0.0,0.0,0.0,0.0,0.031656623,0.03525672,0.045074016,0.054029103,0.0,0.0,0.0,0.0,1024.8851,-726.66394,155.5949,162.66254,0.0,0.0,0.0,2.0,1.0,0.33146384,-0.048506793,-0.009264469,93.0,93.0,93.0,93.0,21.775778,21.775778,24.740557,24.740557,-0.028498316,-0.030564748,-0.04599193,-0.026694693,1135.2277,0.0,0.0,0.0,0.0,0.0,0.0,0.0,0.0,0.0,0.0,0.0,0.0,0.0,20.511879,1.0310143,62.20797,-0.02910968,0.30198562,-0.1061525,549231.5,0.0,0.020063197,0.034171876,4171.902,5907.2393,4107.289,8216.437,0.32635498,0.0,0.0,0.0
296.78284,296.78284,3.366,0.0,0.0,231.54662,10382.0,0.0,100.0,-7.073816,0.0,6.0,0.0,0.0,4000000.0,110.0,1.0,0.0,0.0,10.0,0.0,0.0,-442.57285,63.398087,638.66327,2.039987,-2.1525495,-0.05898761,226.37183,227.46744,224.86658,227.96269,693.0,694.0,740.0,745.0,93.0,93.0,93.0,93.0,0.0,0.0,0.0,0.0,0.031099461,0.036518656,0.043053012,0.053493675,0.0,0.0,0.0,0.0,1415.8508,3647.2808,-89.42481,1301.5016,0.0,0.0,0.0,2.0,1.0,0.3473425,-0.053205706,-0.0099977255,93.0,93.0,93.0,93.0,21.775778,21.775778,24.740557,24.740557,-0.017462641,-0.02002623,-0.020342348,-0.01752011,1046.3221,0.0,0.0,0.0,0.0,0.0,0.0,0.0,0.0,0.0,0.0,0.0,0.0,0.0,21.016705,0.9466706,60.78052,-0.05527136,0.3223484,-0.067083836,535132.56,0.0,0.021241345,0.03252682,4162.4023,6494.006,3232.108,7837.919,0.32688522,0.0,0.0,0.0
299.90482,299.90482,3.416,0.0,0.0,226.73492,10127.0,0.0,100.0,-8.05578,0.0,6.0,0.0,0.0,4000000.0,110.0,1.0,0.0,0.0,10.0,0.0,0.0,-441.50983,63.443287,641.6608,2.1316998,-2.5979776,0.043751184,220.75107,221.90973,218.37614,222.77528,709.0,710.0,756.0,761.0,93.0,93.0,93.0,93.0,0.0,0.0,0.0,0.0,0.031046312,0.036975063,0.04306673,0.053552914,0.0,0.0,0.0,0.0,552.46796,-248.19818,1553.656,1520.7855,0.0,0.0,0.0,2.0,1.0,0.36326236,-0.059216533,-0.008874774,93.0,93.0,93.0,93.0,21.775778,21.775778,24.740557,24.740557,-0.021336703,-0.024008961,-0.030319003,-0.019766292,996.6476,0.0,0.0,0.0,0.0,0.0,0.0,0.0,0.0,0.0,0.0,0.0,0.0,0.0,21.486204,0.87074655,59.197193,-2.847016E-4,0.33583367,-0.123518586,522562.0,0.0,0.018143278,0.03067749,4028.9507,6184.802,3498.918,8299.383,0.3234291,0.0,0.0,0.0
302.95865,302.95865,3.466,0.0,0.0,222.0321,9966.0,0.0,100.0,-9.210925,0.0,6.0,0.0,0.0,4000000.0,110.0,1.0,0.0,0.0,10.0,0.0,0.0,-440.4226,63.486168,644.57605,2.3766978,-1.8708696,0.059678882,217.51076,218.75722,218.43863,219.85811,724.0,725.0,770.0,776.0,93.0,93.0,93.0,93.0,0.0,0.0,0.0,0.0,0.029944569,0.03666839,0.04291562,0.054030117,0.0,0.0,0.0,0.0,1159.4988,1130.2694,-2466.5188,-2239.2688,0.0,0.0,0.0,2.0,1.0,0.3815228,-0.064447455,-0.006795764,93.0,93.0,93.0,93.0,21.775778,21.775778,24.740557,24.740557,-0.014939807,-0.018767644,-0.006150019,-0.01311916,964.0858,0.0,0.0,0.0,0.0,0.0,0.0,0.0,0.0,0.0,0.0,0.0,0.0,0.0,22.035717,0.83892095,57.59862,-0.013658445,0.3965663,-0.07949356,513655.34,0.0,0.017736346,0.030709907,3692.5955,6308.031,3290.6772,8384.842,0.32190418,0.0,0.0,0.0
305.9554,305.9554,3.516,0.0,0.0,217.71492,9736.0,0.0,100.0,-10.424631,0.0,6.0,0.0,0.0,4000000.0,110.0,1.0,0.0,0.0,10.0,0.0,0.0,-439.3042,63.524944,647.41705,2.3593676,-2.5791514,-0.030978248,212.3843,213.68475,208.66667,215.07811,738.0,739.0,784.0,789.0,93.0,93.0,93.0,93.0,0.0,0.0,0.0,0.0,0.028524043,0.03652674,0.04190619,0.053442277,0.0,0.0,0.0,0.0,663.41077,-888.6023,2926.759,610.5914,0.0,0.0,0.0,2.0,1.0,0.4013076,-0.06949904,-0.004437804,93.0,93.0,93.0,93.0,21.775778,21.775778,24.740557,24.740557,-0.019096393,-0.02266452,-0.041407246,-0.013605849,908.8602,0.0,0.0,0.0,0.0,0.0,0.0,0.0,0.0,0.0,0.0,0.0,0.0,0.0,22.63998,0.719125,56.074104,0.024130013,0.40287757,-0.13249873,495671.03,0.0,0.0207775,0.033292618,3473.2742,6167.164,2849.2842,7961.9404,0.32364273,0.0,0.0,0.0
308.89032,308.89032,3.566,0.0,0.0,213.63522,9567.0,0.0,100.0,-11.186968,0.0,6.0,0.0,0.0,4000000.0,110.0,1.0,0.0,0.0,10.0,0.0,0.0,-438.15637,63.55588,650.1803,2.4991245,-1.8442802,-0.2965692,208.64499,210.03314,209.00519,211.34666,751.0,752.0,796.0,802.0,93.0,93.0,93.0,93.0,0.0,0.0,0.0,0.0,0.025238363,0.03344726,0.04127022,0.052725878,0.0,0.0,0.0,0.0,1059.9084,-931.54443,420.9861,-1035.024,0.0,0.0,0.0,2.0,1.0,0.42233014,-0.074528135,-8.087158E-4,93.0,93.0,93.0,93.0,21.775778,21.775778,24.740557,24.740557,-0.016882947,-0.02149806,-0.012662539,-0.014183158,869.39124,0.0,0.0,0.0,0.0,0.0,0.0,0.0,0.0,0.0,0.0,0.0,0.0,0.0,23.267136,0.5132469,54.58922,0.012862733,0.4474873,-0.08947903,482521.3,0.0,0.024508744,0.03800608,2504.0222,5328.193,2388.201,7564.1167,0.3272667,0.0,0.0,0.0
