LapDistance [m],TotalDistance [m],LapTime [s],Sector1Time [s],Sector2Time [s],Speed [km/h],EngineRevs [rpm],ThrottlePercentage [%],BrakePercentage [%],Steer [%],Clutch [%],Gear [int],DRS [0/1],CanUseDRS [0/1],KERSLevel [J],EngineTemperature [C],RacePosition [int],Sector [int],InPits [int],FuelRemaining [kg],CurrentFlag [int],CurrentLapInvalid [int],X [m],Y [m],Z [m],GForceLatitudinal [G],GForceLongitudinal [G],GForceVertical [G],WheelSpeedRearLeft [km/h],WheelSpeedRearRight [km/h],WheelSpeedFrontLeft [km/h],WheelSpeedFrontRight [km/h],BrakeTemperatureRearLeft [C],BrakeTemperatureRearRight [C],BrakeTemperatureFrontLeft [C],BrakeTemperatureFrontRight [C],TyreTemperatureRearLeft [C],TyreTemperatureRearRight [C],TyreTemperatureFrontLeft [C],TyreTemperatureFrontRight [C],TyreWearRearLeft [%],TyreWearRearRight [%],TyreWearFrontLeft [%],TyreWearFrontRight [%],SuspensionPositionRearLeft [m],SuspensionPositionRearRight [m],SuspensionPositionFrontLeft [m],SuspensionPositionFrontRight [m],SuspensionVelocityRearLeft [m/s],SuspensionVelocityRearRight [m/s],SuspensionVelocityFrontLeft [m/s],SuspensionVelocityFrontRight [m/s],SuspensionAccelerationRearLeft [m/s^2],SuspensionAccelerationRearRight [m/s^2],SuspensionAccelerationFrontLeft [m/s^2],SuspensionAccelerationFrontRight [m/s^2],MGUKHarvested [J],MGUHHarvested [J],ERSSpent [J],ERSMode [int],FuelMixMode [int],Yaw [rad],Roll [rad],Pitch [rad],TyreCarcassTemperatureRearLeft [C],TyreCarcassTemperatureRearRight [C],TyreCarcassTemperatureFrontLeft [C],TyreCarcassTemperatureFrontRight [C],TyrePressureRearLeft [PSI],TyrePressureRearRight [PSI],TyrePressureFrontLeft [PSI],TyrePressureFrontRight [PSI],WheelSlipRearLeft [%],WheelSlipRearRight [%],WheelSlipFrontLeft [%],WheelSlipFrontRight [%],Torque [Nm],Handbrake [%],RearLeftInside [C],RearLeftMiddle [C],RearLeftOutside [C],RearRightInside [C],RearRightMiddle [C],RearRightOutside [C],FrontLeftInside [C],FrontLeftMiddle [C],FrontLeftOutside [C],FrontRightInside [C],FrontRightMiddle [C],FrontRightOutside [C],WoldSpeedX [km/h],WoldSpeedY [km/h],WoldSpeedZ [km/h],LocalAngularVelocityX [rad/s],LocalAngularVelocityY [rad/s],LocalAngularVelocityZ [rad/s],IcePower [W],MgukPower [W],FrontRideHeight [m],RearRideHeight [m],LoadRearLeft [N],LoadRearRight [N],LoadFrontLeft [N],LoadFrontRight [N],Extra1 [m],Extra2 [],Extra3 [],Extra4 []
2.4722786,2.4722786,0.033,0.0,0.0,324.99683,11613.0,100.0,0.0,-0.07569793,0.0,8.0,1.0,0.0,4000000.0,110.0,1.0,0.0,0.0,10.0,0.0,0.0,-518.01746,57.49129,354.27396,0.10045636,0.11560583,-0.475199,330.22894,330.14108,324.8849,324.86334,202.0,202.0,251.0,252.0,93.0,93.0,93.0,93.0,0.0,0.0,0.0,0.0,0.04566723,0.0465029,0.053017102,0.053196073,0.0,0.0,0.0,0.0,3469.7725,3345.3713,-2009.4034,-2744.8247,0.0,0.0,0.0,2.0,1.0,0.26441467,-0.0033783808,-0.025524259,93.0,93.0,93.0,93.0,21.775778,21.775778,24.740557,24.740557,0.0161591,0.015962813,-3.8413733E-4,-3.920666E-4,1192.8501,0.0,0.0,0.0,0.0,0.0,0.0,0.0,0.0,0.0,0.0,0.0,0.0,0.0,23.512985,2.4359195,87.12705,0.040602066,-0.003515693,0.0014226632,545404.2,119984.9,0.012484044,0.012439738,7455.259,7661.2085,6317.248,6350.4604,0.30397606,0.0,0.0,0.0
7.0047326,7.0047326,0.083,0.0,0.0,325.16107,11622.0,100.0,0.0,-0.26131234,0.0,8.0,1.0,0.0,4000000.0,110.0,1.0,0.0,0.0,10.0,0.0,0.0,-516.8404,57.607437,358.63138,0.084384985,0.08435333,-0.3723376,330.47546,330.42395,325.02014,325.05804,201.0,201.0,251.0,252.0,93.0,93.0,93.0,93.0,0.0,0.0,0.0,0.0,0.04513961,0.04629497,0.053202726,0.053155866,0.0,0.0,0.0,0.0,-184.20065,-620.529,711.76434,816.6655,0.0,0.0,0.0,2.0,1.0,0.26447216,-0.002127648,-0.023347497,93.0,93.0,93.0,93.0,21.775778,21.775778,24.740557,24.740557,0.016461099,0.016201245,-3.6655713E-4,-3.8863567E-4,1193.3755,0.0,0.0,0.0,0.0,0.0,0.0,0.0,0.0,0.0,0.0,0.0,0.0,0.0,23.565975,2.231302,87.1655,0.031447344,0.008060472,0.028802842,545221.9,119984.914,0.017883442,0.019302713,7207.4053,7391.2847,6633.611,6608.482,0.31384754,0.0,0.0,0.0
11.539397,11.539397,0.133,0.0,0.0,325.29913,11633.0,100.0,0.0,-0.14160934,0.0,8.0,1.0,0.0,4000000.0,110.0,1.0,0.0,0.0,10.0,0.0,0.0,-515.6609,57.71536,362.99045,0.06508562,0.07139747,-0.8605903,330.78757,330.7544,325.14578,325.20523,200.0,200.0,250.0,251.0,93.0,93.0,93.0,93.0,0.0,0.0,0.0,0.0,0.0447193,0.045776293,0.05262363,0.052318178,0.0,0.0,0.0,0.0,-8543.72,-10421.548,-5150.498,-6574.885,0.0,0.0,0.0,2.0,1.0,0.26494873,-2.0553544E-4,-0.023653984,93.0,93.0,93.0,93.0,21.775778,21.775778,24.740557,24.740557,0.017046416,0.016855381,-3.6990517E-4,-3.654731E-4,1194.0217,0.0,0.0,0.0,0.0,0.0,0.0,0.0,0.0,0.0,0.0,0.0,0.0,0.0,23.61123,2.033083,87.19784,0.021855146,0.011063321,0.05276206,545001.25,119984.9,0.017753161,0.018894382,6471.1206,6553.623,5110.754,4898.07,0.3166895,0.0,0.0,0.0
16.076595,16.076595,0.183,0.0,0.0,325.4863,11609.0,100.0,0.0,0.07003114,0.0,8.0,1.0,0.0,4000000.0,110.0,1.0,0.0,0.0,10.0,0.0,0.0,-514.47894,57.81569,367.3515,0.052665524,0.09995664,0.55825555,330.0999,330.01193,325.30908,325.3478,199.0,199.0,249.0,250.0,93.0,93.0,93.0,93.0,0.0,0.0,0.0,0.0,0.051970854,0.052780397,0.05588785,0.056337304,0.0,0.0,0.0,0.0,6927.7163,1277.8042,2077.102,-2237.5925,0.0,0.0,0.0,2.0,1.0,0.26540488,0.0019424692,-0.025850773,93.0,93.0,93.0,93.0,21.775778,21.775778,24.740557,24.740557,0.014427468,0.014072546,-4.3870724E-4,-4.1734736E-4,1192.6047,0.0,0.0,0.0,0.0,0.0,0.0,0.0,0.0,0.0,0.0,0.0,0.0,0.0,23.657492,2.0880406,87.237885,-0.11665916,0.0047929436,0.014670372,545479.9,119984.91,0.0048693805,0.005361537,9127.27,9585.594,8784.792,8995.03,0.2998104,0.0,0.0,0.0
20.614592,20.614592,0.233,0.0,0.0,325.41022,11602.0,100.0,0.0,-0.1707686,0.0,8.0,1.0,0.0,4000000.0,110.0,1.0,0.0,0.0,10.0,0.0,0.0,-513.2963,57.93669,371.7132,-0.17110981,-0.3442485,1.5890098,329.84286,329.84164,325.24863,325.26843,199.0,199.0,248.0,249.0,93.0,93.0,93.0,93.0,0.0,0.0,0.0,0.0,0.052345395,0.052340638,0.05654162,0.056355577,0.0,0.0,0.0,0.0,-3792.67,-3646.2751,-3743.666,-2544.37,0.0,0.0,0.0,2.0,1.0,0.2654236,0.0017965197,-0.028672576,93.0,93.0,93.0,93.0,21.775778,21.775778,24.740557,24.740557,0.013646686,0.013620944,-4.479455E-4,-4.6790717E-4,1192.2046,0.0,0.0,0.0,0.0,0.0,0.0,0.0,0.0,0.0,0.0,0.0,0.0,0.0,23.632673,2.7323418,87.2049,0.0026611593,0.0045150984,0.02996546,545625.9,119984.9,0.0011052844,0.0012515113,10243.231,10204.809,8267.039,8210.971,0.2931385,0.0,0.0,0.0
25.151886,25.151886,0.283,0.0,0.0,325.5465,11628.0,100.0,0.0,-0.087596394,0.0,8.0,1.0,0.0,4000000.0,110.0,1.0,0.0,0.0,10.0,0.0,0.0,-512.1133,58.074615,376.07407,0.07070705,0.082110785,-0.3154146,330.61908,330.58444,325.40082,325.43597,198.0,198.0,247.0,248.0,93.0,93.0,93.0,93.0,0.0,0.0,0.0,0.0,0.048003945,0.04835637,0.054369703,0.0547943,0.0,0.0,0.0,0.0,1965.013,1054.2958,961.8802,-14.443587,0.0,0.0,0.0,2.0,1.0,0.2657284,0.0025488937,-0.028112888,93.0,93.0,93.0,93.0,21.775778,21.775778,24.740557,24.740557,0.0156168,0.01541237,-3.850948E-4,-3.8654212E-4,1193.753,0.0,0.0,0.0,0.0,0.0,0.0,0.0,0.0,0.0,0.0,0.0,0.0,0.0,23.681316,2.7143297,87.23152,0.0025869713,0.00559859,-0.010249313,545112.94,119984.9,0.0063891653,0.009632133,7777.71,7985.879,6887.431,7062.2764,0.2985983,0.0,0.0,0.0
29.691446,29.691446,0.333,0.0,0.0,325.71884,11627.0,100.0,0.0,-0.031259663,0.0,8.0,1.0,0.0,4000000.0,110.0,1.0,0.0,0.0,10.0,0.0,0.0,-510.92807,58.20767,380.4367,0.05463925,0.10329668,-0.13156544,330.57138,330.57758,325.57254,325.59818,197.0,197.0,246.0,247.0,93.0,93.0,93.0,93.0,0.0,0.0,0.0,0.0,0.0494543,0.04941516,0.05411428,0.054268867,0.0,0.0,0.0,0.0,-163.03801,509.91483,56.272743,226.593,0.0,0.0,0.0,2.0,1.0,0.26598045,0.0018485752,-0.029151797,93.0,93.0,93.0,93.0,21.775778,21.775778,24.740557,24.740557,0.015013309,0.014972399,-4.009587E-4,-3.9619175E-4,1193.6815,0.0,0.0,0.0,0.0,0.0,0.0,0.0,0.0,0.0,0.0,0.0,0.0,0.0,23.723663,2.6237388,87.27241,-0.01699536,0.0038321293,-6.936211E-4,545127.1,119984.9,0.007261949,0.008113961,8426.907,8473.003,6966.2866,7020.325,0.29904938,0.0,0.0,0.0
34.233513,34.233513,0.383,0.0,0.0,325.89313,11630.0,100.0,0.0,0.0373023,0.0,8.0,1.0,0.0,4000000.0,110.0,1.0,0.0,0.0,10.0,0.0,0.0,-509.74103,58.339226,384.8014,0.032608163,0.09394789,0.121812895,330.6696,330.63464,325.76434,325.75696,196.0,196.0,245.0,246.0,93.0,93.0,93.0,93.0,0.0,0.0,0.0,0.0,0.049806412,0.050072055,0.054650795,0.054741673,0.0,0.0,0.0,0.0,-396.48407,-155.19258,-222.70384,-219.78017,0.0,0.0,0.0,2.0,1.0,0.26601738,0.0018183771,-0.029065132,93.0,93.0,93.0,93.0,21.775778,21.775778,24.740557,24.740557,0.014674766,0.014599907,-4.0778486E-4,-4.018588E-4,1193.8666,0.0,0.0,0.0,0.0,0.0,0.0,0.0,0.0,0.0,0.0,0.0,0.0,0.0,23.754257,2.6543639,87.313354,0.0039327545,-0.0017729866,-0.0046719257,545071.0,119984.89,0.005516532,0.006353406,8748.164,8863.04,7560.705,7597.2246,0.29797935,0.0,0.0,0.0
38.772583,38.772583,0.433,0.0,0.0,326.05246,11637.0,100.0,0.0,0.05546388,0.0,8.0,1.0,0.0,4000000.0,110.0,1.0,0.0,0.0,10.0,0.0,0.0,-508.55273,58.47314,389.1681,0.006818844,0.089091085,0.028874706,330.883,330.848,325.93237,325.90854,195.0,195.0,244.0,245.0,93.0,93.0,93.0,93.0,0.0,0.0,0.0,0.0,0.04952829,0.049644284,0.05483707,0.054702695,0.0,0.0,0.0,0.0,-185.81001,70.971275,-179.86891,-113.940216,0.0,0.0,0.0,2.0,1.0,0.26585862,0.0016159394,-0.028915644,93.0,93.0,93.0,93.0,21.775778,21.775778,24.740557,24.740557,0.014803839,0.014773393,-4.03399E-4,-3.97542E-4,1194.2632,0.0,0.0,0.0,0.0,0.0,0.0,0.0,0.0,0.0,0.0,0.0,0.0,0.0,23.7731,2.6904516,87.35301,3.32318E-4,-0.0044469116,-8.795276E-4,544924.1,119984.9,0.0060008154,0.0072401264,8585.521,8665.016,7489.8457,7414.296,0.29879284,0.0,0.0,0.0
43.298565,43.298565,0.483,0.0,0.0,326.2101,11644.0,100.0,0.0,0.090026855,0.0,8.0,1.0,0.0,4000000.0,110.0,1.0,0.0,0.0,10.0,0.0,0.0,-507.36398,58.60747,393.53687,-0.01946467,0.09050847,-0.106038295,331.0874,331.04913,326.0985,326.0605,194.0,194.0,243.0,244.0,93.0,93.0,93.0,93.0,0.0,0.0,0.0,0.0,0.049201544,0.04932969,0.05463126,0.054249983,0.0,0.0,0.0,0.0,-127.35127,-553.00433,-460.46817,-616.14355,0.0,0.0,0.0,2.0,1.0,0.26556915,0.0017426526,-0.029056191,93.0,93.0,93.0,93.0,21.775778,21.775778,24.740557,24.740557,0.014932518,0.014931716,-4.0035942E-4,-3.9158933E-4,1194.6749,0.0,0.0,0.0,0.0,0.0,0.0,0.0,0.0,0.0,0.0,0.0,0.0,0.0,23.779911,2.671337,87.397156,0.0039880415,-0.006672626,0.007637525,544784.25,119984.89,0.0068982267,0.007802427,8409.488,8464.033,7199.284,6997.452,0.2986908,0.0,0.0,0.0
47.826897,47.826897,0.533,0.0,0.0,326.3711,11649.0,100.0,0.0,0.118132085,0.0,8.0,1.0,0.0,4000000.0,110.0,1.0,0.0,0.0,10.0,0.0,0.0,-506.1752,58.740196,397.908,-0.043763764,0.09090465,-0.018679503,331.21683,331.1805,326.26526,326.2142,194.0,194.0,242.0,243.0,93.0,93.0,93.0,93.0,0.0,0.0,0.0,0.0,0.049443413,0.049563445,0.05461243,0.05438455,0.0,0.0,0.0,0.0,242.2705,-355.5938,103.14433,-126.4125,0.0,0.0,0.0,2.0,1.0,0.2651697,0.0024634758,-0.028915644,93.0,93.0,93.0,93.0,21.775778,21.775778,24.740557,24.740557,0.0148208635,0.014852807,-4.0128245E-4,-3.9728955E-4,1194.9872,0.0,0.0,0.0,0.0,0.0,0.0,0.0,0.0,0.0,0.0,0.0,0.0,0.0,23.775213,2.647518,87.44552,0.0046226163,-0.008605431,0.0076470925,544692.75,119984.91,0.00676748,0.007642267,8554.444,8564.113,7387.1074,7284.886,0.29865265,0.0,0.0,0.0
52.357407,52.357407,0.583,0.0,0.0,326.51077,11651.0,100.0,0.0,0.101625815,0.0,8.0,1.0,0.0,4000000.0,110.0,1.0,0.0,0.0,10.0,0.0,0.0,-504.98682,58.875633,402.28137,-0.0587654,0.0713434,0.12069197,331.2696,331.23303,326.4068,326.35208,193.0,193.0,242.0,243.0,93.0,93.0,93.0,93.0,0.0,0.0,0.0,0.0,0.05005113,0.050107993,0.05520279,0.05469225,0.0,0.0,0.0,0.0,-1180.0914,-1012.84216,-796.1331,-520.7106,0.0,0.0,0.0,2.0,1.0,0.26469538,0.0028706333,-0.029459596,93.0,93.0,93.0,93.0,21.775778,21.775778,24.740557,24.740557,0.014512178,0.014551827,-3.946482E-4,-3.9140516E-4,1195.1079,0.0,0.0,0.0,0.0,0.0,0.0,0.0,0.0,0.0,0.0,0.0,0.0,0.0,23.758505,2.7480667,87.48718,-0.005426526,-0.008977624,0.01667554,544654.3,119984.9,0.009348546,0.009558802,8878.62,8881.894,7626.5737,7385.1836,0.30145264,0.0,0.0,0.0
56.88969,56.88969,0.633,0.0,0.0,326.63116,11657.0,100.0,0.0,0.12885164,0.0,8.0,1.0,0.0,4000000.0,110.0,1.0,0.0,0.0,10.0,0.0,0.0,-503.79956,59.013702,406.65683,-0.073167466,0.067189276,0.065880656,331.45346,331.41714,326.5269,326.46814,192.0,192.0,241.0,242.0,93.0,93.0,93.0,93.0,0.0,0.0,0.0,0.0,0.04961357,0.049622145,0.055003837,0.054679733,0.0,0.0,0.0,0.0,112.451584,657.61053,-90.108795,45.97306,0.0,0.0,0.0,2.0,1.0,0.26420668,0.0035963645,-0.03026867,93.0,93.0,93.0,93.0,21.775778,21.775778,24.740557,24.740557,0.014739022,0.014784815,-3.9293861E-4,-3.9021941E-4,1195.4453,0.0,0.0,0.0,0.0,0.0,0.0,0.0,0.0,0.0,0.0,0.0,0.0,0.0,23.733868,2.77627,87.52764,-0.024680162,-0.009762733,0.018553104,544527.6,119984.91,0.010578147,0.011685252,8655.874,8642.147,7599.6885,7471.8276,0.3032217,0.0,0.0,0.0
61.423843,61.423843,0.683,0.0,0.0,326.77722,11658.0,100.0,0.0,0.21398962,0.0,8.0,1.0,0.0,4000000.0,110.0,1.0,0.0,0.0,10.0,0.0,0.0,-502.61356,59.150997,411.0345,-0.09542814,0.09014648,0.22865541,331.42722,331.44174,326.66858,326.60373,191.0,191.0,240.0,241.0,93.0,93.0,93.0,93.0,0.0,0.0,0.0,0.0,0.050889134,0.050380465,0.055082582,0.054862007,0.0,0.0,0.0,0.0,1086.2944,1860.4202,956.2074,742.11346,0.0,0.0,0.0,2.0,1.0,0.26370215,0.0027540075,-0.031689525,93.0,93.0,93.0,93.0,21.775778,21.775778,24.740557,24.740557,0.014268694,0.014483195,-4.15874E-4,-4.0505684E-4,1195.541,0.0,0.0,0.0,0.0,0.0,0.0,0.0,0.0,0.0,0.0,0.0,0.0,0.0,23.70473,2.7710562,87.57776,-0.043794863,-0.012004461,-0.0072544096,544524.5,119984.9,0.0059319325,0.0062747025,9178.374,8963.381,7954.709,7840.291,0.2984991,0.0,0.0,0.0
65.95991,65.95991,0.733,0.0,0.0,326.91284,11655.0,100.0,0.0,0.17164211,0.0,8.0,1.0,0.0,4000000.0,110.0,1.0,0.0,0.0,10.0,0.0,0.0,-501.42932,59.297455,415.41452,-0.09250585,0.06693104,0.70774937,331.35034,331.35446,326.8119,326.74377,190.0,190.0,239.0,240.0,93.0,93.0,93.0,93.0,0.0,0.0,0.0,0.0,0.052375227,0.052003298,0.056216523,0.056042038,0.0,0.0,0.0,0.0,-10115.775,-5873.7954,-2781.0615,-1186.7969,0.0,0.0,0.0,2.0,1.0,0.2631257,0.0027094998,-0.03303504,93.0,93.0,93.0,93.0,21.775778,21.775778,24.740557,24.740557,0.013477312,0.013656112,-4.077406E-4,-4.0938522E-4,1195.3472,0.0,0.0,0.0,0.0,0.0,0.0,0.0,0.0,0.0,0.0,0.0,0.0,0.0,23.666142,3.0938334,87.61643,-3.9107888E-4,-0.010749236,0.015326327,544576.4,119984.9,0.0049341107,0.0050086603,10124.986,9885.55,8425.818,8410.774,0.2980404,0.0,0.0,0.0
70.497055,70.497055,0.783,0.0,0.0,327.0056,11671.0,100.0,0.0,0.31217244,0.0,8.0,1.0,0.0,4000000.0,110.0,1.0,0.0,0.0,10.0,0.0,0.0,-500.24722,59.45533,419.79617,-0.11973706,0.056818783,0.0018952906,331.86105,331.8099,326.91907,326.82333,190.0,190.0,238.0,239.0,93.0,93.0,93.0,93.0,0.0,0.0,0.0,0.0,0.049481228,0.049356014,0.055714015,0.054938164,0.0,0.0,0.0,0.0,1713.4755,1929.7821,766.91046,63.24657,0.0,0.0,0.0,2.0,1.0,0.26246887,0.0026848905,-0.033558488,93.0,93.0,93.0,93.0,21.775778,21.775778,24.740557,24.740557,0.014724191,0.014859807,-4.0362196E-4,-3.7605726E-4,1196.2717,0.0,0.0,0.0,0.0,0.0,0.0,0.0,0.0,0.0,0.0,0.0,0.0,0.0,23.620161,3.1733625,87.6527,-0.026286695,-0.01725712,0.01641579,544250.44,119984.89,0.006805884,0.010296042,8615.858,8527.346,7901.831,7447.9785,0.30146408,0.0,0.0,0.0
75.03588,75.03588,0.833,0.0,0.0,327.13528,11667.0,100.0,0.0,0.3654572,0.0,8.0,1.0,0.0,4000000.0,110.0,1.0,0.0,0.0,10.0,0.0,0.0,-499.06766,59.61459,424.18015,-0.1547195,0.08087517,0.3803263,331.77655,331.6459,327.06058,326.91904,189.0,189.0,237.0,238.0,93.0,93.0,93.0,93.0,0.0,0.0,0.0,0.0,0.051228963,0.05121234,0.056454487,0.054648597,0.0,0.0,0.0,0.0,2755.4065,1122.2227,2182.701,1172.6885,0.0,0.0,0.0,2.0,1.0,0.26136073,0.005005681,-0.03621602,93.0,93.0,93.0,93.0,21.775778,21.775778,24.740557,24.740557,0.014070465,0.014126401,-4.2285564E-4,-3.9665564E-4,1196.0369,0.0,0.0,0.0,0.0,0.0,0.0,0.0,0.0,0.0,0.0,0.0,0.0,0.0,23.562344,3.240558,87.703125,-0.04204838,-0.022429949,0.10258369,544330.1,119984.89,0.003305438,0.0048507876,9431.834,9394.676,8756.809,7824.089,0.29635048,0.0,0.0,0.0
79.58116,79.58116,0.883,0.0,0.0,327.26825,11673.0,100.0,0.0,0.57335526,0.0,8.0,1.0,0.0,4000000.0,110.0,1.0,0.0,0.0,10.0,0.0,0.0,-497.8918,59.783062,428.5667,-0.2285875,0.067504644,0.37777334,331.9822,331.7823,327.24515,327.0276,188.0,188.0,236.0,237.0,93.0,93.0,93.0,93.0,0.0,0.0,0.0,0.0,0.05076044,0.05115047,0.056241482,0.054723,0.0,0.0,0.0,0.0,-1175.6523,-2726.1833,559.2137,-735.83716,0.0,0.0,0.0,2.0,1.0,0.25973427,0.009045199,-0.03727901,93.0,93.0,93.0,93.0,21.775778,21.775778,24.740557,24.740557,0.014037949,0.014050629,-4.175848E-4,-3.847429E-4,1196.3945,0.0,0.0,0.0,0.0,0.0,0.0,0.0,0.0,0.0,0.0,0.0,0.0,0.0,23.47101,3.4694498,87.75712,0.030738955,-0.036049217,0.05225385,544213.06,119984.9,0.0027497911,0.003607164,9306.5,9451.387,8253.695,7513.293,0.2971897,0.0,0.0,0.0
84.13732,84.13732,0.933,0.0,0.0,327.399,11691.0,100.0,0.0,0.60382116,0.0,8.0,1.0,0.0,4000000.0,110.0,1.0,0.0,0.0,10.0,0.0,0.0,-496.72128,59.95431,432.95636,-0.29574972,0.085462235,-0.24731557,332.46194,332.30334,327.39877,327.13458,187.0,187.0,236.0,237.0,93.0,93.0,93.0,93.0,0.0,0.0,0.0,0.0,0.04850592,0.048431586,0.055251885,0.053584926,0.0,0.0,0.0,0.0,3204.2068,2314.9607,-468.23315,594.90045,0.0,0.0,0.0,2.0,1.0,0.2575908,0.011943547,-0.036318302,93.0,93.0,93.0,93.0,21.775778,21.775778,24.740557,24.740557,0.015148928,0.015392624,-4.0116205E-4,-3.8279823E-4,1197.4912,0.0,0.0,0.0,0.0,0.0,0.0,0.0,0.0,0.0,0.0,0.0,0.0,0.0,23.352549,3.3714552,87.83013,0.018561311,-0.04350235,0.049346253,543873.25,119984.9,0.0017440604,0.0050824382,8162.513,8019.6807,7460.289,6768.539,0.29477215,0.0,0.0,0.0
88.69457,88.69457,0.983,0.0,0.0,327.2171,11696.0,100.0,0.0,0.5362348,0.0,8.0,1.0,0.0,4000000.0,110.0,1.0,0.0,0.0,10.0,0.0,0.0,-495.55835,60.121532,437.34906,-0.30981967,0.09579639,-0.36109817,332.60443,332.47058,327.42386,327.17987,186.0,186.0,235.0,236.0,93.0,93.0,93.0,93.0,0.0,0.0,0.0,0.0,0.04786633,0.048033003,0.05481976,0.05285835,0.0,0.0,0.0,0.0,-233.66064,200.54877,152.53723,1387.587,0.0,0.0,0.0,2.0,1.0,0.25547075,0.014896102,-0.035144567,93.0,93.0,93.0,93.0,21.775778,21.775778,24.740557,24.740557,0.015504074,0.015746508,-3.9930645E-4,-3.8154944E-4,1197.7719,0.0,0.0,0.0,0.0,0.0,0.0,0.0,0.0,0.0,0.0,0.0,0.0,0.0,23.134466,3.3847988,87.83504,-0.013053019,-0.032528043,0.0278777,543768.1,119984.9,5.0624914E-4,0.004306306,7810.4785,7700.4546,7261.414,6397.263,0.29471493,0.0,0.0,0.0
93.25086,93.25086,1.033,0.0,0.0,327.3921,11690.0,100.0,0.0,0.5085093,0.0,8.0,1.0,0.0,4000000.0,110.0,1.0,0.0,0.0,10.0,0.0,0.0,-494.40497,60.29028,441.7432,-0.29472515,0.080161974,-0.37643486,332.42682,332.29248,327.37946,327.16174,186.0,186.0,234.0,235.0,93.0,93.0,93.0,93.0,0.0,0.0,0.0,0.0,0.048691038,0.04902095,0.054355912,0.05271214,0.0,0.0,0.0,0.0,-962.2693,-2385.7844,-451.04025,-480.30313,0.0,0.0,0.0,2.0,1.0,0.25365478,0.019069701,-0.035346985,93.0,93.0,93.0,93.0,21.775778,21.775778,24.740557,24.740557,0.015041175,0.015220726,-3.8485837E-4,-3.7123356E-4,1197.4246,0.0,0.0,0.0,0.0,0.0,0.0,0.0,0.0,0.0,0.0,0.0,0.0,0.0,23.00959,3.3155348,87.920746,0.07011886,-0.033106405,0.07267615,543889.5,119984.91,0.006074836,0.006885094,8236.814,8115.5713,6661.468,5959.123,0.2978754,0.0,0.0,0.0
97.80967,97.80967,1.083,0.0,0.0,327.54105,11707.0,100.0,0.0,0.6253816,0.0,8.0,1.0,0.0,4000000.0,110.0,1.0,0.0,0.0,10.0,0.0,0.0,-493.25797,60.446976,446.14142,-0.34824404,0.115422,-0.7659185,332.8953,332.84622,327.54727,327.2873,185.0,185.0,233.0,234.0,93.0,93.0,93.0,93.0,0.0,0.0,0.0,0.0,0.04489147,0.04494232,0.0534876,0.051856913,0.0,0.0,0.0,0.0,7368.591,4425.269,3556.1394,1529.9185,0.0,0.0,0.0,2.0,1.0,0.2516543,0.02140165,-0.031983256,93.0,93.0,93.0,93.0,21.775778,21.775778,24.740557,24.740557,0.0161596,0.016723739,-4.0370875E-4,-3.7750378E-4,1198.3937,0.0,0.0,0.0,0.0,0.0,0.0,0.0,0.0,0.0,0.0,0.0,0.0,0.0,22.876322,2.9464252,88.01143,0.072582126,-0.04250398,0.010149875,543539.25,119984.9,0.0058149556,0.00851879,7427.4727,7044.4023,6551.749,5720.6636,0.29768658,0.0,0.0,0.0
102.37169,102.37169,1.133,0.0,0.0,327.72046,11704.0,100.0,0.0,0.4930911,0.0,8.0,1.0,0.0,4000000.0,110.0,1.0,0.0,0.0,10.0,0.0,0.0,-492.11807,60.58861,450.5446,-0.36160582,0.100630954,-0.31834838,332.81412,332.71634,327.71692,327.4643,184.0,184.0,232.0,233.0,93.0,93.0,93.0,93.0,0.0,0.0,0.0,0.0,0.047525927,0.046487503,0.05455889,0.05282857,0.0,0.0,0.0,0.0,1133.9302,732.95374,-103.80151,-234.07635,0.0,0.0,0.0,2.0,1.0,0.24947684,0.023025678,-0.029512405,93.0,93.0,93.0,93.0,21.775778,21.775778,24.740557,24.740557,0.015270516,0.015675735,-3.9909352E-4,-3.9439969E-4,1198.2386,0.0,0.0,0.0,0.0,0.0,0.0,0.0,0.0,0.0,0.0,0.0,0.0,0.0,22.724783,2.7496743,88.108536,0.043302357,-0.0407425,0.026336947,543608.25,119984.89,0.004113942,0.00606708,8093.95,7730.9287,7353.0366,6564.191,0.29630852,0.0,0.0,0.0
106.93654,106.93654,1.183,0.0,0.0,327.88583,11707.0,100.0,0.0,0.36509645,0.0,8.0,1.0,0.0,4000000.0,110.0,1.0,0.0,0.0,10.0,0.0,0.0,-490.98596,60.72229,454.95242,-0.34851855,0.09575639,-0.26509112,332.8714,332.83966,327.86264,327.65952,183.0,183.0,231.0,232.0,93.0,93.0,93.0,93.0,0.0,0.0,0.0,0.0,0.04921701,0.048481222,0.05432635,0.0530367,0.0,0.0,0.0,0.0,781.4212,1465.8672,72.80851,428.2146,0.0,0.0,0.0,2.0,1.0,0.24759759,0.024367122,-0.027683377,93.0,93.0,93.0,93.0,21.775778,21.775778,24.740557,24.740557,0.014965613,0.015376702,-3.8540456E-4,-3.9566975E-4,1198.405,0.0,0.0,0.0,0.0,0.0,0.0,0.0,0.0,0.0,0.0,0.0,0.0,0.0,22.570528,2.6050358,88.20001,0.057095345,-0.031387456,0.009200675,543544.4,119984.89,0.0065099583,0.006676269,8446.245,7989.792,7006.799,6470.5576,0.29858685,0.0,0.0,0.0
111.50406,111.50406,1.233,0.0,0.0,328.02753,11717.0,100.0,0.0,0.26322252,0.0,8.0,1.0,0.0,4000000.0,110.0,1.0,0.0,0.0,10.0,0.0,0.0,-489.8611,60.847595,459.36456,-0.30357847,0.084142946,-0.39088053,333.13242,333.14526,327.96448,327.8356,182.0,183.0,231.0,231.0,93.0,93.0,93.0,93.0,0.0,0.0,0.0,0.0,0.048111092,0.047217283,0.054280158,0.05329967,0.0,0.0,0.0,0.0,2121.171,1247.4281,563.94775,243.50433,0.0,0.0,0.0,2.0,1.0,0.24634722,0.024909535,-0.025448918,93.0,93.0,93.0,93.0,21.775778,21.775778,24.740557,24.740557,0.015462618,0.015825892,-3.8665385E-4,-3.8823736E-4,1198.9998,0.0,0.0,0.0,0.0,0.0,0.0,0.0,0.0,0.0,0.0,0.0,0.0,0.0,22.435043,2.411623,88.28069,0.022091169,-0.02064792,-0.0060129752,543350.0,119984.9,0.0077378894,0.0102619035,7943.9214,7551.1113,7144.8467,6698.3765,0.3010006,0.0,0.0,0.0
116.07197,116.07197,1.283,0.0,0.0,328.19144,11717.0,100.0,0.0,0.19886166,0.0,8.0,1.0,0.0,4000000.0,110.0,1.0,0.0,0.0,10.0,0.0,0.0,-488.74234,60.961773,463.7807,-0.24964482,0.09738547,-0.18319984,333.12283,333.1119,328.10645,328.00766,182.0,182.0,230.0,231.0,93.0,93.0,93.0,93.0,0.0,0.0,0.0,0.0,0.04925512,0.047991917,0.054593015,0.053473823,0.0,0.0,0.0,0.0,2722.1067,3336.869,743.69604,842.3476,0.0,0.0,0.0,2.0,1.0,0.24543616,0.024807313,-0.024723172,93.0,93.0,93.0,93.0,21.775778,21.775778,24.740557,24.740557,0.014995771,0.0152153345,-4.0245792E-4,-4.0092913E-4,1199.0243,0.0,0.0,0.0,0.0,0.0,0.0,0.0,0.0,0.0,0.0,0.0,0.0,0.0,22.324415,2.2156339,88.36085,0.0012696553,-0.016212508,0.005483684,543361.1,119984.9,0.004006809,0.006092685,8382.717,8102.33,7538.9956,7024.288,0.29656124,0.0,0.0,0.0
120.642715,120.642715,1.333,0.0,0.0,328.36444,11718.0,100.0,0.0,0.15389746,0.0,8.0,1.0,0.0,4000000.0,110.0,1.0,0.0,0.0,10.0,0.0,0.0,-487.62857,61.07297,468.2007,-0.19620161,0.090400845,0.1367654,333.1617,333.13763,328.27347,328.19507,181.0,181.0,229.0,230.0,93.0,93.0,93.0,93.0,0.0,0.0,0.0,0.0,0.050025497,0.04980455,0.054982543,0.05443051,0.0,0.0,0.0,0.0,-2491.7852,-3745.2483,56.63486,-462.80167,0.0,0.0,0.0,2.0,1.0,0.24473763,0.025364568,-0.023923635,93.0,93.0,93.0,93.0,21.775778,21.775778,24.740557,24.740557,0.014505775,0.014617837,-4.023022E-4,-4.075986E-4,1199.0713,0.0,0.0,0.0,0.0,0.0,0.0,0.0,0.0,0.0,0.0,0.0,0.0,0.0,22.231459,2.250304,88.43297,0.03157514,-0.0118085835,-0.011621321,543336.06,119984.91,0.002048277,0.0032758017,8817.05,8638.179,7685.9683,7462.0527,0.29357147,0.0,0.0,0.0
125.21587,125.21587,1.383,0.0,0.0,328.49872,11730.0,100.0,0.0,0.02962104,0.0,8.0,1.0,0.0,4000000.0,110.0,1.0,0.0,0.0,10.0,0.0,0.0,-486.51886,61.18612,472.62387,-0.13952911,0.07110697,-0.27973467,333.47998,333.51608,328.38943,328.35626,180.0,180.0,228.0,229.0,93.0,93.0,93.0,93.0,0.0,0.0,0.0,0.0,0.048649,0.04838343,0.054639116,0.054281846,0.0,0.0,0.0,0.0,-1613.5094,-617.6323,-1275.9669,-493.33862,0.0,0.0,0.0,2.0,1.0,0.24433972,0.025333593,-0.022486687,93.0,93.0,93.0,93.0,21.775778,21.775778,24.740557,24.740557,0.0151279485,0.01529067,-3.7869383E-4,-3.8887822E-4,1199.7756,0.0,0.0,0.0,0.0,0.0,0.0,0.0,0.0,0.0,0.0,0.0,0.0,0.0,22.165617,2.224805,88.4886,0.022502378,-0.004175228,-0.0048595094,543099.06,119984.9,0.0061370544,0.008617677,8090.306,7906.5654,7081.498,6976.508,0.29708672,0.0,0.0,0.0
129.79146,129.79146,1.433,0.0,0.0,328.6419,11737.0,100.0,0.0,-0.08462545,0.0,8.0,1.0,0.0,4000000.0,110.0,1.0,0.0,0.0,10.0,0.0,0.0,-485.41156,61.292034,477.04974,-0.084543526,0.085418224,-0.37783855,333.64368,333.75018,328.50717,328.5187,179.0,179.0,227.0,228.0,93.0,93.0,93.0,93.0,0.0,0.0,0.0,0.0,0.04806698,0.048010554,0.05410173,0.05370196,0.0,0.0,0.0,0.0,2087.724,712.4617,227.63907,329.06674,0.0,0.0,0.0,2.0,1.0,0.24429505,0.024671579,-0.021839023,93.0,93.0,93.0,93.0,21.775778,21.775778,24.740557,24.740557,0.01531262,0.0155616645,-3.8104417E-4,-3.9343064E-4,1200.1876,0.0,0.0,0.0,0.0,0.0,0.0,0.0,0.0,0.0,0.0,0.0,0.0,0.0,22.132557,2.0274847,88.542625,-0.002355483,0.0024770987,-0.0122652305,542961.5,119984.9,0.0074064336,0.009308127,7948.494,7756.997,6972.8857,6777.73,0.29782867,0.0,0.0,0.0
134.36964,134.36964,1.483,0.0,0.0,328.8025,11733.0,100.0,0.0,-0.049676478,0.0,8.0,1.0,0.0,4000000.0,110.0,1.0,0.0,0.0,10.0,0.0,0.0,-484.30524,61.391174,481.4782,-0.037177786,0.08860045,-0.031006593,333.55865,333.59842,328.65677,328.6915,179.0,179.0,226.0,227.0,93.0,93.0,93.0,93.0,0.0,0.0,0.0,0.0,0.049748603,0.04989756,0.05408315,0.054210227,0.0,0.0,0.0,0.0,-1168.6652,-2400.389,-221.0006,-404.7319,0.0,0.0,0.0,2.0,1.0,0.24455522,0.024939746,-0.021634698,93.0,93.0,93.0,93.0,21.775778,21.775778,24.740557,24.740557,0.014569761,0.0145879425,-3.957767E-4,-3.9859835E-4,1199.9467,0.0,0.0,0.0,0.0,0.0,0.0,0.0,0.0,0.0,0.0,0.0,0.0,0.0,22.122168,1.9670178,88.592575,0.021801343,0.0066265734,-0.007368716,543037.56,119984.89,0.008014966,0.0067330077,8716.753,8656.76,7039.838,7129.2754,0.29696655,0.0,0.0,0.0
138.95023,138.95023,1.533,0.0,0.0,328.92807,11746.0,100.0,0.0,-0.10270073,0.0,8.0,1.0,0.0,4000000.0,110.0,1.0,0.0,0.0,10.0,0.0,0.0,-483.1989,61.488785,485.9088,0.001691062,0.066330425,-0.42726532,333.95273,333.97736,328.78757,328.82196,178.0,178.0,226.0,226.0,93.0,93.0,93.0,93.0,0.0,0.0,0.0,0.0,0.04819094,0.048187125,0.05380851,0.053975802,0.0,0.0,0.0,0.0,-2165.7224,-2288.1116,-2049.1135,-2008.9607,0.0,0.0,0.0,2.0,1.0,0.24487379,0.02443284,-0.020071626,93.0,93.0,93.0,93.0,21.775778,21.775778,24.740557,24.740557,0.015352711,0.015332652,-3.778884E-4,-3.838427E-4,1200.6952,0.0,0.0,0.0,0.0,0.0,0.0,0.0,0.0,0.0,0.0,0.0,0.0,0.0,22.127274,1.8916851,88.62891,0.029149083,0.006639205,-0.019746833,542774.94,119984.89,0.009636609,0.010635453,7782.8984,7779.698,6503.325,6572.875,0.30001736,0.0,0.0,0.0
143.53294,143.53294,1.583,0.0,0.0,329.06613,11742.0,100.0,0.0,-0.16752426,0.0,8.0,1.0,0.0,4000000.0,110.0,1.0,0.0,0.0,10.0,0.0,0.0,-482.09195,61.58026,490.34116,0.040472314,0.0831558,0.024603268,333.8323,333.85358,328.89355,328.95837,177.0,177.0,225.0,226.0,93.0,93.0,93.0,93.0,0.0,0.0,0.0,0.0,0.049825974,0.049902633,0.05466624,0.054886892,0.0,0.0,0.0,0.0,1937.1582,1646.6082,66.424934,-96.35833,0.0,0.0,0.0,2.0,1.0,0.24531159,0.024148695,-0.02041769,93.0,93.0,93.0,93.0,21.775778,21.775778,24.740557,24.740557,0.014701626,0.014598641,-4.0201136E-4,-4.072253E-4,1200.4597,0.0,0.0,0.0,0.0,0.0,0.0,0.0,0.0,0.0,0.0,0.0,0.0,0.0,22.153202,1.8147488,88.663574,-0.03996826,0.010156879,0.0087999245,542853.4,119984.9,0.006295953,0.007562816,8616.534,8683.749,7682.4585,7779.242,0.29660416,0.0,0.0,0.0
148.10756,148.10756,1.633,0.0,0.0,328.86575,11739.0,100.0,0.0,-0.10952002,0.0,8.0,1.0,0.0,4000000.0,110.0,1.0,0.0,0.0,10.0,0.0,0.0,-480.98453,61.673775,494.77405,-0.23878016,-0.4258055,0.9132356,333.7734,333.75604,328.76923,328.77563,176.0,177.0,224.0,225.0,93.0,93.0,93.0,93.0,0.0,0.0,0.0,0.0,0.049720343,0.04961214,0.054582864,0.05460622,0.0,0.0,0.0,0.0,-2821.8044,-4193.5527,-1301.515,-2219.501,0.0,0.0,0.0,2.0,1.0,0.245726,0.023636237,-0.020831823,93.0,93.0,93.0,93.0,21.775778,21.775778,24.740557,24.740557,0.014869421,0.014855395,-4.4270474E-4,-4.5356207E-4,1200.2767,0.0,0.0,0.0,0.0,0.0,0.0,0.0,0.0,0.0,0.0,0.0,0.0,0.0,22.106127,2.0039704,88.61387,-0.018390711,-9.3472196E-4,-0.028905457,542909.3,119984.89,0.0016799906,0.0037778765,8550.846,8555.449,7266.0146,7198.6436,0.29180908,0.0,0.0,0.0
152.67513,152.67513,1.683,0.0,0.0,328.7196,11744.0,100.0,0.0,-0.071438864,0.0,8.0,1.0,0.0,4000000.0,110.0,1.0,0.0,0.0,10.0,0.0,0.0,-479.87866,61.772526,499.20486,-0.021668129,-0.07193376,-0.13017844,333.90332,333.8805,328.73822,328.74335,176.0,176.0,223.0,224.0,93.0,93.0,93.0,93.0,0.0,0.0,0.0,0.0,0.048386134,0.04837915,0.053492364,0.053546283,0.0,0.0,0.0,0.0,80.62717,-302.35196,-290.36246,-286.1246,0.0,0.0,0.0,2.0,1.0,0.24574895,0.023628158,-0.020630121,93.0,93.0,93.0,93.0,21.775778,21.775778,24.740557,24.740557,0.015323016,0.015291823,-3.9733903E-4,-4.024207E-4,1200.6028,0.0,0.0,0.0,0.0,0.0,0.0,0.0,0.0,0.0,0.0,0.0,0.0,0.0,22.08456,2.0038598,88.5774,0.005281871,-1.0123229E-4,-0.013958346,542825.56,119984.9,0.002373835,0.004257987,7955.284,7971.193,6358.384,6384.318,0.2908888,0.0,0.0,0.0
157.24176,157.24176,1.733,0.0,0.0,328.88675,11744.0,100.0,0.0,-0.059450936,0.0,8.0,1.0,0.0,4000000.0,110.0,1.0,0.0,0.0,10.0,0.0,0.0,-478.77292,61.871067,503.6348,0.07657843,0.07728728,-0.4000155,333.9275,333.87265,328.76096,328.76923,175.0,175.0,222.0,223.0,93.0,93.0,93.0,93.0,0.0,0.0,0.0,0.0,0.048222035,0.048647452,0.05340346,0.053947467,0.0,0.0,0.0,0.0,-788.2207,-1908.8073,-421.91138,-749.8516,0.0,0.0,0.0,2.0,1.0,0.24581683,0.024285354,-0.019546151,93.0,93.0,93.0,93.0,21.775778,21.775778,24.740557,24.740557,0.015308775,0.01513267,-3.7755267E-4,-3.849605E-4,1200.5906,0.0,0.0,0.0,0.0,0.0,0.0,0.0,0.0,0.0,0.0,0.0,0.0,0.0,22.140997,1.9018859,88.61343,0.04539417,0.0026258305,-0.008308046,542820.06,119984.9,0.006660861,0.008299333,7861.3354,8056.8975,6423.947,6712.3765,0.2937193,0.0,0.0,0.0
161.81052,161.81052,1.783,0.0,0.0,329.04153,11756.0,100.0,0.0,-0.22059885,0.0,8.0,1.0,0.0,4000000.0,110.0,1.0,0.0,0.0,10.0,0.0,0.0,-477.66446,61.95787,508.06635,0.077250816,0.10885427,-0.65067977,334.24283,334.24722,328.8921,328.94095,174.0,174.0,222.0,222.0,93.0,93.0,93.0,93.0,0.0,0.0,0.0,0.0,0.045800142,0.046106007,0.052837394,0.053305164,0.0,0.0,0.0,0.0,4065.6248,3974.9658,1429.738,1789.1136,0.0,0.0,0.0,2.0,1.0,0.2461209,0.023918519,-0.01701212,93.0,93.0,93.0,93.0,21.775778,21.775778,24.740557,24.740557,0.0160116,0.015892267,-3.8389745E-4,-4.0289684E-4,1201.299,0.0,0.0,0.0,0.0,0.0,0.0,0.0,0.0,0.0,0.0,0.0,0.0,0.0,22.196522,1.5770973,88.65024,0.043604787,0.009981724,-0.015684336,542585.94,119984.9,0.0060955808,0.009033148,7409.88,7479.9375,6292.552,6507.251,0.29463005,0.0,0.0,0.0
166.37975,166.37975,1.833,0.0,0.0,328.93692,11748.0,100.0,0.0,-0.2605064,0.0,8.0,1.0,0.0,4000000.0,110.0,1.0,0.0,0.0,10.0,0.0,0.0,-476.55484,62.034973,512.49817,-0.040614698,-0.13441004,-0.07848332,334.03806,334.01904,328.79074,328.814,174.0,174.0,221.0,222.0,93.0,93.0,93.0,93.0,0.0,0.0,0.0,0.0,0.04764235,0.047668118,0.053064026,0.05349017,0.0,0.0,0.0,0.0,-2040.5304,-2370.4556,-577.788,-757.3216,0.0,0.0,0.0,2.0,1.0,0.24640325,0.023285938,-0.015993714,93.0,93.0,93.0,93.0,21.775778,21.775778,24.740557,24.740557,0.015652275,0.01556435,-3.9899806E-4,-4.2725125E-4,1200.8032,0.0,0.0,0.0,0.0,0.0,0.0,0.0,0.0,0.0,0.0,0.0,0.0,0.0,22.186968,1.507122,88.623886,0.024265533,0.0056344857,-0.01467317,542731.4,119984.89,0.00476299,0.006196536,7716.066,7746.3687,6269.835,6437.1753,0.29328156,0.0,0.0,0.0
170.94879,170.94879,1.883,0.0,0.0,329.0275,11743.0,100.0,0.0,-0.19078746,0.0,8.0,1.0,0.0,4000000.0,110.0,1.0,0.0,0.0,10.0,0.0,0.0,-475.44452,62.10676,516.9297,0.10091419,0.10564419,-0.116079025,333.8763,333.8704,328.87994,328.91467,173.0,173.0,220.0,221.0,93.0,93.0,93.0,93.0,0.0,0.0,0.0,0.0,0.049800113,0.05000689,0.053555407,0.05400226,0.0,0.0,0.0,0.0,4487.9385,6991.1367,2280.8967,3805.5984,0.0,0.0,0.0,2.0,1.0,0.24668056,0.022566305,-0.01499486,93.0,93.0,93.0,93.0,21.775778,21.775778,24.740557,24.740557,0.014813518,0.01467284,-3.9056415E-4,-4.075595E-4,1200.5212,0.0,0.0,0.0,0.0,0.0,0.0,0.0,0.0,0.0,0.0,0.0,0.0,0.0,22.228367,1.3902774,88.641365,0.020427039,0.0068817185,-0.010926721,542834.94,119984.9,0.0045999032,0.0049732253,8544.75,8716.746,7142.199,7408.236,0.29354477,0.0,0.0,0.0
175.51979,175.51979,1.933,0.0,0.0,329.1855,11753.0,100.0,0.0,-0.13588311,0.0,8.0,1.0,0.0,4000000.0,110.0,1.0,0.0,0.0,10.0,0.0,0.0,-474.33167,62.17446,521.3627,0.08431682,0.084597506,-0.30795982,334.1662,334.15356,329.03366,329.087,172.0,172.0,219.0,220.0,93.0,93.0,93.0,93.0,0.0,0.0,0.0,0.0,0.048340965,0.04858427,0.053814963,0.054146383,0.0,0.0,0.0,0.0,1095.2263,1764.4373,74.06919,256.8349,0.0,0.0,0.0,2.0,1.0,0.24715771,0.022222,-0.0129157305,93.0,93.0,93.0,93.0,21.775778,21.775778,24.740557,24.740557,0.015212766,0.015029772,-3.9070492E-4,-3.9283876E-4,1201.1123,0.0,0.0,0.0,0.0,0.0,0.0,0.0,0.0,0.0,0.0,0.0,0.0,0.0,22.282713,1.2922056,88.67446,0.042430285,0.009869531,-0.013254805,542640.1,119984.89,0.0057764873,0.007760932,7964.9414,8152.738,6902.3223,7044.431,0.29617214,0.0,0.0,0.0
180.09296,180.09296,1.983,0.0,0.0,329.35565,11761.0,100.0,0.0,-0.2668822,0.0,8.0,1.0,0.0,4000000.0,110.0,1.0,0.0,0.0,10.0,0.0,0.0,-473.2159,62.231045,525.7973,0.103264645,0.106283486,-0.35311615,334.37448,334.37387,329.18643,329.26364,171.0,171.0,218.0,219.0,93.0,93.0,93.0,93.0,0.0,0.0,0.0,0.0,0.046971057,0.047622155,0.053565644,0.053927943,0.0,0.0,0.0,0.0,3352.7476,3580.6147,998.59973,1069.933,0.0,0.0,0.0,2.0,1.0,0.24774641,0.022598539,-0.011042833,93.0,93.0,93.0,93.0,21.775778,21.775778,24.740557,24.740557,0.015420163,0.015213167,-3.9264758E-4,-4.089881E-4,1201.6101,0.0,0.0,0.0,0.0,0.0,0.0,0.0,0.0,0.0,0.0,0.0,0.0,0.0,22.346272,1.027036,88.710686,0.025719509,0.014311218,0.008988157,542495.75,119984.9,0.0038801867,0.0065905103,7843.2256,8013.8066,6944.998,7115.964,0.29453373,0.0,0.0,0.0
184.66833,184.66833,2.033,0.0,0.0,329.46878,11760.0,100.0,0.0,-0.32070667,0.0,8.0,1.0,0.0,4000000.0,110.0,1.0,0.0,0.0,10.0,0.0,0.0,-472.09695,62.28019,530.2335,0.068751395,0.011789322,0.04777548,334.38626,334.3281,329.32452,329.3765,171.0,171.0,218.0,219.0,93.0,93.0,93.0,93.0,0.0,0.0,0.0,0.0,0.049127877,0.04954922,0.053935092,0.054332692,0.0,0.0,0.0,0.0,-2815.2598,-3354.786,-778.06854,-1115.5171,0.0,0.0,0.0,2.0,1.0,0.24845055,0.023128198,-0.010236859,93.0,93.0,93.0,93.0,21.775778,21.775778,24.740557,24.740557,0.015003373,0.014689895,-3.9669755E-4,-4.2937024E-4,1201.5271,0.0,0.0,0.0,0.0,0.0,0.0,0.0,0.0,0.0,0.0,0.0,0.0,0.0,22.400816,0.97721714,88.729904,0.025330473,0.008236142,-0.0017493037,542504.4,119984.9,0.0029537552,0.0037148346,8182.699,8535.02,6961.804,7124.1074,0.29266548,0.0,0.0,0.0
189.24529,189.24529,2.083,0.0,0.0,329.62494,11770.0,100.0,0.0,-0.30611953,0.0,8.0,1.0,0.0,4000000.0,110.0,1.0,0.0,0.0,10.0,0.0,0.0,-470.975,62.328243,534.6707,0.12750372,0.079151765,-0.34671193,334.6458,334.63086,329.44812,329.5535,170.0,170.0,217.0,218.0,93.0,93.0,93.0,93.0,0.0,0.0,0.0,0.0,0.04815534,0.048677284,0.053887278,0.054281726,0.0,0.0,0.0,0.0,-931.07526,-1000.94653,-763.63824,-702.7655,0.0,0.0,0.0,2.0,1.0,0.24919441,0.023752647,-0.008327603,93.0,93.0,93.0,93.0,21.775778,21.775778,24.740557,24.740557,0.015350975,0.015014153,-3.7978607E-4,-3.9165374E-4,1202.1345,0.0,0.0,0.0,0.0,0.0,0.0,0.0,0.0,0.0,0.0,0.0,0.0,0.0,22.473864,0.9056318,88.756935,0.04672032,0.019303283,0.0022856006,542317.5,119984.9,0.0064683245,0.0082598105,7792.2593,8125.422,6762.0576,6947.47,0.29678822,0.0,0.0,0.0
193.8243,193.8243,2.133,0.0,0.0,329.77628,11777.0,100.0,0.0,-0.22864643,0.0,8.0,1.0,0.0,4000000.0,110.0,1.0,0.0,0.0,10.0,0.0,0.0,-469.84933,62.367344,539.10925,0.13093887,0.09519394,-0.4606433,334.8409,334.8482,329.59827,329.69547,169.0,169.0,216.0,217.0,93.0,93.0,93.0,93.0,0.0,0.0,0.0,0.0,0.04698967,0.047864787,0.053440012,0.053932037,0.0,0.0,0.0,0.0,2364.3672,2461.6106,422.64905,386.96222,0.0,0.0,0.0,2.0,1.0,0.25009024,0.024165047,-0.0068223476,93.0,93.0,93.0,93.0,21.775778,21.775778,24.740557,24.740557,0.015592569,0.0153557295,-3.9080286E-4,-3.9439113E-4,1202.5406,0.0,0.0,0.0,0.0,0.0,0.0,0.0,0.0,0.0,0.0,0.0,0.0,0.0,22.55043,0.67150533,88.78297,0.01798233,0.016807325,0.0055070464,542178.25,119984.9,0.008131466,0.0100141065,7671.3145,7918.632,6631.9053,6860.668,0.2993002,0.0,0.0,0.0
198.40555,198.40555,2.183,0.0,0.0,329.93912,11775.0,100.0,0.0,-0.2913209,0.0,8.0,1.0,0.0,4000000.0,110.0,1.0,0.0,0.0,10.0,0.0,0.0,-468.71964,62.39757,543.54913,0.15302914,0.09251654,-0.08136563,334.76434,334.7641,329.74615,329.86133,169.0,169.0,215.0,216.0,93.0,93.0,93.0,93.0,0.0,0.0,0.0,0.0,0.04933121,0.04978322,0.054037035,0.054639347,0.0,0.0,0.0,0.0,-620.6094,-200.17317,210.87529,182.01472,0.0,0.0,0.0,2.0,1.0,0.25100076,0.024521042,-0.006467581,93.0,93.0,93.0,93.0,21.775778,21.775778,24.740557,24.740557,0.014869195,0.014555142,-4.0127107E-4,-4.0831245E-4,1202.4458,0.0,0.0,0.0,0.0,0.0,0.0,0.0,0.0,0.0,0.0,0.0,0.0,0.0,22.634628,0.57235473,88.808914,6.593459E-4,0.019549537,-5.516119E-4,542227.56,119984.9,0.0061983154,0.0071343756,8313.04,8716.08,7252.81,7525.5713,0.29798126,0.0,0.0,0.0
202.98877,202.98877,2.233,0.0,0.0,330.09055,11776.0,100.0,0.0,-0.33017123,0.0,8.0,1.0,0.0,4000000.0,110.0,1.0,0.0,0.0,10.0,0.0,0.0,-467.58563,62.42708,547.9902,0.1701371,0.08247714,0.08711538,334.79694,334.81747,329.89124,330.01837,168.0,168.0,215.0,215.0,93.0,93.0,93.0,93.0,0.0,0.0,0.0,0.0,0.04990396,0.050273653,0.054579806,0.05529042,0.0,0.0,0.0,0.0,-497.26807,-788.7303,-584.53375,-614.45374,0.0,0.0,0.0,2.0,1.0,0.25202534,0.024590913,-0.006413698,93.0,93.0,93.0,93.0,21.775778,21.775778,24.740557,24.740557,0.01445582,0.014188899,-4.0109345E-4,-4.10504E-4,1202.4788,0.0,0.0,0.0,0.0,0.0,0.0,0.0,0.0,0.0,0.0,0.0,0.0,0.0,22.722105,0.61127585,88.829735,0.0039220015,0.021732489,0.0015481961,542196.4,119984.91,0.004660995,0.0056804344,8755.049,9044.508,7470.589,7795.148,0.29705524,0.0,0.0,0.0
207.57382,207.57382,2.283,0.0,0.0,330.23145,11782.0,100.0,0.0,-0.23555152,0.0,8.0,1.0,0.0,4000000.0,110.0,1.0,0.0,0.0,10.0,0.0,0.0,-466.4471,62.458458,552.432,0.16513483,0.0805602,0.028931716,334.9079,335.0268,330.03513,330.15485,167.0,167.0,214.0,215.0,93.0,93.0,93.0,93.0,0.0,0.0,0.0,0.0,0.049752668,0.049878273,0.054531816,0.055457253,0.0,0.0,0.0,0.0,866.3266,-196.51201,-9.199976,-227.77318,0.0,0.0,0.0,2.0,1.0,0.25309482,0.024271842,-0.0062664747,93.0,93.0,93.0,93.0,21.775778,21.775778,24.740557,24.740557,0.014462666,0.014392889,-4.0243074E-4,-4.0675365E-4,1202.8511,0.0,0.0,0.0,0.0,0.0,0.0,0.0,0.0,0.0,0.0,0.0,0.0,0.0,22.812166,0.6377188,88.84687,-0.0030964855,0.020240108,-0.012548759,542088.06,119984.9,0.004674264,0.005669343,8733.088,8845.887,7410.079,7831.6465,0.2974491,0.0,0.0,0.0
212.16168,212.16168,2.333,0.0,0.0,330.37833,11790.0,100.0,0.0,-0.17111456,0.0,8.0,1.0,0.0,4000000.0,110.0,1.0,0.0,0.0,10.0,0.0,0.0,-465.30408,62.488266,556.8749,0.15988201,0.08666098,-0.105802365,335.202,335.23337,330.1947,330.2911,167.0,167.0,213.0,214.0,93.0,93.0,93.0,93.0,0.0,0.0,0.0,0.0,0.049159262,0.04940192,0.054130692,0.055150945,0.0,0.0,0.0,0.0,2538.2278,439.82858,664.77203,-10.138749,0.0,0.0,0.0,2.0,1.0,0.25399965,0.023521423,-0.005939245,93.0,93.0,93.0,93.0,21.775778,21.775778,24.740557,24.740557,0.014769277,0.014637064,-4.0276872E-4,-4.0230027E-4,1203.2981,0.0,0.0,0.0,0.0,0.0,0.0,0.0,0.0,0.0,0.0,0.0,0.0,0.0,22.903084,0.5665416,88.8661,-0.007435607,0.015701266,-0.028352391,541921.56,119984.9,0.0041426383,0.0058085346,8385.797,8560.994,7222.7725,7658.873,0.29659462,0.0,0.0,0.0
216.75208,216.75208,2.383,0.0,0.0,330.53415,11794.0,100.0,0.0,-0.19858657,0.0,8.0,1.0,0.0,4000000.0,110.0,1.0,0.0,0.0,10.0,0.0,0.0,-464.15662,62.516087,561.3188,0.15472974,0.085393995,-0.039113164,335.31458,335.33237,330.36282,330.4415,166.0,166.0,212.0,213.0,93.0,93.0,93.0,93.0,0.0,0.0,0.0,0.0,0.04957454,0.049784146,0.05425689,0.054972436,0.0,0.0,0.0,0.0,-1239.4083,-1396.7334,-231.91718,-19.88857,0.0,0.0,0.0,2.0,1.0,0.2547016,0.022505693,-0.0054870844,93.0,93.0,93.0,93.0,21.775778,21.775778,24.740557,24.740557,0.014574698,0.014444673,-3.9853939E-4,-4.0516874E-4,1203.5453,0.0,0.0,0.0,0.0,0.0,0.0,0.0,0.0,0.0,0.0,0.0,0.0,0.0,22.98892,0.54908925,88.88875,0.01822119,0.013666136,-0.016300052,541849.06,119984.89,0.0048916833,0.00535015,8556.42,8740.742,7198.353,7514.601,0.29562283,0.0,0.0,0.0
221.34439,221.34439,2.433,0.0,0.0,330.67203,11804.0,100.0,0.0,-0.24082379,0.0,8.0,1.0,0.0,4000000.0,110.0,1.0,0.0,0.0,10.0,0.0,0.0,-463.00497,62.54193,565.7638,0.1525841,0.07637963,-0.2206749,335.5923,335.60052,330.49692,330.58588,165.0,165.0,212.0,212.0,93.0,93.0,93.0,93.0,0.0,0.0,0.0,0.0,0.048606686,0.04895569,0.05405658,0.054868374,0.0,0.0,0.0,0.0,369.2865,285.38702,-15.181302,81.4855,0.0,0.0,0.0,2.0,1.0,0.25543672,0.022231603,-0.0041850805,93.0,93.0,93.0,93.0,21.775778,21.775778,24.740557,24.740557,0.01502708,0.014817865,-3.881978E-4,-4.003969E-4,1204.162,0.0,0.0,0.0,0.0,0.0,0.0,0.0,0.0,0.0,0.0,0.0,0.0,0.0,23.073158,0.4735319,88.90693,0.014402864,0.01565209,-0.014127022,541667.44,119984.9,0.0064367624,0.008349274,8077.208,8331.245,7065.9077,7452.4155,0.29714775,0.0,0.0,0.0
225.93846,225.93846,2.483,0.0,0.0,330.80753,11802.0,100.0,0.0,-0.23135626,0.0,8.0,1.0,0.0,4000000.0,110.0,1.0,0.0,0.0,10.0,0.0,0.0,-461.84918,62.564056,570.20966,0.14649872,0.0763112,0.028880883,335.54276,335.56683,330.62717,330.71814,164.0,164.0,211.0,212.0,93.0,93.0,93.0,93.0,0.0,0.0,0.0,0.0,0.050007302,0.050144866,0.054365154,0.055155944,0.0,0.0,0.0,0.0,-1822.7755,-3228.977,-988.98395,-2027.9376,0.0,0.0,0.0,2.0,1.0,0.25620842,0.020947495,-0.004282832,93.0,93.0,93.0,93.0,21.775778,21.775778,24.740557,24.740557,0.014494053,0.014344303,-3.961137E-4,-4.0168827E-4,1204.0111,0.0,0.0,0.0,0.0,0.0,0.0,0.0,0.0,0.0,0.0,0.0,0.0,0.0,23.15361,0.44224477,88.925064,-0.01615536,0.014991806,-0.031675883,541691.3,119984.9,0.00877037,0.008682917,8673.883,8861.771,7295.152,7602.783,0.30061817,0.0,0.0,0.0
230.53397,230.53397,2.533,0.0,0.0,330.9185,11807.0,100.0,0.0,-0.2555874,0.0,8.0,1.0,0.0,4000000.0,110.0,1.0,0.0,0.0,10.0,0.0,0.0,-460.68945,62.586327,574.6561,0.1523236,0.058395684,0.032566044,335.66663,335.72012,330.73456,330.83032,164.0,164.0,210.0,211.0,93.0,93.0,93.0,93.0,0.0,0.0,0.0,0.0,0.04963384,0.04973261,0.05446221,0.055460766,0.0,0.0,0.0,0.0,477.59412,404.2088,-62.924618,361.41425,0.0,0.0,0.0,2.0,1.0,0.2569838,0.019927189,-0.0045380592,93.0,93.0,93.0,93.0,21.775778,21.775778,24.740557,24.740557,0.014528133,0.014435781,-3.879397E-4,-4.0308302E-4,1204.3142,0.0,0.0,0.0,0.0,0.0,0.0,0.0,0.0,0.0,0.0,0.0,0.0,0.0,23.232416,0.45133737,88.93632,-0.025077838,0.016165838,-0.015261632,541598.25,119984.9,0.009444437,0.010820773,8643.82,8760.354,7467.142,7960.757,0.3028288,0.0,0.0,0.0
235.13113,235.13113,2.583,0.0,0.0,331.00354,11804.0,100.0,2.045597,-0.25986016,0.0,8.0,1.0,0.0,4000000.0,110.0,1.0,0.0,0.0,10.0,0.0,0.0,-459.5257,62.61015,579.1034,0.157269,0.02190549,-0.10775811,335.54642,335.64694,330.6347,330.75635,164.0,164.0,210.0,211.0,93.0,93.0,93.0,93.0,0.0,0.0,0.0,0.0,0.049893185,0.04971591,0.054053333,0.055400338,0.0,0.0,0.0,0.0,-4851.633,-5807.1562,-2407.859,-2842.2695,0.0,0.0,0.0,2.0,1.0,0.25788087,0.018126475,-0.0060566664,93.0,93.0,93.0,93.0,21.775778,21.775778,24.740557,24.740557,0.013997779,0.013988305,-9.4337686E-4,-9.33764E-4,1204.1522,0.0,0.0,0.0,0.0,0.0,0.0,0.0,0.0,0.0,0.0,0.0,0.0,0.0,23.313408,0.48031056,88.93939,-0.02992872,0.019040367,-0.042139016,541663.06,119984.9,0.0079615805,0.008241418,8596.271,8568.33,6759.8516,7370.633,0.30101013,0.0,0.0,0.0
239.7226,239.7226,2.633,0.0,0.0,329.96722,11661.0,88.5481,22.74961,-0.26410776,0.0,8.0,0.0,1.0,4000000.0,110.0,1.0,0.0,0.0,10.0,0.0,0.0,-458.35956,62.6358,583.54425,0.16976483,-0.86261827,0.36188143,331.48563,331.5812,328.03918,328.2257,176.0,176.0,221.0,221.0,93.0,93.0,93.0,93.0,0.0,0.0,0.0,0.0,0.0518074,0.051419403,0.054782927,0.05641258,0.0,0.0,0.0,0.0,-581.54315,-2196.6887,148.40651,-357.87366,0.0,0.0,0.0,2.0,1.0,0.2588629,0.015290455,-0.006804228,93.0,93.0,93.0,93.0,21.775778,21.775778,24.740557,24.740557,0.004973393,0.004962309,-0.0057184976,-0.005510685,1195.6906,0.0,0.0,0.0,0.0,0.0,0.0,0.0,0.0,0.0,0.0,0.0,0.0,0.0,23.31782,0.58205724,88.64,-0.031163149,0.019716203,-0.064700395,544452.5,0.0,0.0036534807,0.00401742,9633.032,9502.404,8291.646,9029.749,0.29670143,0.0,0.0,0.0
244.2858,244.2858,2.683,0.0,0.0,327.03235,11497.0,56.12116,46.365444,-0.3860353,0.0,8.0,0.0,1.0,4000000.0,110.0,1.0,0.0,0.0,10.0,0.0,0.0,-457.19647,62.673286,587.95685,0.1966247,-1.9737022,0.29915187,325.55475,325.6352,323.30612,323.6017,204.0,204.0,246.0,246.0,93.0,93.0,93.0,93.0,0.0,0.0,0.0,0.0,0.05180446,0.05125632,0.055426084,0.057132106,0.0,0.0,0.0,0.0,578.3647,-868.45886,-800.70636,-1399.952,0.0,0.0,0.0,2.0,1.0,0.25994146,0.011476713,-0.007377982,93.0,93.0,93.0,93.0,21.775778,21.775778,24.740557,24.740557,-0.004147368,-0.004274631,-0.0112327775,-0.01078531,1185.9177,0.0,0.0,0.0,0.0,0.0,0.0,0.0,0.0,0.0,0.0,0.0,0.0,0.0,23.194275,0.85100716,87.82726,-0.024186641,0.023683988,-0.0731958,547705.44,0.0,0.0044608884,0.0073327892,9690.66,9470.443,8699.348,9448.684,0.29903316,0.0,0.0,0.0
248.79718,248.79718,2.733,0.0,0.0,322.65158,11252.0,31.859312,65.53871,-0.51965636,0.0,8.0,0.0,1.0,4000000.0,110.0,1.0,0.0,0.0,10.0,0.0,0.0,-456.04172,62.716946,592.3182,0.24240193,-2.7934887,0.08969051,318.92245,319.026,317.19064,317.68716,242.0,242.0,281.0,282.0,93.0,93.0,93.0,93.0,0.0,0.0,0.0,0.0,0.05128415,0.050876718,0.054825738,0.0567555,0.0,0.0,0.0,0.0,3593.6099,2603.553,-27.35853,-131.6428,0.0,0.0,0.0,2.0,1.0,0.2614082,0.0077903583,-0.009165168,93.0,93.0,93.0,93.0,21.775778,21.775778,24.740557,24.740557,-0.011006381,-0.01121619,-0.016672658,-0.015769003,1165.3518,0.0,0.0,0.0,0.0,0.0,0.0,0.0,0.0,0.0,0.0,0.0,0.0,0.0,22.989004,0.88791347,86.62238,-0.07536465,0.032552507,-0.058938123,549926.1,0.0,0.002742059,0.0073091635,9248.646,9148.262,8711.374,9610.801,0.29945755,0.0,0.0,0.0
253.23578,253.23578,2.783,0.0,0.0,316.60577,10956.0,11.790646,92.68383,-0.7262484,0.0,8.0,0.0,1.0,4000000.0,110.0,1.0,0.0,0.0,10.0,0.0,0.0,-454.89987,62.765347,596.6079,0.30063093,-3.7671616,0.61219084,310.67465,310.78955,308.3727,309.2045,290.0,290.0,329.0,330.0,93.0,93.0,93.0,93.0,0.0,0.0,0.0,0.0,0.05267659,0.05243293,0.05458212,0.056822542,0.0,0.0,0.0,0.0,-1972.1876,-2209.389,-359.2148,-452.58246,0.0,0.0,0.0,2.0,1.0,0.26322374,0.004161297,-0.011538982,93.0,93.0,93.0,93.0,21.775778,21.775778,24.740557,24.740557,-0.018192412,-0.018471481,-0.025791653,-0.024023004,1132.5676,0.0,0.0,0.0,0.0,0.0,0.0,0.0,0.0,0.0,0.0,0.0,0.0,0.0,22.674965,1.1010501,84.96553,-0.037860826,0.029489718,-0.069295965,548894.8,0.0,0.0,0.0020344504,9828.8955,9782.8955,9166.747,10219.761,0.2942953,0.0,0.0,0.0
257.57718,257.57718,2.833,0.0,0.0,309.10434,10616.0,0.0,100.0,-0.9776811,0.0,8.0,0.0,1.0,4000000.0,110.0,1.0,0.0,0.0,10.0,0.0,0.0,-453.7769,62.826775,600.8023,0.3140725,-4.2484946,0.006880693,301.35797,301.40704,299.08478,300.29346,342.0,343.0,385.0,386.0,93.0,93.0,93.0,93.0,0.0,0.0,0.0,0.0,0.0497666,0.049401786,0.053230934,0.055623278,0.0,0.0,0.0,0.0,137.31535,73.17077,799.59314,-526.3299,0.0,0.0,0.0,2.0,1.0,0.26457405,-4.298818E-4,-0.011738896,93.0,93.0,93.0,93.0,21.775778,21.775778,24.740557,24.740557,-0.024546027,-0.024922876,-0.031986535,-0.028864881,1085.5934,0.0,0.0,0.0,0.0,0.0,0.0,0.0,0.0,0.0,0.0,0.0,0.0,0.0,22.26612,1.264419,82.91537,-0.011595859,0.033804778,-0.09315902,542979.3,0.0,0.0027617987,0.0075896457,8168.3066,8121.3926,8137.5073,9181.019,0.29662514,0.0,0.0,0.0
261.81387,261.81387,2.883,0.0,0.0,301.60544,10333.0,0.0,100.0,-1.2675955,0.0,8.0,0.0,1.0,4000000.0,110.0,1.0,0.0,0.0,10.0,0.0,0.0,-452.6736,62.887203,604.89386,0.40850937,-4.246461,-0.20952258,293.32407,293.49725,291.23892,292.91122,390.0,390.0,435.0,436.0,93.0,93.0,93.0,93.0,0.0,0.0,0.0,0.0,0.048118293,0.047705002,0.052341778,0.05484219,0.0,0.0,0.0,0.0,357.43112,1786.1365,-382.38904,345.61603,0.0,0.0,0.0,2.0,1.0,0.2672477,-0.0048806407,-0.010998607,93.0,93.0,93.0,93.0,21.775778,21.775778,24.740557,24.740557,-0.026820006,-0.027395278,-0.03359888,-0.029514344,1036.6715,0.0,0.0,0.0,0.0,0.0,0.0,0.0,0.0,0.0,0.0,0.0,0.0,0.0,21.892385,1.1518254,80.86016,-0.004550929,0.06737101,-0.07460188,532711.1,0.0,0.005911193,0.01163875,7287.7827,7388.3633,7751.273,8946.399,0.29894066,0.0,0.0,0.0
265.94574,265.94574,2.933,0.0,0.0,294.13034,10066.0,0.0,100.0,-1.5336891,0.0,8.0,0.0,1.0,4000000.0,110.0,1.0,0.0,0.0,10.0,0.0,0.0,-451.58774,62.942265,608.8824,0.54157233,-4.20365,-0.17853975,285.68057,285.96286,283.4439,285.68134,433.0,433.0,479.0,481.0,93.0,93.0,93.0,93.0,0.0,0.0,0.0,0.0,0.047274604,0.04698242,0.051675253,0.05473316,0.0,0.0,0.0,0.0,-1348.1318,-875.76794,-513.71,-771.02765,0.0,0.0,0.0,2.0,1.0,0.27126542,-0.008922588,-0.010121584,93.0,93.0,93.0,93.0,21.775778,21.775778,24.740557,24.740557,-0.027878242,-0.028498556,-0.03532159,-0.029714674,984.87006,0.0,0.0,0.0,0.0,0.0,0.0,0.0,0.0,0.0,0.0,0.0,0.0,0.0,21.571947,1.0549055,78.796555,-0.0018048678,0.08950354,-0.077210516,519516.1,0.0,0.007168241,0.013769043,6850.8203,7118.2803,7410.2573,8834.621,0.30080986,0.0,0.0,0.0
269.9594,269.9594,2.983,0.0,0.0,286.64987,9814.0,0.0,100.0,-1.9064866,0.0,8.0,0.0,1.0,4000000.0,110.0,1.0,0.0,0.0,10.0,0.0,0.0,-450.51617,62.99385,612.7673,0.71510327,-4.248725,0.17190175,278.48602,278.8974,276.56396,278.9465,472.0,472.0,520.0,521.0,93.0,93.0,93.0,93.0,0.0,0.0,0.0,0.0,0.04660842,0.047041,0.051636565,0.055461723,0.0,0.0,0.0,0.0,1322.1814,2556.574,1063.9382,544.314,0.0,0.0,0.0,2.0,1.0,0.27633023,-0.013048003,-0.0095671415,93.0,93.0,93.0,93.0,21.775778,21.775778,24.740557,24.740557,-0.027460907,-0.027965084,-0.033802703,-0.027830588,927.4961,0.0,0.0,0.0,0.0,0.0,0.0,0.0,0.0,0.0,0.0,0.0,0.0,0.0,21.317503,1.0397528,76.711266,-0.024985515,0.10989514,-0.079243064,501814.3,0.0,0.007859473,0.015088223,7068.7417,7642.3687,7830.414,9624.742,0.30247307,0.0,0.0,0.0
273.86957,273.86957,3.033,0.0,0.0,279.2788,10454.0,0.0,100.0,-2.2839658,0.0,8.0,0.0,1.0,4000000.0,110.0,1.0,0.0,0.0,10.0,0.0,0.0,-449.4555,63.046566,616.5481,0.8522934,-4.1652665,0.022934012,270.841,271.29422,268.08124,271.457,507.0,507.0,556.0,558.0,93.0,93.0,93.0,93.0,0.0,0.0,0.0,0.0,0.045576457,0.046287954,0.05075476,0.055201016,0.0,0.0,0.0,0.0,-921.1777,-1419.3982,377.05154,-566.97864,0.0,0.0,0.0,2.0,1.0,0.28238255,-0.01784154,-0.0097721815,93.0,93.0,93.0,93.0,21.775778,21.775778,24.740557,24.740557,-0.028862335,-0.029634044,-0.038429156,-0.02934292,1060.5764,0.0,0.0,0.0,0.0,0.0,0.0,0.0,0.0,0.0,0.0,0.0,0.0,0.0,21.131788,1.0536978,74.63644,-0.022511657,0.12969883,-0.08262828,538687.0,0.0,0.011123651,0.018382527,6510.982,7056.9014,6960.1797,8985.758,0.30687523,0.0,0.0,0.0
277.6778,277.6778,3.083,0.0,0.0,272.0824,10472.0,0.0,100.0,-2.7497346,0.0,7.0,0.0,1.0,4000000.0,110.0,1.0,0.0,0.0,10.0,0.0,0.0,-448.40225,63.099,620.22546,1.0128545,-4.016402,0.05310969,264.03177,264.7905,260.1996,264.51486,539.0,539.0,588.0,590.0,93.0,93.0,93.0,93.0,0.0,0.0,0.0,0.0,0.0434352,0.044697106,0.049929906,0.055287797,0.0,0.0,0.0,0.0,1089.1779,-353.43463,233.9289,-383.22055,0.0,0.0,0.0,2.0,1.0,0.2895241,-0.022717757,-0.009895325,93.0,93.0,93.0,93.0,21.775778,21.775778,24.740557,24.740557,-0.027506776,-0.027679786,-0.041753374,-0.029358514,1064.1902,0.0,0.0,0.0,0.0,0.0,0.0,0.0,0.0,0.0,0.0,0.0,0.0,0.0,21.019922,1.0457557,72.58905,-0.036287293,0.1534871,-0.09245448,539593.4,0.0,0.012636097,0.021346264,6184.9326,6852.166,6592.6475,9087.193,0.31009197,0.0,0.0,0.0
281.38608,281.38608,3.133,0.0,0.0,264.82474,10163.0,0.0,100.0,-3.4194891,0.0,7.0,0.0,1.0,4000000.0,110.0,1.0,0.0,0.0,10.0,0.0,0.0,-447.3531,63.149895,623.8005,1.1879623,-4.1402307,0.15601715,256.47684,257.10162,252.60619,257.6575,568.0,568.0,617.0,620.0,93.0,93.0,93.0,93.0,0.0,0.0,0.0,0.0,0.041209478,0.042857334,0.049357012,0.05548785,0.0,0.0,0.0,0.0,1874.2336,657.54346,471.9078,51.33739,0.0,0.0,0.0,2.0,1.0,0.29788154,-0.027736265,-0.009986639,93.0,93.0,93.0,93.0,21.775778,21.775778,24.740557,24.740557,-0.029621502,-0.030784715,-0.044158008,-0.028824614,1003.5972,0.0,0.0,0.0,0.0,0.0,0.0,0.0,0.0,0.0,0.0,0.0,0.0,0.0,20.95956,1.0233217,70.50589,-0.03373169,0.18226993,-0.09726687,524341.9,0.0,0.011149727,0.021390785,6023.818,6870.003,6468.5713,9336.756,0.30985832,0.0,0.0,0.0
284.99182,284.99182,3.183,0.0,0.0,257.5536,9880.0,0.0,100.0,-4.599645,0.0,7.0,0.0,0.0,4000000.0,110.0,1.0,0.0,0.0,10.0,0.0,0.0,-446.30438,63.204178,627.2694,1.4362701,-4.053347,0.22949913,249.19386,249.95796,243.84726,250.63129,594.0,595.0,644.0,647.0,93.0,93.0,93.0,93.0,0.0,0.0,0.0,0.0,0.04070424,0.043491382,0.048757095,0.056257177,0.0,0.0,0.0,0.0,-686.632,-2360.9067,-729.3864,-1171.6156,0.0,0.0,0.0,2.0,1.0,0.30826676,-0.03290732,-0.010519147,93.0,93.0,93.0,93.0,21.775778,21.775778,24.740557,24.740557,-0.029912665,-0.031463217,-0.049043257,-0.028896922,943.21796,0.0,0.0,0.0,0.0,0.0,0.0,0.0,0.0,0.0,0.0,0.0,0.0,0.0,21.00043,1.1276239,68.381744,-0.04631859,0.2295722,-0.11036565,506911.47,0.0,0.012267359,0.022614934,5765.4375,6934.9326,5970.1577,9467.823,0.31241512,0.0,0.0,0.0
288.47214,288.47214,3.233,0.0,0.0,250.7256,9664.0,0.0,100.0,-5.5960984,0.0,7.0,0.0,0.0,4000000.0,110.0,1.0,0.0,0.0,10.0,0.0,0.0,-445.25122,63.260647,630.63324,1.7038052,-3.4703774,0.04464449,243.84715,244.7845,242.58463,246.01396,618.0,619.0,667.0,671.0,93.0,93.0,93.0,93.0,0.0,0.0,0.0,0.0,0.038020797,0.04155852,0.047306094,0.05554756,0.0,0.0,0.0,0.0,-20.639647,88.66035,-165.14362,-495.67215,0.0,0.0,0.0,2.0,1.0,0.32094884,-0.038794752,-0.010250449,93.0,93.0,93.0,93.0,21.775778,21.775778,24.740557,24.740557,-0.024110854,-0.026059207,-0.031249441,-0.019321714,891.9513,0.0,0.0,0.0,0.0,0.0,0.0,0.0,0.0,0.0,0.0,0.0,0.0,0.0,21.15791,1.120742,66.34495,-0.03719974,0.28176755,-0.11533825,490073.5,0.0,0.015494645,0.026386777,4963.7793,6563.51,5158.2637,9069.461,0.31602,0.0,0.0,0.0
291.8469,291.8469,3.283,0.0,0.0,244.68854,10302.0,0.0,100.0,-6.2008038,0.0,7.0,0.0,0.0,4000000.0,110.0,1.0,0.0,0.0,10.0,0.0,0.0,-444.18555,63.314503,633.9009,1.884242,-3.1120667,-0.19950193,237.49826,238.58034,233.32912,239.38829,640.0,641.0,689.0,693.0,93.0,93.0,93.0,93.0,0.0,0.0,0.0,0.0,0.034968436,0.03952526,0.045516923,0.05471943,0.0,0.0,0.0,0.0,-899.6129,-1401.5479,-198.0139,-1662.272,0.0,0.0,0.0,2.0,1.0,0.33575216,-0.044229854,-0.009719133,93.0,93.0,93.0,93.0,21.775778,21.775778,24.740557,24.740557,-0.024550585,-0.026557691,-0.040794525,-0.023176506,1030.5814,0.0,0.0,0.0,0.0,0.0,0.0,0.0,0.0,0.0,0.0,0.0,0.0,0.0,21.464035,1.0205287,64.482895,-0.0204406,0.30665913,-0.11235427,531175.2,0.0,0.018041447,0.029191406,4218.039,6125.566,4122.168,8331.717,0.3176918,0.0,0.0,0.0
295.14172,295.14172,3.333,0.0,0.0,239.75627,10747.0,0.0,100.0,-6.7128344,0.0,6.0,0.0,0.0,4000000.0,110.0,1.0,0.0,0.0,10.0,0.0,0.0,-443.10184,63.36309,637.0783,2.205285,-1.841457,-0.059777677,235.38023,236.42822,235.34126,237.0044,661.0,661.0,709.0,713.0,93.0,93.0,93.0,93.0,0.0,0.0,0.0,0.0,0.034081656,0.039585304,0.044128425,0.05458251,0.0,0.0,0.0,0.0,2224.2483,4983.356,-4136.73,-926.0593,0.0,0.0,0.0,2.0,1.0,0.35159615,-0.04924918,-0.009530067,93.0,93.0,93.0,93.0,21.775778,21.775778,24.740557,24.740557,-0.013555365,-0.016305514,-0.010425531,-0.013718406,1103.5988,0.0,0.0,0.0,0.0,0.0,0.0,0.0,0.0,0.0,0.0,0.0,0.0,0.0,21.95126,0.933328,62.87045,-0.054896235,0.325998,-0.049759176,545256.6,0.0,0.017243646,0.028218744,4423.389,6806.3115,3818.0361,8463.545,0.31629944,0.0,0.0,0.0
298.3744,298.3744,3.383,0.0,0.0,234.64919,10439.0,0.0,100.0,-7.3773704,0.0,6.0,0.0,0.0,4000000.0,110.0,1.0,0.0,0.0,10.0,0.0,0.0,-441.99,63.408333,640.18,2.133427,-3.2992241,0.13052467,229.04443,230.17303,222.3608,231.89407,679.0,680.0,727.0,732.0,93.0,93.0,93.0,93.0,0.0,0.0,0.0,0.0,0.034963865,0.04204751,0.043817174,0.055073563,0.0,0.0,0.0,0.0,-689.4349,-3423.7454,1866.9111,186.45377,0.0,0.0,0.0,2.0,1.0,0.3677524,-0.055042733,-0.009496093,93.0,93.0,93.0,93.0,21.775778,21.775778,24.740557,24.740557,-0.022476444,-0.023130339,-0.057620507,-0.022520559,1057.5405,0.0,0.0,0.0,0.0,0.0,0.0,0.0,0.0,0.0,0.0,0.0,0.0,0.0,22.447159,0.89365476,61.186615,-0.015969343,0.31856737,-0.16378585,537916.8,0.0,0.014794298,0.024842547,4730.046,6927.6025,3832.087,8783.87,0.3137951,0.0,0.0,0.0
301.532,301.532,3.433,0.0,0.0,229.20737,10234.0,0.0,100.0,-8.785312,0.0,6.0,0.0,0.0,4000000.0,110.0,1.0,0.0,0.0,10.0,0.0,0.0,-440.85468,63.45264,643.192,2.295128,-3.0531712,0.05069176,224.89108,226.0355,225.12161,228.92165,697.0,697.0,744.0,749.0,93.0,93.0,93.0,93.0,0.0,0.0,0.0,0.0,0.033509076,0.04037061,0.04419808,0.055140823,0.0,0.0,0.0,0.0,-1284.5365,-828.01135,-120.65916,-1147.0599,0.0,0.0,0.0,2.0,1.0,0.38536334,-0.06157764,-0.0071302652,93.0,93.0,93.0,93.0,21.775778,21.775778,24.740557,24.740557,-0.01603465,-0.018886643,-0.03378682,-0.006914969,1017.3142,0.0,0.0,0.0,0.0,0.0,0.0,0.0,0.0,0.0,0.0,0.0,0.0,0.0,22.936235,0.8668491,59.387566,-8.164793E-4,0.37986067,-0.12510072,527821.06,0.0,0.013735265,0.026109368,4062.7622,6471.589,3822.6953,8744.335,0.31276703,0.0,0.0,0.0
304.62692,304.62692,3.483,0.0,0.0,225.10725,10023.0,0.0,100.0,-10.087152,0.0,6.0,0.0,0.0,4000000.0,110.0,1.0,0.0,0.0,10.0,0.0,0.0,-439.688,63.494827,646.1235,2.3762279,-2.6322393,-0.21747981,220.35606,221.9026,211.67216,222.1684,713.0,713.0,760.0,764.0,93.0,93.0,93.0,93.0,0.0,0.0,0.0,0.0,0.032004137,0.040892225,0.04183035,0.054328024,0.0,0.0,0.0,0.0,-1765.0809,-4012.303,1867.26,-769.59283,0.0,0.0,0.0,2.0,1.0,0.40556508,-0.06602106,-0.0060147047,93.0,93.0,93.0,93.0,21.775778,21.775778,24.740557,24.740557,-0.025982255,-0.025317395,-0.05764451,-0.025367346,976.7014,0.0,0.0,0.0,0.0,0.0,0.0,0.0,0.0,0.0,0.0,0.0,0.0,0.0,23.627563,0.7750364,57.888794,0.0047127903,0.39169005,-0.15176703,517417.47,0.0,0.020022213,0.029264586,3666.4976,6480.3667,2310.4468,7697.8843,0.31894493,0.0,0.0,0.0
307.6672,307.6672,3.533,0.0,0.0,221.2013,9828.0,0.0,100.0,-11.57537,0.0,6.0,0.0,0.0,4000000.0,110.0,1.0,0.0,0.0,10.0,0.0,0.0,-438.4883,63.526245,648.98096,2.5786333,-2.4495468,-0.24077624,214.2712,216.69228,207.87764,216.68362,727.0,728.0,774.0,779.0,93.0,93.0,93.0,93.0,0.0,0.0,0.0,0.0,0.028904563,0.037395794,0.041150935,0.05333521,0.0,0.0,0.0,0.0,488.46378,2602.4802,515.7619,1535.8192,0.0,0.0,0.0,2.0,1.0,0.42632732,-0.07178574,-0.002728939,93.0,93.0,93.0,93.0,21.775778,21.775778,24.740557,24.740557,-0.024110746,-0.02400542,-0.045151997,-0.022942835,930.81274,0.0,0.0,0.0,0.0,0.0,0.0,0.0,0.0,0.0,0.0,0.0,0.0,0.0,24.313892,0.51696664,56.42722,0.03939389,0.4204603,-0.11258283,502891.38,0.0,0.022230214,0.031647537,3271.2964,6331.447,2336.7302,7727.1045,0.32183552,0.0,0.0,0.0
310.6348,310.6348,3.583,0.0,0.0,217.17569,9671.0,0.0,100.0,-13.243362,0.0,6.0,0.0,0.0,4000000.0,110.0,1.0,0.0,0.0,10.0,0.0,0.0,-437.25394,63.547256,651.761,2.7694714,-2.210943,-0.18333015,210.89256,213.2941,206.0968,213.45105,741.0,742.0,787.0,792.0,93.0,93.0,93.0,93.0,0.0,0.0,0.0,0.0,0.02740698,0.037059203,0.040645126,0.053776406,0.0,0.0,0.0,0.0,-451.89856,236.4233,-389.09457,541.2697,0.0,0.0,0.0,2.0,1.0,0.44857937,-0.075872436,0.0016282797,93.0,93.0,93.0,93.0,21.775778,21.775778,24.740557,24.740557,-0.020272346,-0.023029964,-0.035455894,-0.019970013,893.56744,0.0,0.0,0.0,0.0,0.0,0.0,0.0,0.0,0.0,0.0,0.0,0.0,0.0,25.047537,0.33164278,54.879932,0.045131657,0.46088588,-0.11254997,490606.12,0.0,0.02622287,0.035055477,2996.0923,6436.8477,2099.5022,7933.213,0.32579994,0.0,0.0,0.0
