LapDistance [m],TotalDistance [m],LapTime [s],Sector1Time [s],Sector2Time [s],Speed [km/h],EngineRevs [rpm],ThrottlePercentage [%],BrakePercentage [%],Steer [%],Clutch [%],Gear [int],DRS [0/1],CanUseDRS [0/1],KERSLevel [J],EngineTemperature [C],RacePosition [int],Sector [int],InPits [int],FuelRemaining [kg],CurrentFlag [int],CurrentLapInvalid [int],X [m],Y [m],Z [m],GForceLatitudinal [G],GForceLongitudinal [G],GForceVertical [G],WheelSpeedRearLeft [km/h],WheelSpeedRearRight [km/h],WheelSpeedFrontLeft [km/h],WheelSpeedFrontRight [km/h],BrakeTemperatureRearLeft [C],BrakeTemperatureRearRight [C],BrakeTemperatureFrontLeft [C],BrakeTemperatureFrontRight [C],TyreTemperatureRearLeft [C],TyreTemperatureRearRight [C],TyreTemperatureFrontLeft [C],TyreTemperatureFrontRight [C],TyreWearRearLeft [%],TyreWearRearRight [%],TyreWearFrontLeft [%],TyreWearFrontRight [%],SuspensionPositionRearLeft [m],SuspensionPositionRearRight [m],SuspensionPositionFrontLeft [m],SuspensionPositionFrontRight [m],SuspensionVelocityRearLeft [m/s],SuspensionVelocityRearRight [m/s],SuspensionVelocityFrontLeft [m/s],SuspensionVelocityFrontRight [m/s],SuspensionAccelerationRearLeft [m/s^2],SuspensionAccelerationRearRight [m/s^2],SuspensionAccelerationFrontLeft [m/s^2],SuspensionAccelerationFrontRight [m/s^2],MGUKHarvested [J],MGUHHarvested [J],ERSSpent [J],ERSMode [int],FuelMixMode [int],Yaw [rad],Roll [rad],Pitch [rad],TyreCarcassTemperatureRearLeft [C],TyreCarcassTemperatureRearRight [C],TyreCarcassTemperatureFrontLeft [C],TyreCarcassTemperatureFrontRight [C],TyrePressureRearLeft [PSI],TyrePressureRearRight [PSI],TyrePressureFrontLeft [PSI],TyrePressureFrontRight [PSI],WheelSlipRearLeft [%],WheelSlipRearRight [%],WheelSlipFrontLeft [%],WheelSlipFrontRight [%],Torque [Nm],Handbrake [%],RearLeftInside [C],RearLeftMiddle [C],RearLeftOutside [C],RearRightInside [C],RearRightMiddle [C],RearRightOutside [C],FrontLeftInside [C],FrontLeftMiddle [C],FrontLeftOutside [C],FrontRightInside [C],FrontRightMiddle [C],FrontRightOutside [C],WoldSpeedX [km/h],WoldSpeedY [km/h],WoldSpeedZ [km/h],LocalAngularVelocityX [rad/s],LocalAngularVelocityY [rad/s],LocalAngularVelocityZ [rad/s],IcePower [W],MgukPower [W],FrontRideHeight [m],RearRideHeight [m],LoadRearLeft [N],LoadRearRight [N],LoadFrontLeft [N],LoadFrontRight [N],Extra1 [m],Extra2 [],Extra3 [],Extra4 []
4.5788045,4.5788045,0.05,0.0,0.0,311.3187,11191.0,100.0,0.0,-0.19111295,0.0,8.0,1.0,0.0,4000000.0,110.0,1.0,0.0,0.0,10.0,0.0,0.0,165.27847,1.2125895,801.6051,0.11204547,0.27560294,-0.015495092,316.55893,316.5516,311.13788,311.21445,419.0,420.0,487.0,492.0,93.0,93.0,93.0,93.0,0.0,0.0,0.0,0.0,0.04850845,0.04875807,0.052314628,0.052640744,-1.7452239,-1.3951956,-2.3596733,-2.095699,-4.050135,18.708406,-139.47485,-130.58331,0.0,0.0,0.0,2.0,1.0,-2.8477669,-0.019513207,-7.9739094E-4,93.0,93.0,93.0,93.0,21.980246,21.980246,24.842789,24.842789,0.016975792,0.01673418,-4.519618E-4,-4.5379304E-4,1158.8976,0.0,0.0,0.0,0.0,0.0,0.0,0.0,0.0,0.0,0.0,0.0,0.0,0.0,-24.985798,0.072889626,-82.78918,5.8693346E-4,0.012945343,-4.5582192E-4,549861.3,119984.9,0.01156597,0.01153512,7409.4624,7577.0386,6017.5186,6165.8765,0.307621,0.0,0.0,0.0
8.903194,8.903194,0.1,0.0,0.0,311.80298,11208.0,100.0,0.0,-0.16702119,0.0,8.0,1.0,0.0,4000000.0,110.0,1.0,0.0,0.0,10.0,0.0,0.0,164.02681,1.215894,797.46265,0.10931616,0.27356488,-0.017922768,317.04202,317.0343,311.62402,311.69708,417.0,419.0,486.0,490.0,93.0,93.0,93.0,93.0,0.0,0.0,0.0,0.0,0.048507985,0.048747495,0.052285805,0.052603494,1.0690837,0.92670316,1.2715905,1.1117755,64.533936,84.95896,127.09646,139.83694,0.0,0.0,0.0,2.0,1.0,-2.8471408,-0.019528078,-7.8594685E-4,93.0,93.0,93.0,93.0,21.980246,21.980246,24.842789,24.842789,0.01694718,0.016716145,-4.526351E-4,-4.5193563E-4,1160.6964,0.0,0.0,0.0,0.0,0.0,0.0,0.0,0.0,0.0,0.0,0.0,0.0,0.0,-25.076126,0.060724568,-82.90243,1.8469342E-4,0.0122255795,2.448883E-4,549879.5,119984.9,0.011562088,0.011522015,7413.9683,7577.1904,6038.613,6182.082,0.30762386,0.0,0.0,0.0
13.234305,13.234305,0.15,0.0,0.0,312.2833,11224.0,100.0,0.0,-0.16855383,0.0,8.0,1.0,0.0,4000000.0,110.0,1.0,0.0,0.0,10.0,0.0,0.0,162.77061,1.21884,793.3145,0.10847732,0.27120528,0.0071412073,317.4883,317.4817,312.1047,312.17657,416.0,417.0,484.0,488.0,93.0,93.0,93.0,93.0,0.0,0.0,0.0,0.0,0.04868846,0.048930746,0.052351806,0.052669123,3.1956284,3.4524498,1.1656432,1.3332813,-50.277996,-36.424397,-11.922419,-0.7107853,0.0,0.0,0.0,2.0,1.0,-2.8465347,-0.01952983,-8.312464E-4,93.0,93.0,93.0,93.0,21.980246,21.980246,24.842789,24.842789,0.016811576,0.016587045,-4.5211593E-4,-4.5200475E-4,1162.389,0.0,0.0,0.0,0.0,0.0,0.0,0.0,0.0,0.0,0.0,0.0,0.0,0.0,-25.166124,0.0592008,-83.01458,8.794656E-4,0.01208276,-2.0095127E-4,549896.4,119984.91,0.011316261,0.011125845,7494.945,7657.2344,6081.126,6225.1357,0.30731773,0.0,0.0,0.0
16.125399,16.125399,0.2,0.0,0.0,312.60007,11235.0,100.0,0.0,-0.16998607,0.0,8.0,1.0,0.0,4000000.0,110.0,1.0,0.0,0.0,10.0,0.0,0.0,161.93068,1.2208844,790.5461,0.10872778,0.26764306,0.013209921,317.79874,317.7894,312.4224,312.49307,414.0,415.0,483.0,487.0,93.0,93.0,93.0,93.0,0.0,0.0,0.0,0.0,0.04873858,0.048968147,0.05237943,0.052705534,0.0,0.0,0.0,0.0,-480.4104,-83.363045,-34.265213,11.533494,0.0,0.0,0.0,2.0,1.0,-2.8461354,-0.019516468,-8.304119E-4,93.0,93.0,93.0,93.0,21.980246,21.980246,24.842789,24.842789,0.016771441,0.016532153,-4.5037954E-4,-4.50954E-4,1163.5529,0.0,0.0,0.0,0.0,0.0,0.0,0.0,0.0,0.0,0.0,0.0,0.0,0.0,-25.22554,0.06305677,-83.0885,-7.357277E-4,0.011881584,-2.637068E-4,549908.0,119984.9,0.011227842,0.011018214,7492.1084,7682.386,6094.2554,6244.7686,0.30722237,0.0,0.0,0.0
21.916565,21.916565,0.25,0.0,0.0,313.22464,11257.0,100.0,0.0,-0.1714567,0.0,8.0,1.0,0.0,4000000.0,110.0,1.0,0.0,0.0,10.0,0.0,0.0,160.24487,1.225135,785.0017,0.10655348,0.2639396,-0.0040664356,318.42862,318.4231,313.04724,313.11777,412.0,413.0,480.0,485.0,93.0,93.0,93.0,93.0,0.0,0.0,0.0,0.0,0.048685197,0.048912037,0.052404646,0.052706495,-0.39853153,-0.3737211,0.11019408,-0.0151991835,4.0903683,40.045372,-12.297926,12.861191,0.0,0.0,0.0,2.0,1.0,-2.845344,-0.019552281,-7.8845024E-4,93.0,93.0,93.0,93.0,21.980246,21.980246,24.842789,24.842789,0.016749917,0.016533738,-4.4875225E-4,-4.4985767E-4,1165.8817,0.0,0.0,0.0,0.0,0.0,0.0,0.0,0.0,0.0,0.0,0.0,0.0,0.0,-25.34299,0.06276187,-83.23413,-4.3767187E-4,0.011877878,6.442277E-5,549931.8,119984.92,0.011231789,0.011089839,7502.2246,7657.857,6100.3623,6236.8076,0.30725384,0.0,0.0,0.0
26.267534,26.267534,0.3,0.0,0.0,313.6874,11273.0,100.0,0.0,-0.17310943,0.0,8.0,1.0,0.0,4000000.0,110.0,1.0,0.0,0.0,10.0,0.0,0.0,158.97543,1.2281818,780.83716,0.105798215,0.2612829,-0.003846073,318.8856,318.87933,313.51062,313.57993,410.0,411.0,478.0,483.0,93.0,93.0,93.0,93.0,0.0,0.0,0.0,0.0,0.04871766,0.04894501,0.052419446,0.05272193,1.2970715,0.96112484,0.54404134,0.36522743,37.711853,13.102591,17.487999,1.4483927,0.0,0.0,0.0,2.0,1.0,-2.8447554,-0.01955307,-7.804632E-4,93.0,93.0,93.0,93.0,21.980246,21.980246,24.842789,24.842789,0.016707119,0.016492397,-4.476031E-4,-4.4955724E-4,1167.5753,0.0,0.0,0.0,0.0,0.0,0.0,0.0,0.0,0.0,0.0,0.0,0.0,0.0,-25.430063,0.05946985,-83.34197,7.699226E-5,0.011709302,7.140194E-5,549949.0,119984.9,0.011174803,0.011022672,7517.7,7672.961,6114.8086,6250.913,0.30719185,0.0,0.0,0.0
30.624966,30.624966,0.35,0.0,0.0,314.1452,11289.0,100.0,0.0,-0.17276688,0.0,8.0,1.0,0.0,4000000.0,110.0,1.0,0.0,0.0,10.0,0.0,0.0,157.70164,1.2311234,776.66724,0.105780706,0.25830334,0.0019361351,319.33096,319.32642,313.9677,314.03873,408.0,409.0,477.0,481.0,93.0,93.0,93.0,93.0,0.0,0.0,0.0,0.0,0.048775062,0.049006663,0.052449152,0.05275417,1.035109,1.0208039,0.6191432,0.6607174,-7.7515836,-18.49383,1.7970799,-1.7702578,0.0,0.0,0.0,2.0,1.0,-2.844162,-0.019550119,-7.8189373E-4,93.0,93.0,93.0,93.0,21.980246,21.980246,24.842789,24.842789,0.016645283,0.01643111,-4.4705663E-4,-4.4859783E-4,1169.2683,0.0,0.0,0.0,0.0,0.0,0.0,0.0,0.0,0.0,0.0,0.0,0.0,0.0,-25.516941,0.058649946,-83.4484,-4.1986124E-5,0.0119780535,3.7454123E-5,549965.8,119984.91,0.011067891,0.010883006,7546.133,7702.5264,6136.0366,6273.921,0.30707264,0.0,0.0,0.0
33.53346,33.53346,0.4,0.0,0.0,314.44736,11300.0,100.0,0.0,-0.1589876,0.0,8.0,1.0,0.0,4000000.0,110.0,1.0,0.0,0.0,10.0,0.0,0.0,156.85004,1.2330836,773.8844,0.103809305,0.25621247,0.0024999504,319.62885,319.62405,314.27115,314.33966,407.0,408.0,475.0,480.0,93.0,93.0,93.0,93.0,0.0,0.0,0.0,0.0,0.048800435,0.049022198,0.05247114,0.052768845,0.0,0.0,0.0,0.0,-11.761486,-23.25475,1.528859,-11.546907,0.0,0.0,0.0,2.0,1.0,-2.8437717,-0.019561835,-7.7581406E-4,93.0,93.0,93.0,93.0,21.980246,21.980246,24.842789,24.842789,0.016610766,0.016404223,-4.469892E-4,-4.4708973E-4,1170.4315,0.0,0.0,0.0,0.0,0.0,0.0,0.0,0.0,0.0,0.0,0.0,0.0,0.0,-25.574083,0.05889807,-83.51869,-1.2994398E-4,0.011495569,4.7962205E-4,549977.06,119984.9,0.011016413,0.01082622,7559.293,7712.318,6148.5156,6282.1265,0.30701828,0.0,0.0,0.0
37.901497,37.901497,0.45,0.0,0.0,314.89597,11315.0,100.0,0.0,-0.16112831,0.0,8.0,1.0,0.0,4000000.0,110.0,1.0,0.0,0.0,10.0,0.0,0.0,155.56909,1.2360209,769.7057,0.10308138,0.25314385,-3.174683E-4,320.07492,320.0697,314.72067,314.78763,405.0,406.0,474.0,478.0,93.0,93.0,93.0,93.0,0.0,0.0,0.0,0.0,0.048811503,0.049034636,0.052492786,0.05278718,0.0,0.0,0.0,0.0,2.776086,2.1457663,-4.586577,-0.5900859,0.0,0.0,0.0,2.0,1.0,-2.8432047,-0.01956558,-7.6007843E-4,93.0,93.0,93.0,93.0,21.980246,21.980246,24.842789,24.842789,0.01657685,0.016372979,-4.456483E-4,-4.4667168E-4,1172.021,0.0,0.0,0.0,0.0,0.0,0.0,0.0,0.0,0.0,0.0,0.0,0.0,0.0,-25.65918,0.058359284,-83.62295,-2.8243067E-4,0.01127729,5.5025335E-5,549993.9,119984.9,0.010965475,0.010787089,7567.882,7718.965,6159.847,6293.06,0.3069725,0.0,0.0,0.0
43.73533,43.73533,0.5,0.0,0.0,315.4863,11336.0,100.0,0.0,-0.15253852,0.0,8.0,1.0,0.0,4000000.0,110.0,1.0,0.0,0.0,10.0,0.0,0.0,153.85455,1.2398564,764.1261,0.10047029,0.24929015,-0.0018331535,320.65985,320.65533,315.31125,315.37766,403.0,404.0,471.0,476.0,93.0,93.0,93.0,93.0,0.0,0.0,0.0,0.0,0.048852425,0.049054824,0.05253106,0.052802406,1.2275575,-3.924295,0.9944289,-0.036433335,55.360783,-495.69897,26.808678,-18.453594,0.0,0.0,0.0,2.0,1.0,-2.8424547,-0.019600762,-7.3969364E-4,93.0,93.0,93.0,93.0,21.980246,21.980246,24.842789,24.842789,0.016526427,0.016333934,-4.4489195E-4,-4.4472542E-4,1174.2433,0.0,0.0,0.0,0.0,0.0,0.0,0.0,0.0,0.0,0.0,0.0,0.0,0.0,-25.771202,0.05682831,-83.76007,-3.6548678E-5,0.011113057,9.0406096E-4,550015.94,119984.9,0.010890739,0.010726119,7585.3296,7724.2026,6185.4834,6304.709,0.30690384,0.0,0.0,0.0
48.117935,48.117935,0.55,0.0,0.0,315.9232,11351.0,100.0,0.0,-0.16333517,0.0,8.0,1.0,0.0,4000000.0,110.0,1.0,0.0,0.0,10.0,0.0,0.0,152.5638,1.2426488,759.93536,0.10139285,0.24665561,-5.098339E-4,321.0887,321.08463,315.74786,315.81516,401.0,402.0,470.0,474.0,93.0,93.0,93.0,93.0,0.0,0.0,0.0,0.0,0.048874803,0.049105775,0.052540638,0.052835844,0.7691234,1.2642144,0.12673436,0.757724,37.6448,-31.341608,7.3492513,-4.5195217,0.0,0.0,0.0,2.0,1.0,-2.841894,-0.019566001,-7.389784E-4,93.0,93.0,93.0,93.0,21.980246,21.980246,24.842789,24.842789,0.016482394,0.016281568,-4.4354834E-4,-4.4514515E-4,1175.8317,0.0,0.0,0.0,0.0,0.0,0.0,0.0,0.0,0.0,0.0,0.0,0.0,0.0,-25.85459,0.05519039,-83.861374,-5.0847062E-5,0.0113696065,-3.3869405E-4,550032.1,119984.9,0.010818196,0.01062693,7602.04,7751.383,6191.107,6325.8086,0.30681992,0.0,0.0,0.0
52.50657,52.50657,0.6,0.0,0.0,316.35513,11366.0,100.0,0.0,-0.1787421,0.0,8.0,1.0,0.0,4000000.0,110.0,1.0,0.0,0.0,10.0,0.0,0.0,151.26888,1.2453966,755.7397,0.10302725,0.24370879,0.0013275555,321.5126,321.51038,316.17917,316.24777,399.0,400.0,468.0,472.0,93.0,93.0,93.0,93.0,0.0,0.0,0.0,0.0,0.048918914,0.04913258,0.0525695,0.052854944,0.46692786,0.5755573,0.51878387,0.4342943,-33.983578,11.06411,-11.761486,10.353326,0.0,0.0,0.0,2.0,1.0,-2.841327,-0.019577663,-7.3361397E-4,93.0,93.0,93.0,93.0,21.980246,21.980246,24.842789,24.842789,0.016436862,0.016236864,-4.4124597E-4,-4.4479215E-4,1177.4198,0.0,0.0,0.0,0.0,0.0,0.0,0.0,0.0,0.0,0.0,0.0,0.0,0.0,-25.937613,0.05480533,-83.96132,-3.429999E-4,0.011671881,-3.1231574E-4,550048.1,119984.92,0.010742562,0.010535997,7621.5444,7769.4893,6209.789,6338.8413,0.30673885,0.0,0.0,0.0
55.435642,55.435642,0.65,0.0,0.0,316.64023,11376.0,100.0,0.0,-0.16275173,0.0,8.0,1.0,0.0,4000000.0,110.0,1.0,0.0,0.0,10.0,0.0,0.0,150.40329,1.2472188,752.9398,0.10190041,0.24176323,6.1425904E-4,321.79498,321.7929,316.46402,316.53317,398.0,399.0,467.0,471.0,93.0,93.0,93.0,93.0,0.0,0.0,0.0,0.0,0.04892728,0.04914922,0.052580606,0.052873388,0.0,0.0,0.0,0.0,14.564393,-21.60519,4.9754972,-8.328257,0.0,0.0,0.0,2.0,1.0,-2.8409371,-0.019570405,-7.2431564E-4,93.0,93.0,93.0,93.0,21.980246,21.980246,24.842789,24.842789,0.016413134,0.016213676,-4.4231772E-4,-4.4322398E-4,1178.4785,0.0,0.0,0.0,0.0,0.0,0.0,0.0,0.0,0.0,0.0,0.0,0.0,0.0,-25.992884,0.05449033,-84.02712,-2.4881394E-4,0.011650234,1.2564688E-4,550058.75,119984.91,0.010702734,0.010500106,7627.8823,7777.668,6217.1396,6349.5195,0.3067007,0.0,0.0,0.0
59.83441,59.83441,0.7,0.0,0.0,317.06354,11391.0,100.0,0.0,-0.16378967,0.0,8.0,1.0,0.0,4000000.0,110.0,1.0,0.0,0.0,10.0,0.0,0.0,149.10146,1.2499176,748.7359,0.10244393,0.23880018,-6.5513805E-4,322.21286,322.21005,316.8883,316.9558,396.0,397.0,465.0,469.0,93.0,93.0,93.0,93.0,0.0,0.0,0.0,0.0,0.048951123,0.049166784,0.052601792,0.0528904,0.0,0.0,0.0,0.0,4.170833,5.3241844,0.68396324,0.38892028,0.0,0.0,0.0,2.0,1.0,-2.8403623,-0.019576088,-7.123947E-4,93.0,93.0,93.0,93.0,21.980246,21.980246,24.842789,24.842789,0.016372202,0.01617563,-4.4109017E-4,-4.426887E-4,1179.4587,0.0,0.0,0.0,0.0,0.0,0.0,0.0,0.0,0.0,0.0,0.0,0.0,0.0,-26.075548,0.053421646,-84.124626,-2.0655469E-4,0.011399432,-4.0686573E-6,549791.4,119984.9,0.010648635,0.010446762,7639.435,7788.187,6229.948,6360.122,0.30664635,0.0,0.0,0.0
65.70858,65.70858,0.749,0.0,0.0,317.6196,11410.0,100.0,0.0,-0.1633578,0.0,8.0,1.0,0.0,4000000.0,110.0,1.0,0.0,0.0,10.0,0.0,0.0,147.35927,1.2534257,743.12317,0.10313484,0.23470736,-1.8462667E-4,322.75845,322.7558,317.4441,317.5124,394.0,395.0,463.0,467.0,93.0,93.0,93.0,93.0,0.0,0.0,0.0,0.0,0.04898682,0.049205944,0.05262833,0.052919187,0.5963444,0.52995974,0.51230186,0.33102927,-14.014542,10.071692,-1.6227363,1.8641351,0.0,0.0,0.0,2.0,1.0,-2.8395905,-0.01956926,-6.992817E-4,93.0,93.0,93.0,93.0,21.980246,21.980246,24.842789,24.842789,0.016312152,0.016113859,-4.3988417E-4,-4.4124902E-4,1180.6066,0.0,0.0,0.0,0.0,0.0,0.0,0.0,0.0,0.0,0.0,0.0,0.0,0.0,-26.185812,0.05193599,-84.25213,-2.2190087E-4,0.011516901,-6.454982E-6,549410.0,119984.9,0.010565594,0.010354742,7657.3184,7809.14,6247.763,6378.832,0.3065567,0.0,0.0,0.0
70.12102,70.12102,0.799,0.0,0.0,318.03024,11425.0,100.0,0.0,-0.1621445,0.0,8.0,1.0,0.0,4000000.0,110.0,1.0,0.0,0.0,10.0,0.0,0.0,146.04779,1.2560002,738.9081,0.10378304,0.23164223,1.7635024E-4,323.161,323.15955,317.85388,317.92407,392.0,393.0,461.0,465.0,93.0,93.0,93.0,93.0,0.0,0.0,0.0,0.0,0.049008764,0.04923597,0.052645754,0.05294782,0.42982396,0.6426125,0.28163192,0.59030944,-1.823902,8.583067,-3.8892028,-2.8699634,0.0,0.0,0.0,2.0,1.0,-2.839006,-0.01955745,-6.8962574E-4,93.0,93.0,93.0,93.0,21.980246,21.980246,24.842789,24.842789,0.016268907,0.016068887,-4.3911696E-4,-4.3974567E-4,1181.5524,0.0,0.0,0.0,0.0,0.0,0.0,0.0,0.0,0.0,0.0,0.0,0.0,0.0,-26.268478,0.0510917,-84.34587,-1.4199037E-4,0.011810961,5.597107E-6,549128.25,119984.91,0.010495833,0.010285822,7670.284,7824.306,6259.825,6396.908,0.30648804,0.0,0.0,0.0
73.06582,73.06582,0.849,0.0,0.0,318.30106,11434.0,100.0,0.0,-0.16256063,0.0,8.0,1.0,0.0,4000000.0,110.0,1.0,0.0,0.0,10.0,0.0,0.0,145.17117,1.2576941,736.09546,0.10397871,0.22962235,3.6522548E-4,323.427,323.42508,318.1254,318.19455,391.0,392.0,460.0,464.0,93.0,93.0,93.0,93.0,0.0,0.0,0.0,0.0,0.04903055,0.04925277,0.052661065,0.052958906,0.0,0.0,0.0,0.0,-3.5673378,3.7819126,3.1113622,-4.1037793,0.0,0.0,0.0,2.0,1.0,-2.8386157,-0.019564344,-6.841421E-4,93.0,93.0,93.0,93.0,21.980246,21.980246,24.842789,24.842789,0.0162376,0.016039709,-4.3834845E-4,-4.3947768E-4,1182.0831,0.0,0.0,0.0,0.0,0.0,0.0,0.0,0.0,0.0,0.0,0.0,0.0,0.0,-26.323332,0.050573952,-84.40757,-1.2261578E-4,0.011649226,2.733685E-4,548942.5,119984.9,0.010457084,0.010238041,7680.6245,7833.859,6269.349,6403.332,0.30644798,0.0,0.0,0.0
77.487755,77.487755,0.899,0.0,0.0,318.70282,11448.0,100.0,0.0,-0.16353334,0.0,8.0,1.0,0.0,4000000.0,110.0,1.0,0.0,0.0,10.0,0.0,0.0,143.85286,1.2602009,731.8727,0.10404897,0.22661184,-1.6723864E-4,323.82266,323.82013,318.52786,318.5958,389.0,390.0,458.0,462.0,93.0,93.0,93.0,93.0,0.0,0.0,0.0,0.0,0.049050912,0.049273513,0.052682474,0.0529776,0.0,0.0,0.0,0.0,-10.782479,12.069938,-7.8454604,7.7784057,0.0,0.0,0.0,2.0,1.0,-2.8380432,-0.019567393,-6.7186356E-4,93.0,93.0,93.0,93.0,21.980246,21.980246,24.842789,24.842789,0.016196236,0.01600037,-4.3692856E-4,-4.3857907E-4,1182.9349,0.0,0.0,0.0,0.0,0.0,0.0,0.0,0.0,0.0,0.0,0.0,0.0,0.0,-26.405193,0.04967698,-84.49893,-3.0181737E-4,0.011464213,-1.675167E-4,548666.25,119984.91,0.010399584,0.010182786,7692.574,7844.871,6282.4697,6416.292,0.30639076,0.0,0.0,0.0
83.39245,83.39245,0.949,0.0,0.0,319.23035,11466.0,100.0,0.0,-0.16337393,0.0,8.0,1.0,0.0,4000000.0,110.0,1.0,0.0,0.0,10.0,0.0,0.0,142.08873,1.2634743,726.2352,0.10380761,0.22264874,-0.0018646225,324.342,324.33978,319.0551,319.12387,387.0,388.0,456.0,460.0,93.0,93.0,93.0,93.0,0.0,0.0,0.0,0.0,0.04906768,0.04930269,0.052703943,0.05300796,0.2981722,0.1785904,0.54918224,0.16026197,184.64325,-43.357903,21.176035,-25.60168,0.0,0.0,0.0,2.0,1.0,-2.8372734,-0.019553373,-6.519556E-4,93.0,93.0,93.0,93.0,21.980246,21.980246,24.842789,24.842789,0.01614435,0.01594893,-4.3589546E-4,-4.3742955E-4,1184.0109,0.0,0.0,0.0,0.0,0.0,0.0,0.0,0.0,0.0,0.0,0.0,0.0,0.0,-26.513908,0.04819761,-84.618454,7.987628E-5,0.011600108,6.896657E-4,548303.2,119984.91,0.010328599,0.010120471,7707.672,7859.075,6297.7144,6433.257,0.3063221,0.0,0.0,0.0
86.34848,86.34848,0.999,0.0,0.0,319.49072,11475.0,100.0,0.0,-0.1641144,0.0,8.0,1.0,0.0,4000000.0,110.0,1.0,0.0,0.0,10.0,0.0,0.0,141.20395,1.2650639,723.4135,0.10383247,0.22082362,-6.0714746E-4,324.59662,324.59525,319.31613,319.38373,386.0,387.0,455.0,459.0,93.0,93.0,93.0,93.0,0.0,0.0,0.0,0.0,0.049106024,0.049313903,0.05272487,0.05301463,0.0,0.0,0.0,0.0,-16.56264,13.089178,-3.1381843,0.4827976,0.0,0.0,0.0,2.0,1.0,-2.8368924,-0.01957501,-6.508827E-4,93.0,93.0,93.0,93.0,21.980246,21.980246,24.842789,24.842789,0.016112782,0.01592213,-4.3503466E-4,-4.3690388E-4,1184.5552,0.0,0.0,0.0,0.0,0.0,0.0,0.0,0.0,0.0,0.0,0.0,0.0,0.0,-26.56785,0.047292963,-84.677345,4.3935597E-5,0.011422778,9.835128E-5,548125.0,119984.9,0.0102817165,0.01006377,7718.758,7868.146,6310.01,6439.885,0.30627155,0.0,0.0,0.0
92.267815,92.267815,1.049,0.0,0.0,320.00473,11493.0,100.0,0.0,-0.16471396,0.0,8.0,1.0,0.0,4000000.0,110.0,1.0,0.0,0.0,10.0,0.0,0.0,139.42905,1.2681879,717.7643,0.1036423,0.21689211,8.441488E-4,325.10062,325.09897,319.8302,319.8979,384.0,385.0,452.0,456.0,93.0,93.0,93.0,93.0,0.0,0.0,0.0,0.0,0.04913724,0.04935683,0.05275025,0.053047247,0.40411946,0.15132128,0.3904849,0.4948675,-3.017485,-16.508995,-0.37550923,-7.228551,0.0,0.0,0.0,2.0,1.0,-2.8361387,-0.019565923,-6.3967705E-4,93.0,93.0,93.0,93.0,21.980246,21.980246,24.842789,24.842789,0.016055496,0.015863495,-4.33813E-4,-4.3600527E-4,1185.651,0.0,0.0,0.0,0.0,0.0,0.0,0.0,0.0,0.0,0.0,0.0,0.0,0.0,-26.67514,0.04654958,-84.7933,-2.2157964E-4,0.011445819,2.8035207E-5,547772.8,119984.9,0.010193673,0.009966684,7738.0405,7889.664,6327.038,6461.218,0.30617714,0.0,0.0,0.0
96.71352,96.71352,1.099,0.0,0.0,320.3843,11506.0,100.0,0.0,-0.15411054,0.0,8.0,1.0,0.0,4000000.0,110.0,1.0,0.0,0.0,10.0,0.0,0.0,138.09315,1.2704948,713.5224,0.102702074,0.21409392,-1.4941266E-4,325.4741,325.47305,320.2098,320.27777,382.0,383.0,451.0,455.0,93.0,93.0,93.0,93.0,0.0,0.0,0.0,0.0,0.049156357,0.04937711,0.052768927,0.05306424,0.4161894,0.23692845,0.40881333,0.29459593,2.186,-15.503167,3.0979512,-2.0921228,0.0,0.0,0.0,2.0,1.0,-2.8355622,-0.019569948,-6.276369E-4,93.0,93.0,93.0,93.0,21.980246,21.980246,24.842789,24.842789,0.01601711,0.015827246,-4.3380595E-4,-4.3424775E-4,1186.4261,0.0,0.0,0.0,0.0,0.0,0.0,0.0,0.0,0.0,0.0,0.0,0.0,0.0,-26.755222,0.045700386,-84.87862,-1.4821865E-4,0.0114252325,3.827024E-4,547511.6,119984.9,0.010143694,0.009913226,7748.5723,7900.56,6338.0684,6471.027,0.3061304,0.0,0.0,0.0
101.16458,101.16458,1.149,0.0,0.0,320.75894,11519.0,100.0,0.0,-0.15424022,0.0,8.0,1.0,0.0,4000000.0,110.0,1.0,0.0,0.0,10.0,0.0,0.0,136.7533,1.2727472,709.27625,0.103008635,0.21134964,-5.072609E-4,325.84277,325.84192,320.5846,320.65247,380.0,381.0,449.0,453.0,93.0,93.0,93.0,93.0,0.0,0.0,0.0,0.0,0.04917448,0.04939889,0.05278654,0.0530844,0.41082498,0.45418736,0.31448898,0.5804747,11.077521,-8.395312,2.2932885,6.906686,0.0,0.0,0.0,2.0,1.0,-2.834988,-0.019565329,-6.148815E-4,93.0,93.0,93.0,93.0,21.980246,21.980246,24.842789,24.842789,0.015980044,0.015790908,-4.3319078E-4,-4.3380933E-4,1187.2076,0.0,0.0,0.0,0.0,0.0,0.0,0.0,0.0,0.0,0.0,0.0,0.0,0.0,-26.835066,0.04446775,-84.96255,-1.1362582E-4,0.011413024,1.5350479E-4,547253.94,119984.9,0.0100868195,0.009862076,7759.215,7911.421,6350.2734,6485.3433,0.30608082,0.0,0.0,0.0
104.1348,104.1348,1.199,0.0,0.0,321.006,11528.0,100.0,0.0,-0.16442437,0.0,8.0,1.0,0.0,4000000.0,110.0,1.0,0.0,0.0,10.0,0.0,0.0,135.85783,1.2742155,706.4432,0.104316905,0.2095313,-1.0948256E-4,326.08463,326.08362,320.8314,320.89978,379.0,380.0,448.0,452.0,93.0,93.0,93.0,93.0,0.0,0.0,0.0,0.0,0.049195763,0.049419276,0.05279933,0.05309735,0.0,0.0,0.0,0.0,-7.1480865,40.98415,-5.3241844,2.1994112,0.0,0.0,0.0,2.0,1.0,-2.8346057,-0.019564964,-6.117821E-4,93.0,93.0,93.0,93.0,21.980246,21.980246,24.842789,24.842789,0.015953328,0.015761664,-4.3168018E-4,-4.337801E-4,1187.7683,0.0,0.0,0.0,0.0,0.0,0.0,0.0,0.0,0.0,0.0,0.0,0.0,0.0,-26.888271,0.043728884,-85.01771,-1.1736738E-4,0.011559,-8.592262E-5,547084.94,119984.89,0.010047541,0.0098089995,7769.3057,7923.214,6357.834,6492.6357,0.30603218,0.0,0.0,0.0
110.08208,110.08208,1.249,0.0,0.0,321.49368,11545.0,100.0,0.0,-0.16421844,0.0,8.0,1.0,0.0,4000000.0,110.0,1.0,0.0,0.0,10.0,0.0,0.0,134.06161,1.2770963,700.77155,0.10452671,0.20581353,1.0422012E-4,326.56424,326.56372,321.31903,321.3878,377.0,378.0,446.0,450.0,93.0,93.0,93.0,93.0,0.0,0.0,0.0,0.0,0.049224272,0.04944562,0.052825417,0.053124808,0.32946464,0.19177793,0.34913418,0.47944483,3.5136936,-12.271105,-1.4483927,-6.8128085,0.0,0.0,0.0,2.0,1.0,-2.8338382,-0.019562941,-5.9604645E-4,93.0,93.0,93.0,93.0,21.980246,21.980246,24.842789,24.842789,0.015903562,0.01571355,-4.3043983E-4,-4.3243874E-4,1188.7908,0.0,0.0,0.0,0.0,0.0,0.0,0.0,0.0,0.0,0.0,0.0,0.0,0.0,-26.994173,0.042708628,-85.12627,-2.0183384E-4,0.011625387,-5.168982E-5,546749.6,119984.9,0.00997089,0.0097393915,7784.8125,7937.789,6375.323,6510.67,0.30595207,0.0,0.0,0.0
114.54848,114.54848,1.299,0.0,0.0,321.85394,11558.0,100.0,0.0,-0.16452304,0.0,8.0,1.0,0.0,4000000.0,110.0,1.0,0.0,0.0,10.0,0.0,0.0,132.7098,1.2792056,696.5131,0.10475011,0.20319079,-1.6500708E-6,326.91824,326.9173,321.67975,321.74786,375.0,376.0,444.0,448.0,93.0,93.0,93.0,93.0,0.0,0.0,0.0,0.0,0.04924981,0.049469702,0.05284372,0.053140458,0.5527585,0.25279817,0.4394352,0.24989244,-3.1515954,-20.103153,4.841387,-3.4734595,0.0,0.0,0.0,2.0,1.0,-2.8332598,-0.019566942,-5.8698654E-4,93.0,93.0,93.0,93.0,21.980246,21.980246,24.842789,24.842789,0.01586538,0.015676212,-4.2963843E-4,-4.31729E-4,1189.5912,0.0,0.0,0.0,0.0,0.0,0.0,0.0,0.0,0.0,0.0,0.0,0.0,0.0,-27.073315,0.041730024,-85.20614,-1.9489237E-4,0.011518706,1.2371776E-4,546502.4,119984.9,0.009919655,0.009675741,7797.3145,7950.9136,6386.4033,6519.7607,0.30589962,0.0,0.0,0.0
117.52893,117.52893,1.349,0.0,0.0,322.09143,11566.0,100.0,0.0,-0.17888047,0.0,8.0,1.0,0.0,4000000.0,110.0,1.0,0.0,0.0,10.0,0.0,0.0,131.8064,1.2805904,693.672,0.10656652,0.2012999,0.0016139402,327.15094,327.1561,321.91638,321.98645,374.0,375.0,443.0,447.0,93.0,93.0,93.0,93.0,0.0,0.0,0.0,0.0,0.049254775,0.04951068,0.052857365,0.05315169,0.0,0.0,0.0,0.0,-17.662344,71.990486,9.052455,-4.640221,0.0,0.0,0.0,2.0,1.0,-2.832872,-0.01957017,-5.748272E-4,93.0,93.0,93.0,93.0,21.980246,21.980246,24.842789,24.842789,0.015838062,0.015664939,-4.2785646E-4,-4.320989E-4,1190.0558,0.0,0.0,0.0,0.0,0.0,0.0,0.0,0.0,0.0,0.0,0.0,0.0,0.0,-27.126326,0.041350942,-85.25851,-4.1805045E-4,0.011938406,8.0814614E-5,546337.7,119984.9,0.009886608,0.009653322,7804.4717,7962.6406,6395.7373,6527.4253,0.30587196,0.0,0.0,0.0
122.00369,122.00369,1.399,0.0,0.0,322.44385,11578.0,100.0,0.0,-0.16199987,0.0,8.0,1.0,0.0,4000000.0,110.0,1.0,0.0,0.0,10.0,0.0,0.0,130.44798,1.2826151,689.407,0.10623847,0.19883144,-9.5388596E-4,327.49844,327.4985,322.26846,322.33923,373.0,374.0,441.0,445.0,93.0,93.0,93.0,93.0,0.0,0.0,0.0,0.0,0.0492752,0.049508438,0.052867703,0.0531764,0.0,0.0,0.0,0.0,27.720625,14.027952,9.495017,-9.213386,0.0,0.0,0.0,2.0,1.0,-2.8322675,-0.01955084,-5.658865E-4,93.0,93.0,93.0,93.0,21.980246,21.980246,24.842789,24.842789,0.015810084,0.015617381,-4.2897032E-4,-4.3011137E-4,1190.7648,0.0,0.0,0.0,0.0,0.0,0.0,0.0,0.0,0.0,0.0,0.0,0.0,0.0,-27.205927,0.039777115,-85.3359,-4.807689E-5,0.011927121,1.9330242E-5,546096.56,119984.9,0.009834278,0.009593259,7812.558,7970.8394,6402.611,6542.0947,0.3058138,0.0,0.0,0.0
127.97766,127.97766,1.449,0.0,0.0,322.90677,11594.0,100.0,0.0,-0.17592266,0.0,8.0,1.0,0.0,4000000.0,110.0,1.0,0.0,0.0,10.0,0.0,0.0,128.63055,1.2852237,683.7144,0.109377906,0.19537832,4.4160325E-4,327.95245,327.95212,322.7309,322.80295,370.0,371.0,439.0,443.0,93.0,93.0,93.0,93.0,0.0,0.0,0.0,0.0,0.049311653,0.04954451,0.05289093,0.053202044,0.5245953,0.2941489,0.44748184,0.24296342,4.5731645,-13.276932,7.282197,-12.204049,0.0,0.0,0.0,2.0,1.0,-2.8314579,-0.019542554,-5.546808E-4,93.0,93.0,93.0,93.0,21.980246,21.980246,24.842789,24.842789,0.015761135,0.015563595,-4.273306E-4,-4.302295E-4,1191.7178,0.0,0.0,0.0,0.0,0.0,0.0,0.0,0.0,0.0,0.0,0.0,0.0,0.0,-27.312782,0.038606364,-85.43677,-3.2729073E-4,0.012202472,-7.561747E-5,545779.4,119984.9,0.009760729,0.009502093,7829.874,7992.0967,6418.4097,6557.961,0.30572987,0.0,0.0,0.0
130.96796,130.96796,1.499,0.0,0.0,323.13516,11602.0,100.0,0.0,-0.1894496,0.0,8.0,1.0,0.0,4000000.0,110.0,1.0,0.0,0.0,10.0,0.0,0.0,127.71915,1.2865013,680.8656,0.1120524,0.19366243,6.222158E-4,328.1771,328.17783,322.95792,323.03262,369.0,370.0,438.0,442.0,93.0,93.0,93.0,93.0,0.0,0.0,0.0,0.0,0.04931809,0.04955926,0.052899886,0.053220995,0.0,0.0,0.0,0.0,0.34868714,-6.356835,4.5865765,4.1976566,0.0,0.0,0.0,2.0,1.0,-2.8310444,-0.019530527,-5.440712E-4,93.0,93.0,93.0,93.0,21.980246,21.980246,24.842789,24.842789,0.015742837,0.015540559,-4.2575217E-4,-4.299983E-4,1192.1962,0.0,0.0,0.0,0.0,0.0,0.0,0.0,0.0,0.0,0.0,0.0,0.0,0.0,-27.36675,0.038097724,-85.486115,-4.4037995E-4,0.012706458,-4.7383053E-4,545622.0,119984.9,0.009717814,0.009472092,7834.5615,7999.453,6425.7227,6571.1025,0.3057022,0.0,0.0,0.0
135.45723,135.45723,1.549,0.0,0.0,323.474,11614.0,100.0,0.0,-0.1570406,0.0,8.0,1.0,0.0,4000000.0,110.0,1.0,0.0,0.0,10.0,0.0,0.0,126.34866,1.2883797,676.58936,0.11055982,0.19118452,3.5035942E-4,328.5111,328.51132,323.29724,323.3713,368.0,369.0,436.0,440.0,93.0,93.0,93.0,93.0,0.0,0.0,0.0,0.0,0.04933716,0.049577795,0.05291408,0.053240642,0.0,0.0,0.0,0.0,22.530552,-35.834305,16.18713,-15.570222,0.0,0.0,0.0,2.0,1.0,-2.8304038,-0.019526746,-5.3179264E-4,93.0,93.0,93.0,93.0,21.980246,21.980246,24.842789,24.842789,0.015709102,0.015509879,-4.2752866E-4,-4.2682196E-4,1192.9192,0.0,0.0,0.0,0.0,0.0,0.0,0.0,0.0,0.0,0.0,0.0,0.0,0.0,-27.447765,0.03713166,-85.55899,-4.5522742E-5,0.012381556,8.0400385E-4,545388.8,119984.9,0.009671188,0.00942235,7842.626,8010.8237,6434.7773,6580.9707,0.3056488,0.0,0.0,0.0
141.45035,141.45035,1.599,0.0,0.0,323.91895,11629.0,100.0,0.0,-0.18711188,0.0,8.0,1.0,0.0,4000000.0,110.0,1.0,0.0,0.0,10.0,0.0,0.0,124.51503,1.290806,670.88214,0.11491156,0.18782437,-4.0074595E-4,328.95102,328.94943,323.7422,323.81647,365.0,366.0,434.0,438.0,93.0,93.0,93.0,93.0,0.0,0.0,0.0,0.0,0.049352888,0.04959857,0.052934628,0.05326649,0.5976855,0.043585893,0.4481524,0.25279817,31.74394,-26.87573,17.930567,-18.171963,0.0,0.0,0.0,2.0,1.0,-2.8295646,-0.019516056,-5.0997734E-4,93.0,93.0,93.0,93.0,21.980246,21.980246,24.842789,24.842789,0.015672643,0.015466501,-4.2463414E-4,-4.2851182E-4,1193.7881,0.0,0.0,0.0,0.0,0.0,0.0,0.0,0.0,0.0,0.0,0.0,0.0,0.0,-27.556637,0.035629325,-85.653824,-2.817301E-4,0.012616621,5.047185E-5,545082.06,119984.9,0.0096095875,0.009373312,7851.7476,8023.3276,6448.6143,6597.3906,0.30559158,0.0,0.0,0.0
145.95055,145.95055,1.649,0.0,0.0,324.24762,11641.0,100.0,0.0,-0.171621,0.0,8.0,1.0,0.0,4000000.0,110.0,1.0,0.0,0.0,10.0,0.0,0.0,123.13505,1.2925541,666.59766,0.11382203,0.18542589,-1.405651E-4,329.27444,329.27322,324.0714,324.14474,364.0,365.0,433.0,436.0,93.0,93.0,93.0,93.0,0.0,0.0,0.0,0.0,0.049371433,0.04961733,0.052952763,0.053283654,0.4608929,0.35919246,0.40814278,0.33505258,3.2454727,-0.8851289,1.9311904,-0.28163192,0.0,0.0,0.0,2.0,1.0,-2.82894,-0.01951739,-4.9614906E-4,93.0,93.0,93.0,93.0,21.980246,21.980246,24.842789,24.842789,0.015639257,0.015437302,-4.249171E-4,-4.2666125E-4,1194.524,0.0,0.0,0.0,0.0,0.0,0.0,0.0,0.0,0.0,0.0,0.0,0.0,0.0,-27.637848,0.034403503,-85.72359,-2.244812E-4,0.012367991,1.4771643E-4,544855.9,119984.9,0.009557595,0.009324861,7861.931,8032.9883,6460.0654,6609.1343,0.305542,0.0,0.0,0.0
148.95323,148.95323,1.699,0.0,0.0,324.46436,11648.0,100.0,0.0,-0.17074932,0.0,8.0,1.0,0.0,4000000.0,110.0,1.0,0.0,0.0,10.0,0.0,0.0,122.21281,1.2936889,663.7394,0.11414926,0.18379155,1.108736E-4,329.48746,329.4869,324.28763,324.36218,363.0,364.0,431.0,435.0,93.0,93.0,93.0,93.0,0.0,0.0,0.0,0.0,0.049380198,0.04963306,0.05296263,0.053298306,0.0,0.0,0.0,0.0,-10.420381,2.762675,-6.5311775,4.036724,0.0,0.0,0.0,2.0,1.0,-2.8285215,-0.019510603,-4.8685074E-4,93.0,93.0,93.0,93.0,21.980246,21.980246,24.842789,24.842789,0.015619091,0.015415557,-4.2489756E-4,-4.261042E-4,1194.9153,0.0,0.0,0.0,0.0,0.0,0.0,0.0,0.0,0.0,0.0,0.0,0.0,0.0,-27.692112,0.033735834,-85.76934,-2.850367E-4,0.01255224,3.811103E-5,544706.75,119984.9,0.0095227,0.009292041,7867.579,8040.6006,6466.259,6618.37,0.30550766,0.0,0.0,0.0
154.96481,154.96481,1.749,0.0,0.0,324.89215,11663.0,100.0,0.0,-0.18565327,0.0,8.0,1.0,0.0,4000000.0,110.0,1.0,0.0,0.0,10.0,0.0,0.0,120.362915,1.2958945,658.01825,0.115877725,0.18062226,7.6848664E-5,329.9091,329.9085,324.7151,324.79028,361.0,362.0,429.0,433.0,93.0,93.0,93.0,93.0,0.0,0.0,0.0,0.0,0.04940275,0.049653243,0.052986275,0.053321976,0.32700595,0.27447936,0.3252178,0.34913418,9.441374,-9.924172,2.6956198,-4.573166,0.0,0.0,0.0,2.0,1.0,-2.8276827,-0.0195096,-4.669428E-4,93.0,93.0,93.0,93.0,21.980246,21.980246,24.842789,24.842789,0.015580883,0.0153756635,-4.2263322E-4,-4.2615912E-4,1195.8069,0.0,0.0,0.0,0.0,0.0,0.0,0.0,0.0,0.0,0.0,0.0,0.0,0.0,-27.800295,0.032447394,-85.85925,-3.444513E-4,0.0127521185,-1.0209875E-4,544412.1,119984.9,0.009458772,0.009236294,7879.4375,8052.6445,6481.677,6633.0137,0.30544567,0.0,0.0,0.0
157.9738,157.9738,1.799,0.0,0.0,325.1032,11671.0,100.0,0.0,-0.17049332,0.0,8.0,1.0,0.0,4000000.0,110.0,1.0,0.0,0.0,10.0,0.0,0.0,119.43527,1.2969627,655.15546,0.114507504,0.17902038,-4.0551787E-4,330.11752,330.11673,324.92685,325.00092,360.0,361.0,428.0,432.0,93.0,93.0,93.0,93.0,0.0,0.0,0.0,0.0,0.049412858,0.049661193,0.052997112,0.053332217,0.0,0.0,0.0,0.0,7.4699507,-13.598798,5.13643,-9.669362,0.0,0.0,0.0,2.0,1.0,-2.8272624,-0.019511754,-4.5681E-4,93.0,93.0,93.0,93.0,21.980246,21.980246,24.842789,24.842789,0.015560323,0.015358697,-4.2306274E-4,-4.2458437E-4,1196.3074,0.0,0.0,0.0,0.0,0.0,0.0,0.0,0.0,0.0,0.0,0.0,0.0,0.0,-27.854063,0.031671766,-85.903465,-2.1652246E-4,0.012470256,3.0977125E-4,544266.6,119984.9,0.009428995,0.009210494,7884.6543,8057.472,6488.341,6638.925,0.30541897,0.0,0.0,0.0
162.49086,162.49086,1.849,0.0,0.0,325.4165,11682.0,100.0,0.0,-0.17262775,0.0,8.0,1.0,0.0,4000000.0,110.0,1.0,0.0,0.0,10.0,0.0,0.0,118.04046,1.2985146,650.8585,0.11393349,0.17673239,-1.0110228E-4,330.4266,330.42456,325.24158,325.31268,358.0,359.0,427.0,430.0,93.0,93.0,93.0,93.0,0.0,0.0,0.0,0.0,0.049433798,0.04967532,0.053018164,0.053345766,0.0,0.0,0.0,0.0,5.552172,-3.33935,2.0518897,-2.2396443,0.0,0.0,0.0,2.0,1.0,-2.8266525,-0.019521203,-4.4298172E-4,93.0,93.0,93.0,93.0,21.980246,21.980246,24.842789,24.842789,0.015528806,0.01533165,-4.219563E-4,-4.2460838E-4,1196.9604,0.0,0.0,0.0,0.0,0.0,0.0,0.0,0.0,0.0,0.0,0.0,0.0,0.0,-27.934067,0.030495066,-85.96899,-2.4049284E-4,0.012025967,7.272263E-5,544051.0,119984.91,0.009379787,0.009166074,7895.6865,8065.171,6501.797,6649.062,0.30537224,0.0,0.0,0.0
168.52046,168.52046,1.899,0.0,0.0,325.8278,11696.0,100.0,0.0,-0.17250505,0.0,8.0,1.0,0.0,4000000.0,110.0,1.0,0.0,0.0,10.0,0.0,0.0,116.17451,1.3004992,645.12427,0.113214076,0.17364472,2.6330026E-4,330.83115,330.83078,325.65225,325.72485,356.0,357.0,424.0,428.0,93.0,93.0,93.0,93.0,0.0,0.0,0.0,0.0,0.04945448,0.049697064,0.053040437,0.05337041,0.4121661,0.14796852,0.5333125,0.3238767,3.7819145,-6.0081477,16.97838,-4.372,0.0,0.0,0.0,2.0,1.0,-2.8258412,-0.019520782,-4.2247772E-4,93.0,93.0,93.0,93.0,21.980246,21.980246,24.842789,24.842789,0.015490815,0.015294107,-4.21203E-4,-4.235159E-4,1197.771,0.0,0.0,0.0,0.0,0.0,0.0,0.0,0.0,0.0,0.0,0.0,0.0,0.0,-28.04009,0.029123746,-86.054634,-2.1307272E-4,0.012264926,2.625113E-4,543767.75,119984.9,0.009312491,0.009111054,7907.3784,8076.9814,6517.546,6665.245,0.30531788,0.0,0.0,0.0
173.04773,173.04773,1.949,0.0,0.0,326.13165,11707.0,100.0,0.0,-0.16035846,0.0,8.0,1.0,0.0,4000000.0,110.0,1.0,0.0,0.0,10.0,0.0,0.0,114.77045,1.3019278,640.8198,0.110549115,0.17144881,3.2678852E-4,331.1309,331.12924,325.95847,326.0267,354.0,355.0,423.0,427.0,93.0,93.0,93.0,93.0,0.0,0.0,0.0,0.0,0.04947929,0.049710147,0.053064205,0.053378657,0.54180616,0.3685802,0.3752857,0.2170354,-9.132921,5.3107734,-10.326502,9.374319,0.0,0.0,0.0,2.0,1.0,-2.8252547,-0.019539421,-4.121065E-4,93.0,93.0,93.0,93.0,21.980246,21.980246,24.842789,24.842789,0.015457169,0.015269426,-4.2097864E-4,-4.227295E-4,1198.4365,0.0,0.0,0.0,0.0,0.0,0.0,0.0,0.0,0.0,0.0,0.0,0.0,0.0,-28.117867,0.028116392,-86.11805,-2.4372905E-4,0.01150816,4.4609802E-5,543558.7,119984.9,0.009268916,0.009062469,7920.04,8083.7324,6529.3315,6671.0503,0.30526352,0.0,0.0,0.0
176.06822,176.06822,1.999,0.0,0.0,326.33212,11714.0,100.0,0.0,-0.16143548,0.0,8.0,1.0,0.0,4000000.0,110.0,1.0,0.0,0.0,10.0,0.0,0.0,113.83225,1.3028657,637.9485,0.10938142,0.17004529,0.00687086,331.3342,331.3228,326.15912,326.22775,353.0,354.0,422.0,426.0,93.0,93.0,93.0,93.0,0.0,0.0,0.0,0.0,0.04957954,0.049709223,0.05306937,0.053396266,0.0,0.0,0.0,0.0,351.49005,-47.93107,-11.466441,20.371374,0.0,0.0,0.0,2.0,1.0,-2.8248706,-0.01951489,-3.9350986E-4,93.0,93.0,93.0,93.0,21.980246,21.980246,24.842789,24.842789,0.015421904,0.01524123,-4.2018085E-4,-4.2213654E-4,1198.8477,0.0,0.0,0.0,0.0,0.0,0.0,0.0,0.0,0.0,0.0,0.0,0.0,0.0,-28.16932,0.028598571,-86.15982,-0.001720214,0.011531156,-0.0016811609,543420.2,119984.9,0.009238033,0.009031001,7954.3994,8089.568,6533.042,6683.581,0.30525017,0.0,0.0,0.0
182.11479,182.11479,2.049,0.0,0.0,326.72748,11727.0,100.0,0.0,-0.1597083,0.0,8.0,1.0,0.0,4000000.0,110.0,1.0,0.0,0.0,10.0,0.0,0.0,111.950714,1.3046418,632.20166,0.1096135,0.16715196,-0.0015031679,331.717,331.7193,326.55246,326.62436,351.0,352.0,420.0,424.0,93.0,93.0,93.0,93.0,0.0,0.0,0.0,0.0,0.049511794,0.049731944,0.05309477,0.05340531,1.3913958,0.78298146,0.65222377,-0.14305113,-39.28094,54.5293,-6.03497,15.5434,0.0,0.0,0.0,2.0,1.0,-2.8240676,-0.019546209,-3.8349628E-4,93.0,93.0,93.0,93.0,21.980246,21.980246,24.842789,24.842789,0.015406185,0.0152197685,-4.201558E-4,-4.2082212E-4,1199.5764,0.0,0.0,0.0,0.0,0.0,0.0,0.0,0.0,0.0,0.0,0.0,0.0,0.0,-28.27225,0.025091384,-86.24168,3.2899738E-4,0.012094497,5.688538E-4,543147.75,119984.9,0.009190439,0.008996683,7934.287,8097.534,6548.9062,6687.1914,0.30519295,0.0,0.0,0.0
186.65454,186.65454,2.099,0.0,0.0,327.01984,11737.0,100.0,0.0,-0.16031975,0.0,8.0,1.0,0.0,4000000.0,110.0,1.0,0.0,0.0,10.0,0.0,0.0,110.53507,1.3058863,627.888,0.110314496,0.16485497,0.0023615158,332.0038,332.0043,326.84534,326.9165,350.0,351.0,418.0,422.0,93.0,93.0,93.0,93.0,0.0,0.0,0.0,0.0,0.049525596,0.049771287,0.05310971,0.053432856,-0.06325542,0.53890043,0.17769633,0.7349252,-15.985962,-17.286837,-5.0827847,6.061792,0.0,0.0,0.0,2.0,1.0,-2.8234673,-0.019527746,-3.734827E-4,93.0,93.0,93.0,93.0,21.980246,21.980246,24.842789,24.842789,0.015372796,0.015183609,-4.194461E-4,-4.2078615E-4,1200.1576,0.0,0.0,0.0,0.0,0.0,0.0,0.0,0.0,0.0,0.0,0.0,0.0,0.0,-28.349136,0.024872651,-86.30192,-5.0255534E-4,0.0119803455,-1.8866862E-4,542947.94,119984.9,0.009122726,0.008923873,7947.956,8114.445,6560.5156,6707.7256,0.30512142,0.0,0.0,0.0
189.68326,189.68326,2.149,0.0,0.0,327.2124,11744.0,100.0,0.0,-0.15153013,0.0,8.0,1.0,0.0,4000000.0,110.0,1.0,0.0,0.0,10.0,0.0,0.0,109.58919,1.3067131,625.0106,0.1087945,0.16332734,8.576698E-4,332.1955,332.19504,327.03918,327.10794,349.0,350.0,417.0,421.0,93.0,93.0,93.0,93.0,0.0,0.0,0.0,0.0,0.04953235,0.049766213,0.05312433,0.05344274,0.0,0.0,0.0,0.0,3.9562578,-9.924172,5.511939,-15.67751,0.0,0.0,0.0,2.0,1.0,-2.8230746,-0.01953679,-3.5893917E-4,93.0,93.0,93.0,93.0,21.980246,21.980246,24.842789,24.842789,0.015357098,0.015172541,-4.1935683E-4,-4.1980852E-4,1200.5779,0.0,0.0,0.0,0.0,0.0,0.0,0.0,0.0,0.0,0.0,0.0,0.0,0.0,-28.399872,0.024644941,-86.34155,-1.8772332E-4,0.0115351025,7.0673047E-4,542814.3,119984.9,0.009096022,0.0089144455,7950.51,8114.8193,6569.3027,6711.797,0.3051033,0.0,0.0,0.0
194.22986,194.22986,2.199,0.0,0.0,327.49823,11754.0,100.0,0.0,-0.162831,0.0,8.0,1.0,0.0,4000000.0,110.0,1.0,0.0,0.0,10.0,0.0,0.0,108.16718,1.3079128,620.69196,0.10909864,0.16129676,-0.0011225666,332.47827,332.47812,327.32516,327.39374,347.0,348.0,416.0,419.0,93.0,93.0,93.0,93.0,0.0,0.0,0.0,0.0,0.04953978,0.049774457,0.053138528,0.053452715,0.0,0.0,0.0,0.0,5.377828,9.347497,-3.8489697,4.3183556,0.0,0.0,0.0,2.0,1.0,-2.8224976,-0.019540641,-3.44038E-4,93.0,93.0,93.0,93.0,21.980246,21.980246,24.842789,24.842789,0.015334983,0.015150923,-4.1784282E-4,-4.202647E-4,1201.1675,0.0,0.0,0.0,0.0,0.0,0.0,0.0,0.0,0.0,0.0,0.0,0.0,0.0,-28.475681,0.023287147,-86.40018,-2.548595E-4,0.011598215,-5.389341E-5,542618.9,119984.9,0.009066135,0.008892867,7956.3086,8118.282,6576.26,6718.2266,0.3050766,0.0,0.0,0.0
200.29811,200.29811,2.249,0.0,0.0,327.87375,11767.0,100.0,0.0,-0.15306573,0.0,8.0,1.0,0.0,4000000.0,110.0,1.0,0.0,0.0,10.0,0.0,0.0,106.265305,1.3094012,614.92926,0.1074087,0.15856326,2.7708564E-4,332.8472,332.84787,327.7008,327.7692,345.0,346.0,414.0,417.0,93.0,93.0,93.0,93.0,0.0,0.0,0.0,0.0,0.049569733,0.04979489,0.053160883,0.053472295,0.6741285,0.04984438,0.67368144,0.17903744,18.90957,-22.315975,29.155607,-13.9608965,0.0,0.0,0.0,2.0,1.0,-2.821716,-0.019549387,-3.272295E-4,93.0,93.0,93.0,93.0,21.980246,21.980246,24.842789,24.842789,0.015296667,0.015117149,-4.1784474E-4,-4.1890735E-4,1201.9395,0.0,0.0,0.0,0.0,0.0,0.0,0.0,0.0,0.0,0.0,0.0,0.0,0.0,-28.575924,0.021602279,-86.476944,-5.303629E-5,0.011488333,6.2382605E-4,542367.75,119984.9,0.00900048,0.008831223,7970.587,8130.31,6593.745,6732.089,0.30501938,0.0,0.0,0.0
203.33484,203.33484,2.299,0.0,0.0,328.05908,11774.0,100.0,0.0,-0.1409303,0.0,8.0,1.0,0.0,4000000.0,110.0,1.0,0.0,0.0,10.0,0.0,0.0,105.311874,1.3101113,612.046,0.104970396,0.15717494,3.6512676E-4,333.03015,333.02933,327.88855,327.95218,344.0,345.0,412.0,416.0,93.0,93.0,93.0,93.0,0.0,0.0,0.0,0.0,0.049584243,0.049803212,0.053179074,0.053476818,0.0,0.0,0.0,0.0,13.424454,8.583067,-8.274612,-1.2069939,0.0,0.0,0.0,2.0,1.0,-2.821349,-0.019566735,-3.207922E-4,93.0,93.0,93.0,93.0,21.980246,21.980246,24.842789,24.842789,0.015274321,0.015103615,-4.1766558E-4,-4.184174E-4,1202.3796,0.0,0.0,0.0,0.0,0.0,0.0,0.0,0.0,0.0,0.0,0.0,0.0,0.0,-28.624825,0.021049304,-86.51499,-4.1327134E-5,0.010677293,4.5783314E-4,542243.8,119984.9,0.008971693,0.008799329,7979.885,8134.246,6602.146,6735.6357,0.30497932,0.0,0.0,0.0
207.89314,207.89314,2.349,0.0,0.0,328.33405,11783.0,100.0,0.0,-0.14237356,0.0,8.0,1.0,0.0,4000000.0,110.0,1.0,0.0,0.0,10.0,0.0,0.0,103.87871,1.3111455,607.7187,0.10339238,0.15511194,1.9400683E-4,333.3019,333.30106,328.16345,328.22742,343.0,343.0,411.0,415.0,93.0,93.0,93.0,93.0,0.0,0.0,0.0,0.0,0.049590446,0.04981904,0.053193048,0.053494427,0.0,0.0,0.0,0.0,-5.7533374,-7.644295,-2.2664664,-4.4122334,0.0,0.0,0.0,2.0,1.0,-2.8208082,-0.019561743,-3.0624866E-4,93.0,93.0,93.0,93.0,21.980246,21.980246,24.842789,24.842789,0.015252474,0.015079517,-4.1706415E-4,-4.179505E-4,1202.8888,0.0,0.0,0.0,0.0,0.0,0.0,0.0,0.0,0.0,0.0,0.0,0.0,0.0,-28.697803,0.020307936,-86.57128,-1.6231582E-4,0.010749475,3.4132475E-4,542059.06,119984.9,0.0089284405,0.008770001,7984.982,8141.1445,6611.2124,6747.2285,0.30494308,0.0,0.0,0.0
212.45503,212.45503,2.399,0.0,0.0,328.6055,11793.0,100.0,0.0,-0.1430952,0.0,8.0,1.0,0.0,4000000.0,110.0,1.0,0.0,0.0,10.0,0.0,0.0,102.44192,1.3121324,603.3887,0.10225698,0.15314342,-2.7258397E-4,333.5686,333.56982,328.43466,328.49924,341.0,342.0,409.0,413.0,93.0,93.0,93.0,93.0,0.0,0.0,0.0,0.0,0.04960952,0.04982669,0.05321019,0.053503796,0.0,0.0,0.0,0.0,-17.7294,5.6058154,-1.6227363,4.6133986,0.0,0.0,0.0,2.0,1.0,-2.8202622,-0.019571725,-2.9361248E-4,93.0,93.0,93.0,93.0,21.980246,21.980246,24.842789,24.842789,0.015226822,0.015058085,-4.1645297E-4,-4.172988E-4,1203.5055,0.0,0.0,0.0,0.0,0.0,0.0,0.0,0.0,0.0,0.0,0.0,0.0,0.0,-28.769802,0.019219633,-86.62684,-1.6646419E-4,0.010864934,3.1990762E-4,541877.06,119984.89,0.008892449,0.008734244,7994.6055,8146.267,6621.14,6753.408,0.30490875,0.0,0.0,0.0
218.54355,218.54355,2.449,0.0,0.0,328.962,11805.0,100.0,0.0,-0.14708014,0.0,8.0,1.0,0.0,4000000.0,110.0,1.0,0.0,0.0,10.0,0.0,0.0,100.520645,1.3133622,597.61096,0.10035685,0.15050372,-1.08442386E-4,333.92084,333.92044,328.79327,328.85388,339.0,340.0,407.0,411.0,93.0,93.0,93.0,93.0,0.0,0.0,0.0,0.0,0.049636353,0.049838994,0.053236403,0.053516783,0.6511062,-0.0102818,0.54180616,0.07264315,24.488564,-22.919474,15.087423,-14.229116,0.0,0.0,0.0,2.0,1.0,-2.819556,-0.019590817,-2.772808E-4,93.0,93.0,93.0,93.0,21.980246,21.980246,24.842789,24.842789,0.015191059,0.015029398,-4.1495575E-4,-4.1774806E-4,1204.1989,0.0,0.0,0.0,0.0,0.0,0.0,0.0,0.0,0.0,0.0,0.0,0.0,0.0,-28.863804,0.017768031,-86.69994,-1.1172823E-4,0.010267329,3.8357542E-4,541638.1,119984.9,0.0088357255,0.008682989,8008.63,8153.573,6637.8257,6762.5957,0.30485535,0.0,0.0,0.0
223.11423,223.11423,2.499,0.0,0.0,329.22537,11814.0,100.0,0.0,-0.13389267,0.0,8.0,1.0,0.0,4000000.0,110.0,1.0,0.0,0.0,10.0,0.0,0.0,99.07563,1.3142278,593.2746,0.0973379,0.14859012,2.3320742E-4,334.18005,334.18008,329.05737,329.1166,338.0,338.0,406.0,409.0,93.0,93.0,93.0,93.0,0.0,0.0,0.0,0.0,0.049651526,0.049853574,0.053253975,0.053530183,0.45686957,0.083819024,0.41551885,0.18306075,14.363228,-19.92881,7.0676203,-9.8034725,0.0,0.0,0.0,2.0,1.0,-2.8190458,-0.01959758,-2.655983E-4,93.0,93.0,93.0,93.0,21.980246,21.980246,24.842789,24.842789,0.015164618,0.015008029,-4.151836E-4,-4.1642974E-4,1204.7244,0.0,0.0,0.0,0.0,0.0,0.0,0.0,0.0,0.0,0.0,0.0,0.0,0.0,-28.932886,0.016919626,-86.754036,-7.4500786E-5,0.009964711,5.0816813E-4,541461.7,119984.9,0.008793007,0.008644472,8018.171,8160.3984,6648.2773,6771.9062,0.30481243,0.0,0.0,0.0
227.68857,227.68857,2.549,0.0,0.0,329.48532,11823.0,100.0,0.0,-0.12556507,0.0,8.0,1.0,0.0,4000000.0,110.0,1.0,0.0,0.0,10.0,0.0,0.0,97.62718,1.3150508,588.9355,0.09476509,0.14666939,4.1329185E-6,334.4362,334.43707,329.3179,329.37616,336.0,337.0,404.0,408.0,93.0,93.0,93.0,93.0,0.0,0.0,0.0,0.0,0.049665976,0.04986331,0.053271726,0.05354099,0.40769574,0.096336,0.40434298,0.17501412,17.729399,-14.980135,8.542835,-7.1480856,0.0,0.0,0.0,2.0,1.0,-2.8185441,-0.019608192,-2.5320053E-4,93.0,93.0,93.0,93.0,21.980246,21.980246,24.842789,24.842789,0.015139597,0.014988251,-4.1517595E-4,-4.1548212E-4,1205.2537,0.0,0.0,0.0,0.0,0.0,0.0,0.0,0.0,0.0,0.0,0.0,0.0,0.0,-29.000761,0.016036572,-86.80751,-3.3309E-5,0.009771637,6.2797585E-4,541287.25,119984.89,0.008754265,0.00861143,8027.0073,8165.3315,6658.9688,6779.4316,0.3047762,0.0,0.0,0.0
230.74014,230.74014,2.599,0.0,0.0,329.6568,11829.0,100.0,0.0,-0.12822431,0.0,8.0,1.0,0.0,4000000.0,110.0,1.0,0.0,0.0,10.0,0.0,0.0,96.65968,1.315574,586.04126,0.09352912,0.14541379,-2.0193926E-4,334.60553,334.60605,329.49063,329.5465,335.0,336.0,403.0,407.0,93.0,93.0,93.0,93.0,0.0,0.0,0.0,0.0,0.04967969,0.04986626,0.05328678,0.053544104,0.0,0.0,0.0,0.0,-10.581314,11.050699,-4.304945,3.620982,0.0,0.0,0.0,2.0,1.0,-2.8182263,-0.019623578,-2.4557114E-4,93.0,93.0,93.0,93.0,21.980246,21.980246,24.842789,24.842789,0.015122404,0.014975865,-4.1438788E-4,-4.1578876E-4,1205.609,0.0,0.0,0.0,0.0,0.0,0.0,0.0,0.0,0.0,0.0,0.0,0.0,0.0,-29.044985,0.015395717,-86.84295,-1.3439158E-4,0.009422374,2.9697848E-4,541172.2,119984.9,0.008729311,0.008589275,8033.9346,8167.548,6667.152,6782.4404,0.30475235,0.0,0.0,0.0
236.84804,236.84804,2.649,0.0,0.0,329.9953,11841.0,100.0,0.0,-0.106241755,0.0,8.0,1.0,0.0,4000000.0,110.0,1.0,0.0,0.0,10.0,0.0,0.0,94.72039,1.3165563,580.24927,0.08547792,0.14294115,3.0251103E-6,334.94034,334.9388,329.83362,329.88055,333.0,334.0,401.0,405.0,93.0,93.0,93.0,93.0,0.0,0.0,0.0,0.0,0.049709037,0.049872093,0.0533206,0.05354867,0.32968816,0.1669675,0.64194196,0.028163193,-18.051264,15.315411,1.5556811,3.8757913,0.0,0.0,0.0,2.0,1.0,-2.8176565,-0.019667508,-2.3126602E-4,93.0,93.0,93.0,93.0,21.980246,21.980246,24.842789,24.842789,0.015083622,0.014955868,-4.1378613E-4,-4.145202E-4,1206.3259,0.0,0.0,0.0,0.0,0.0,0.0,0.0,0.0,0.0,0.0,0.0,0.0,0.0,-29.129412,0.014167177,-86.91384,-3.3517106E-5,0.007882712,4.237428E-4,540945.25,119984.89,0.008671614,0.008541738,8050.98,8169.73,6687.298,6788.558,0.30469894,0.0,0.0,0.0
241.43306,241.43306,2.699,0.0,0.0,330.2454,11850.0,100.0,0.0,-0.109172404,0.0,8.0,1.0,0.0,4000000.0,110.0,1.0,0.0,0.0,10.0,0.0,0.0,93.26231,1.3172474,575.90216,0.08178249,0.14106606,4.6496623E-4,335.18536,335.1861,330.08334,330.13126,332.0,332.0,400.0,403.0,93.0,93.0,93.0,93.0,0.0,0.0,0.0,0.0,0.049724504,0.049889315,0.053337418,0.053560786,0.22843479,0.27559695,0.24162231,0.28051433,-18.011028,-2.2262332,-4.3317666,2.6151528,0.0,0.0,0.0,2.0,1.0,-2.8172588,-0.019673761,-2.2351742E-4,93.0,93.0,93.0,93.0,21.980246,21.980246,24.842789,24.842789,0.015058766,0.014933246,-4.13396E-4,-4.1459795E-4,1206.8694,0.0,0.0,0.0,0.0,0.0,0.0,0.0,0.0,0.0,0.0,0.0,0.0,0.0,-29.190306,0.013548708,-86.96669,-1.0779019E-4,0.008081954,3.334867E-4,540777.9,119984.9,0.008632866,0.008500904,8061.2236,8176.632,6696.039,6796.6943,0.3046608,0.0,0.0,0.0
244.49167,244.49167,2.749,0.0,0.0,330.4103,11856.0,100.0,0.0,-0.10124099,0.0,8.0,1.0,0.0,4000000.0,110.0,1.0,0.0,0.0,10.0,0.0,0.0,92.28859,1.3176912,573.0027,0.07868576,0.13980998,1.04178034E-4,335.3478,335.3496,330.24893,330.29562,331.0,331.0,399.0,402.0,93.0,93.0,93.0,93.0,0.0,0.0,0.0,0.0,0.049737267,0.049888223,0.053352762,0.05356332,0.0,0.0,0.0,0.0,5.0961967,-0.60349685,6.7993975,-3.379583,0.0,0.0,0.0,2.0,1.0,-2.8169923,-0.019692713,-2.1576881E-4,93.0,93.0,93.0,93.0,21.980246,21.980246,24.842789,24.842789,0.015041602,0.014923231,-4.1356462E-4,-4.1408045E-4,1207.233,0.0,0.0,0.0,0.0,0.0,0.0,0.0,0.0,0.0,0.0,0.0,0.0,0.0,-29.229584,0.013094504,-87.00182,1.4848731E-5,0.007846142,7.4764685E-4,540667.06,119984.9,0.008610521,0.008484304,8068.3784,8177.2397,6705.6973,6799.1143,0.30463982,0.0,0.0,0.0
249.08243,249.08243,2.799,0.0,0.0,330.65506,11864.0,100.0,0.0,-0.10478919,0.0,8.0,1.0,0.0,4000000.0,110.0,1.0,0.0,0.0,10.0,0.0,0.0,90.82558,1.3183223,568.6512,0.07649188,0.13808084,-5.3920853E-4,335.58917,335.5915,330.49442,330.5396,329.0,330.0,397.0,401.0,93.0,93.0,93.0,93.0,0.0,0.0,0.0,0.0,0.049750756,0.04989624,0.053370684,0.053569976,0.0,0.0,0.0,0.0,-0.53644174,7.9259257,-7.1346745,6.7993994,0.0,0.0,0.0,2.0,1.0,-2.816608,-0.019708008,-2.0587444E-4,93.0,93.0,93.0,93.0,21.980246,21.980246,24.842789,24.842789,0.015019098,0.014905938,-4.1217738E-4,-4.1379963E-4,1207.6804,0.0,0.0,0.0,0.0,0.0,0.0,0.0,0.0,0.0,0.0,0.0,0.0,0.0,-29.287142,0.012164586,-87.0542,-1.5276417E-4,0.0076473663,1.11989284E-4,540502.75,119984.9,0.008576435,0.008454718,8077.4175,8180.0195,6714.824,6804.788,0.30460548,0.0,0.0,0.0
253.67662,253.67662,2.849,0.0,0.0,330.8967,11873.0,100.0,0.0,-0.06820835,0.0,8.0,1.0,0.0,4000000.0,110.0,1.0,0.0,0.0,10.0,0.0,0.0,89.35974,1.3189083,564.2971,0.06991501,0.13630776,2.8044824E-4,335.82755,335.8293,330.73846,330.77908,328.0,329.0,396.0,399.0,93.0,93.0,93.0,93.0,0.0,0.0,0.0,0.0,0.049771626,0.04990497,0.053393472,0.053578172,0.0,0.0,0.0,0.0,6.1690784,-1.2740488,8.971989,-7.4028955,0.0,0.0,0.0,2.0,1.0,-2.816238,-0.019732451,-1.9693375E-4,93.0,93.0,93.0,93.0,21.980246,21.980246,24.842789,24.842789,0.014991058,0.014890205,-4.13895E-4,-4.1136137E-4,1208.2346,0.0,0.0,0.0,0.0,0.0,0.0,0.0,0.0,0.0,0.0,0.0,0.0,0.0,-29.342585,0.011416952,-87.10636,3.0278333E-4,0.0066803237,0.0011491418,540340.9,119984.91,0.008531464,0.008418481,8088.422,8184.9233,6730.3315,6811.8687,0.30456543,0.0,0.0,0.0
259.80725,259.80725,2.899,0.0,0.0,331.21396,11884.0,100.0,0.0,-0.03021952,0.0,8.0,1.0,0.0,4000000.0,110.0,1.0,0.0,0.0,10.0,0.0,0.0,87.4012,1.3196509,558.48755,0.054929923,0.1338959,2.7895876E-4,336.1434,336.13898,331.0662,331.08597,326.0,327.0,394.0,397.0,93.0,93.0,93.0,93.0,0.0,0.0,0.0,0.0,0.049813673,0.04989651,0.053440806,0.0535661,0.50179654,-0.15065072,0.7465481,-0.1515448,8.24779,-2.4005764,5.3107734,0.4291534,0.0,0.0,0.0,2.0,1.0,-2.8159168,-0.019816458,-1.8846989E-4,93.0,93.0,93.0,93.0,21.980246,21.980246,24.842789,24.842789,0.014943468,0.014881894,-4.1295702E-4,-4.1083773E-4,1208.878,0.0,0.0,0.0,0.0,0.0,0.0,0.0,0.0,0.0,0.0,0.0,0.0,0.0,-29.408442,0.0108916,-87.17716,2.5031305E-4,0.003174672,0.0011593798,540128.2,119984.9,0.008483332,0.008372742,8114.0605,8178.0664,6754.7666,6808.796,0.30451965,0.0,0.0,0.0
264.40906,264.40906,2.949,0.0,0.0,331.44846,11892.0,100.0,0.0,-0.01846033,0.0,8.0,1.0,0.0,4000000.0,110.0,1.0,0.0,0.0,10.0,0.0,0.0,85.929634,1.3201798,554.12726,0.04150031,0.1322207,-7.3399936E-4,336.37512,336.3707,331.3058,331.31552,324.0,325.0,392.0,396.0,93.0,93.0,93.0,93.0,0.0,0.0,0.0,0.0,0.04984056,0.04988819,0.053473704,0.05355536,0.6464123,-0.18864869,0.6412714,-0.24430451,5.847215,-0.4827976,-2.481043,-0.053644177,0.0,0.0,0.0,2.0,1.0,-2.815807,-0.019883977,-1.8334389E-4,93.0,93.0,93.0,93.0,21.980246,21.980246,24.842789,24.842789,0.0149122635,0.014875242,-4.121678E-4,-4.1139254E-4,1209.3389,0.0,0.0,0.0,0.0,0.0,0.0,0.0,0.0,0.0,0.0,0.0,0.0,0.0,-29.450474,0.01023664,-87.23172,3.6952677E-4,0.0015707923,0.0014026753,539970.6,119984.89,0.0084538115,0.0083464235,8131.1777,8170.8867,6770.542,6804.8076,0.30449295,0.0,0.0,0.0
267.47873,267.47873,2.999,0.0,0.0,331.60312,11897.0,100.0,0.0,-0.010963365,0.0,8.0,1.0,0.0,4000000.0,110.0,1.0,0.0,0.0,10.0,0.0,0.0,84.94751,1.3205144,551.2189,0.03274451,0.13109113,-3.9226905E-4,336.5269,336.52396,331.46237,331.46826,323.0,324.0,391.0,395.0,93.0,93.0,93.0,93.0,0.0,0.0,0.0,0.0,0.049858518,0.04988587,0.05350083,0.05354786,0.0,0.0,0.0,0.0,-7.6845264,5.1900735,-1.9848344,1.4081596,0.0,0.0,0.0,2.0,1.0,-2.815768,-0.019929053,-1.8143654E-4,93.0,93.0,93.0,93.0,21.980246,21.980246,24.842789,24.842789,0.014891984,0.014868785,-4.1190197E-4,-4.112563E-4,1209.6151,0.0,0.0,0.0,0.0,0.0,0.0,0.0,0.0,0.0,0.0,0.0,0.0,0.0,-29.474924,0.009878909,-87.26881,3.8985198E-4,9.429865E-4,0.0011480567,539866.94,119984.9,0.008420212,0.008323078,8143.0156,8167.898,6785.929,6804.3047,0.30446053,0.0,0.0,0.0
273.62244,273.62244,3.049,0.0,0.0,331.90793,11908.0,100.0,0.0,-0.007271738,0.0,8.0,1.0,0.0,4000000.0,110.0,1.0,0.0,0.0,10.0,0.0,0.0,82.981,1.3212504,545.3983,0.020586386,0.12848707,-0.011315497,336.83096,336.8338,331.76907,331.77118,322.0,322.0,389.0,393.0,93.0,93.0,93.0,93.0,0.0,0.0,0.0,0.0,0.049855378,0.04982529,0.053557485,0.05352188,-1.1877714,1.784563,-1.1871009,0.8656829,-123.05973,788.43524,-142.73373,100.77058,0.0,0.0,0.0,2.0,1.0,-2.8157318,-0.02002845,-1.5068054E-4,93.0,93.0,93.0,93.0,21.980246,21.980246,24.842789,24.842789,0.014875371,0.014873288,-4.1027597E-4,-4.1080103E-4,1210.2657,0.0,0.0,0.0,0.0,0.0,0.0,0.0,0.0,0.0,0.0,0.0,0.0,0.0,-29.517124,0.008938162,-87.343925,-2.277788E-4,4.2273928E-4,-0.0041764653,539658.4,119984.9,0.008416473,0.008393091,8144.1484,8148.758,6802.9136,6796.316,0.30448914,0.0,0.0,0.0
278.2338,278.2338,3.099,0.0,0.0,332.13403,11916.0,100.0,0.0,0.061576825,0.0,8.0,1.0,0.0,4000000.0,110.0,1.0,0.0,0.0,10.0,0.0,0.0,81.504456,1.3216456,541.0296,0.0036081858,0.12753183,0.0034610499,337.0452,337.04517,332.00092,331.99158,320.0,321.0,388.0,391.0,93.0,93.0,93.0,93.0,0.0,0.0,0.0,0.0,0.04995318,0.049907107,0.05356529,0.053533595,2.787262,-0.44658777,1.5581398,-0.6607174,-1.5422772,-103.31868,78.18638,-54.354958,0.0,0.0,0.0,2.0,1.0,-2.8157544,-0.020051382,-1.9443035E-4,93.0,93.0,93.0,93.0,21.980246,21.980246,24.842789,24.842789,0.014811128,0.014836776,-4.13907E-4,-4.073967E-4,1210.7535,0.0,0.0,0.0,0.0,0.0,0.0,0.0,0.0,0.0,0.0,0.0,0.0,0.0,-29.541628,0.008150268,-87.40194,0.0014419814,-0.0018593784,0.0035055433,539513.44,119984.9,0.008335245,0.008200794,8190.5405,8174.4404,6823.741,6801.622,0.30436325,0.0,0.0,0.0
281.3098,281.3098,3.149,0.0,0.0,332.28284,11921.0,100.0,0.0,0.08939291,0.0,8.0,1.0,0.0,4000000.0,110.0,1.0,0.0,0.0,10.0,0.0,0.0,80.5195,1.32195,538.1155,-0.0075418316,0.1260893,0.005256805,337.19214,337.19214,332.15625,332.1341,319.0,320.0,387.0,391.0,93.0,93.0,93.0,93.0,0.0,0.0,0.0,0.0,0.049977448,0.049886893,0.05361754,0.0535179,0.0,0.0,0.0,0.0,-78.96422,7.7784057,-30.604002,25.776026,0.0,0.0,0.0,2.0,1.0,-2.8158553,-0.020138407,-1.8775463E-4,93.0,93.0,93.0,93.0,21.980246,21.980246,24.842789,24.842789,0.014778909,0.014840956,-4.139087E-4,-4.070156E-4,1211.0372,0.0,0.0,0.0,0.0,0.0,0.0,0.0,0.0,0.0,0.0,0.0,0.0,0.0,-29.553595,0.009939586,-87.44153,1.8142204E-4,-0.0040452713,0.0017741252,539413.5,119984.9,0.008284449,0.008171561,8212.924,8161.2197,6849.792,6801.539,0.30431938,0.0,0.0,0.0
285.92636,285.92636,3.199,0.0,0.0,332.50327,11929.0,100.0,0.0,0.058103766,0.0,8.0,1.0,0.0,4000000.0,110.0,1.0,0.0,0.0,10.0,0.0,0.0,79.04147,1.3224785,533.7418,-0.018140635,0.12433819,-1.4127081E-4,337.41434,337.4131,332.3804,332.35086,318.0,319.0,386.0,389.0,93.0,93.0,93.0,93.0,0.0,0.0,0.0,0.0,0.04996699,0.049865525,0.053646762,0.05351498,0.0,0.0,0.0,0.0,22.342798,20.626183,-3.5673378,2.6419752,0.0,0.0,0.0,2.0,1.0,-2.8160982,-0.020183368,-1.7642975E-4,93.0,93.0,93.0,93.0,21.980246,21.980246,24.842789,24.842789,0.014767894,0.014840078,-4.0965452E-4,-4.1009602E-4,1211.5115,0.0,0.0,0.0,0.0,0.0,0.0,0.0,0.0,0.0,0.0,0.0,0.0,0.0,-29.566114,0.010762333,-87.50193,2.300578E-4,-0.0049114153,5.7194085E-4,539262.9,119984.89,0.008271069,0.008200583,8215.613,8146.6406,6861.074,6800.284,0.3043232,0.0,0.0,0.0
292.08655,292.08655,3.249,0.0,0.0,332.79297,11939.0,100.0,0.0,0.038864087,0.0,8.0,1.0,0.0,4000000.0,110.0,1.0,0.0,0.0,10.0,0.0,0.0,77.06999,1.3231634,527.9055,-0.02537949,0.122325234,-0.0014915762,337.69412,337.70523,332.66458,332.6462,316.0,317.0,384.0,387.0,93.0,93.0,93.0,93.0,0.0,0.0,0.0,0.0,0.04999308,0.0498711,0.05366671,0.053508013,0.5321949,0.3033131,0.44234094,0.05677342,7.6845264,7.604061,14.202295,6.6652884,0.0,0.0,0.0,2.0,1.0,-2.8163605,-0.020222291,-1.8310547E-4,93.0,93.0,93.0,93.0,21.980246,21.980246,24.842789,24.842789,0.014742794,0.01481822,-4.088499E-4,-4.0928385E-4,1212.0901,0.0,0.0,0.0,0.0,0.0,0.0,0.0,0.0,0.0,0.0,0.0,0.0,0.0,-29.577293,0.00984038,-87.58309,1.2500597E-4,-0.0029746494,2.5680248E-4,539068.5,119984.89,0.008240822,0.008166517,8229.99,8147.595,6871.741,6798.642,0.3042946,0.0,0.0,0.0
296.71008,296.71008,3.299,0.0,0.0,333.00708,11946.0,100.0,0.0,0.037336595,0.0,8.0,1.0,0.0,4000000.0,110.0,1.0,0.0,0.0,10.0,0.0,0.0,75.59095,1.3236485,523.5248,-0.025502555,0.12076435,-1.7360062E-4,337.9036,337.9168,332.87726,332.8618,315.0,315.0,382.0,386.0,93.0,93.0,93.0,93.0,0.0,0.0,0.0,0.0,0.050011057,0.049883835,0.0536855,0.05351964,0.48615035,0.21278857,0.48905605,0.24430451,1.8909572,-2.5480976,8.0332155,-0.6973734,0.0,0.0,0.0,2.0,1.0,-2.816495,-0.020230586,-1.8143654E-4,93.0,93.0,93.0,93.0,21.980246,21.980246,24.842789,24.842789,0.014722808,0.014797397,-4.0882317E-4,-4.089139E-4,1212.4786,0.0,0.0,0.0,0.0,0.0,0.0,0.0,0.0,0.0,0.0,0.0,0.0,0.0,-29.584145,0.0097009055,-87.643555,-1.3268078E-4,-0.0024943158,-2.0740129E-4,538925.3,119984.89,0.008170147,0.008107789,8238.565,8155.157,6884.1455,6808.591,0.304224,0.0,0.0,0.0
299.79416,299.79416,3.349,0.0,0.0,333.14838,11951.0,100.0,0.0,0.075991414,0.0,8.0,1.0,0.0,4000000.0,110.0,1.0,0.0,0.0,10.0,0.0,0.0,74.60474,1.3239746,520.6026,-0.029360056,0.1198097,5.4458098E-5,338.04294,338.0556,333.0199,333.0017,314.0,314.0,381.0,385.0,93.0,93.0,93.0,93.0,0.0,0.0,0.0,0.0,0.05001764,0.049893923,0.05369537,0.05353139,0.0,0.0,0.0,0.0,34.157925,-24.300808,7.4699507,-9.9509945,0.0,0.0,0.0,2.0,1.0,-2.816585,-0.020232007,-1.7905235E-4,93.0,93.0,93.0,93.0,21.980246,21.980246,24.842789,24.842789,0.014705895,0.014788579,-4.1102362E-4,-4.0625836E-4,1212.7732,0.0,0.0,0.0,0.0,0.0,0.0,0.0,0.0,0.0,0.0,0.0,0.0,0.0,-29.588036,0.009874602,-87.68366,1.2938917E-4,-0.0031856599,6.6870893E-4,538830.75,119984.9,0.008115891,0.008063681,8244.568,8159.3984,6889.9395,6815.494,0.30417633,0.0,0.0,0.0
305.96616,305.96616,3.399,0.0,0.0,333.427,11961.0,100.0,0.0,0.13962808,0.0,8.0,1.0,0.0,4000000.0,110.0,1.0,0.0,0.0,10.0,0.0,0.0,72.63205,1.3247256,514.7543,-0.04398681,0.11740112,9.253749E-4,338.3215,338.3253,333.31042,333.26843,312.0,313.0,379.0,383.0,93.0,93.0,93.0,93.0,0.0,0.0,0.0,0.0,0.050065383,0.049891602,0.0537446,0.053526685,-0.13947485,-1.194924,0.40680167,-0.84467226,-32.843643,-53.63076,-9.575483,-31.75735,0.0,0.0,0.0,2.0,1.0,-2.8169177,-0.020311275,-1.8751621E-4,93.0,93.0,93.0,93.0,21.980246,21.980246,24.842789,24.842789,0.014658569,0.014781848,-4.1204342E-4,-4.0425564E-4,1213.368,0.0,0.0,0.0,0.0,0.0,0.0,0.0,0.0,0.0,0.0,0.0,0.0,0.0,-29.589943,0.012570995,-87.7647,5.006549E-4,-0.007351254,0.0016824477,538644.3,119984.89,0.008096527,0.008039285,8270.27,8155.747,6911.7803,6809.7715,0.3041544,0.0,0.0,0.0
310.5986,310.5986,3.449,0.0,0.0,333.6339,11969.0,100.0,0.0,0.19841476,0.0,8.0,1.0,0.0,4000000.0,110.0,1.0,0.0,0.0,10.0,0.0,0.0,71.15275,1.3249527,510.36435,-0.06617198,0.11822106,-0.055759914,338.563,338.5616,333.52997,333.46347,310.0,311.0,378.0,381.0,93.0,93.0,93.0,93.0,0.0,0.0,0.0,0.0,0.049864843,0.049635112,0.0536678,0.053378314,-1.4504044,-2.819672,1.5040486,-0.23536383,528.4622,510.12927,480.00803,455.58655,0.0,0.0,0.0,2.0,1.0,-2.8173993,-0.020416971,-5.9962273E-5,93.0,93.0,93.0,93.0,21.980246,21.980246,24.842789,24.842789,0.014722923,0.014896613,-4.1231012E-4,-4.0292638E-4,1213.8152,0.0,0.0,0.0,0.0,0.0,0.0,0.0,0.0,0.0,0.0,0.0,0.0,0.0,-29.580769,-0.007899357,-87.828445,-0.0028924125,-0.011652859,0.0037626377,538482.6,119984.9,0.0075772405,0.007870917,8188.3975,8036.031,6863.579,6728.1035,0.3037758,0.0,0.0,0.0
313.68854,313.68854,3.499,0.0,0.0,333.7739,11973.0,100.0,0.0,0.21158524,0.0,8.0,1.0,0.0,4000000.0,110.0,1.0,0.0,0.0,10.0,0.0,0.0,70.16693,1.3245449,507.43594,-0.08212395,0.11936695,-0.007557028,338.67816,338.67368,333.6759,333.59445,309.0,310.0,377.0,380.0,93.0,93.0,93.0,93.0,0.0,0.0,0.0,0.0,0.05008363,0.04979642,0.053824972,0.053469367,0.0,0.0,0.0,0.0,131.29411,158.6124,10.098495,13.545155,0.0,0.0,0.0,2.0,1.0,-2.8178346,-0.020511502,-1.8000603E-5,93.0,93.0,93.0,93.0,21.980246,21.980246,24.842789,24.842789,0.014630572,0.014833118,-4.1372125E-4,-4.0676357E-4,1214.0452,0.0,0.0,0.0,0.0,0.0,0.0,0.0,0.0,0.0,0.0,0.0,0.0,0.0,-29.5686,-0.0136632435,-87.873566,0.0014153454,-0.013958125,0.0022172441,538404.75,119984.89,0.006709619,0.0071217366,8278.476,8093.8843,6997.5015,6832.3193,0.30294323,0.0,0.0,0.0
