LapDistance [m],TotalDistance [m],LapTime [s],Sector1Time [s],Sector2Time [s],Speed [km/h],EngineRevs [rpm],ThrottlePercentage [%],BrakePercentage [%],Steer [%],Clutch [%],Gear [int],DRS [0/1],CanUseDRS [0/1],KERSLevel [J],EngineTemperature [C],RacePosition [int],Sector [int],InPits [int],FuelRemaining [kg],CurrentFlag [int],CurrentLapInvalid [int],X [m],Y [m],Z [m],GForceLatitudinal [G],GForceLongitudinal [G],GForceVertical [G],WheelSpeedRearLeft [km/h],WheelSpeedRearRight [km/h],WheelSpeedFrontLeft [km/h],WheelSpeedFrontRight [km/h],BrakeTemperatureRearLeft [C],BrakeTemperatureRearRight [C],BrakeTemperatureFrontLeft [C],BrakeTemperatureFrontRight [C],TyreTemperatureRearLeft [C],TyreTemperatureRearRight [C],TyreTemperatureFrontLeft [C],TyreTemperatureFrontRight [C],TyreWearRearLeft [%],TyreWearRearRight [%],TyreWearFrontLeft [%],TyreWearFrontRight [%],SuspensionPositionRearLeft [m],SuspensionPositionRearRight [m],SuspensionPositionFrontLeft [m],SuspensionPositionFrontRight [m],SuspensionVelocityRearLeft [m/s],SuspensionVelocityRearRight [m/s],SuspensionVelocityFrontLeft [m/s],SuspensionVelocityFrontRight [m/s],SuspensionAccelerationRearLeft [m/s^2],SuspensionAccelerationRearRight [m/s^2],SuspensionAccelerationFrontLeft [m/s^2],SuspensionAccelerationFrontRight [m/s^2],MGUKHarvested [J],MGUHHarvested [J],ERSSpent [J],ERSMode [int],FuelMixMode [int],Yaw [rad],Roll [rad],Pitch [rad],TyreCarcassTemperatureRearLeft [C],TyreCarcassTemperatureRearRight [C],TyreCarcassTemperatureFrontLeft [C],TyreCarcassTemperatureFrontRight [C],TyrePressureRearLeft [PSI],TyrePressureRearRight [PSI],TyrePressureFrontLeft [PSI],TyrePressureFrontRight [PSI],WheelSlipRearLeft [%],WheelSlipRearRight [%],WheelSlipFrontLeft [%],WheelSlipFrontRight [%],Torque [Nm],Handbrake [%],RearLeftInside [C],RearLeftMiddle [C],RearLeftOutside [C],RearRightInside [C],RearRightMiddle [C],RearRightOutside [C],FrontLeftInside [C],FrontLeftMiddle [C],FrontLeftOutside [C],FrontRightInside [C],FrontRightMiddle [C],FrontRightOutside [C],WoldSpeedX [km/h],WoldSpeedY [km/h],WoldSpeedZ [km/h],LocalAngularVelocityX [rad/s],LocalAngularVelocityY [rad/s],LocalAngularVelocityZ [rad/s],IcePower [W],MgukPower [W],FrontRideHeight [m],RearRideHeight [m],LoadRearLeft [N],LoadRearRight [N],LoadFrontLeft [N],LoadFrontRight [N],Extra1 [m],Extra2 [],Extra3 [],Extra4 []
3.671677,3.671677,0.033,0.0,0.0,311.68893,11141.0,100.0,0.0,-0.2600113,0.0,8.0,1.0,0.0,4000000.0,110.0,1.0,0.0,0.0,10.0,0.0,0.0,166.47147,1.2254483,802.154,0.15396398,0.268328,-0.0029009278,316.7475,316.74905,311.49225,311.59964,435.0,436.0,501.0,507.0,93.0,93.0,93.0,93.0,0.0,0.0,0.0,0.0,0.049442373,0.04978182,0.053020444,0.05347789,1.5883147,1.4586746,0.5221366,0.50067896,406.09982,403.00183,284.4348,268.42203,0.0,0.0,0.0,2.0,1.0,-2.8452938,-0.019329999,-8.369684E-4,93.0,93.0,93.0,93.0,21.980246,21.980246,24.842789,24.842789,0.016418187,0.016119422,-4.5119497E-4,-4.5389368E-4,1153.6069,0.0,0.0,0.0,0.0,0.0,0.0,0.0,0.0,0.0,0.0,0.0,0.0,0.0,-25.192375,0.06768388,-82.83405,0.0015380911,0.018174862,-4.60851E-4,549807.56,119984.9,0.0095114,0.009246871,7828.0225,8064.65,6409.508,6615.6865,0.30149078,0.0,0.0,0.0
8.001414,8.001414,0.083,0.0,0.0,312.15912,11157.0,100.0,0.0,-0.24469477,0.0,8.0,1.0,0.0,4000000.0,110.0,1.0,0.0,0.0,10.0,0.0,0.0,165.20895,1.2286257,798.0096,0.15393527,0.26555339,-0.0170643,317.21674,317.2162,311.9645,312.0684,433.0,434.0,500.0,505.0,93.0,93.0,93.0,93.0,0.0,0.0,0.0,0.0,0.04945946,0.04979844,0.05295632,0.05341209,0.043585893,0.0911951,-0.64283603,-0.6607174,-11.613963,-0.37550923,54.703648,59.3841,0.0,0.0,0.0,2.0,1.0,-2.8444047,-0.019332753,-8.6319447E-4,93.0,93.0,93.0,93.0,21.980246,21.980246,24.842789,24.842789,0.016385885,0.016091887,-4.5126688E-4,-4.5231605E-4,1155.3005,0.0,0.0,0.0,0.0,0.0,0.0,0.0,0.0,0.0,0.0,0.0,0.0,0.0,-25.302523,0.059111085,-82.93704,-0.0010330365,0.017462287,2.1101534E-4,549825.06,119984.91,0.009616336,0.00924129,7826.543,8063.0015,6350.105,6555.7197,0.30155945,0.0,0.0,0.0
12.337693,12.337693,0.133,0.0,0.0,312.62424,11173.0,100.0,0.0,-0.25883615,0.0,8.0,1.0,0.0,4000000.0,110.0,1.0,0.0,0.0,10.0,0.0,0.0,163.94092,1.2314646,793.86005,0.1559831,0.26275977,0.0020361976,317.667,317.66708,312.42865,312.5341,431.0,432.0,498.0,503.0,93.0,93.0,93.0,93.0,0.0,0.0,0.0,0.0,0.049541175,0.049890257,0.053015687,0.053481154,2.228245,2.521947,0.98794687,1.2747197,1.528859,10.259456,-13.062353,-6.2093134,0.0,0.0,0.0,2.0,1.0,-2.843527,-0.019319873,-8.574724E-4,93.0,93.0,93.0,93.0,21.980246,21.980246,24.842789,24.842789,0.016319921,0.016022677,-4.4967135E-4,-4.5261983E-4,1156.9929,0.0,0.0,0.0,0.0,0.0,0.0,0.0,0.0,0.0,0.0,0.0,0.0,0.0,-25.413214,0.055947375,-83.03832,2.307883E-4,0.017833207,-3.9369334E-4,549842.0,119984.9,0.009429315,0.009018133,7864.865,8105.6006,6410.136,6620.7803,0.30136013,0.0,0.0,0.0
16.68048,16.68048,0.183,0.0,0.0,313.0837,11189.0,100.0,0.0,-0.2676407,0.0,8.0,1.0,0.0,4000000.0,110.0,1.0,0.0,0.0,10.0,0.0,0.0,162.66734,1.2343262,789.70557,0.15758824,0.25914592,0.0059553296,318.11942,318.12036,312.8876,312.99454,429.0,430.0,496.0,501.0,93.0,93.0,93.0,93.0,0.0,0.0,0.0,0.0,0.04958275,0.049918957,0.053062126,0.05351639,0.06794929,-2.3227928,0.815615,0.49196178,-38.44946,-283.36194,-12.968476,-7.483361,0.0,0.0,0.0,2.0,1.0,-2.8426378,-0.019334907,-8.4006786E-4,93.0,93.0,93.0,93.0,21.980246,21.980246,24.842789,24.842789,0.016270772,0.015974857,-4.4836322E-4,-4.522448E-4,1158.6855,0.0,0.0,0.0,0.0,0.0,0.0,0.0,0.0,0.0,0.0,0.0,0.0,0.0,-25.523964,0.058292296,-83.13786,-8.737433E-4,0.018092144,-7.1855495E-5,549859.0,119984.91,0.009325985,0.008913793,7886.8076,8124.945,6434.31,6638.5254,0.30125904,0.0,0.0,0.0
21.02973,21.02973,0.233,0.0,0.0,313.5371,11205.0,100.0,0.0,-0.24190913,0.0,8.0,1.0,0.0,4000000.0,110.0,1.0,0.0,0.0,10.0,0.0,0.0,161.38823,1.2372131,785.54614,0.15567285,0.25601748,-0.0032298723,318.5751,318.57538,313.34198,313.4471,427.0,428.0,494.0,499.0,93.0,93.0,93.0,93.0,0.0,0.0,0.0,0.0,0.04955882,0.04990883,0.05306891,0.053538,-0.10393559,0.057891008,0.11980533,0.3198534,29.920036,16.401705,3.1113622,-1.3142823,0.0,0.0,0.0,2.0,1.0,-2.8417447,-0.01931778,-8.0764294E-4,93.0,93.0,93.0,93.0,21.980246,21.980246,24.842789,24.842789,0.01625299,0.015959471,-4.4910694E-4,-4.4962027E-4,1160.3785,0.0,0.0,0.0,0.0,0.0,0.0,0.0,0.0,0.0,0.0,0.0,0.0,0.0,-25.634224,0.05660773,-83.235725,-4.0399883E-4,0.017657587,2.1992341E-4,549876.06,119984.914,0.0093052285,0.008930087,7880.3203,8122.578,6434.54,6646.496,0.30125427,0.0,0.0,0.0
25.385437,25.385437,0.283,0.0,0.0,313.9856,11220.0,100.0,0.0,-0.26639652,0.0,8.0,1.0,0.0,4000000.0,110.0,1.0,0.0,0.0,10.0,0.0,0.0,160.10359,1.2399603,781.3818,0.15881431,0.2532521,-0.0020260569,319.0175,319.01852,313.7893,313.8966,425.0,426.0,492.0,497.0,93.0,93.0,93.0,93.0,0.0,0.0,0.0,0.0,0.049593505,0.04994529,0.053087328,0.053559106,0.8448958,1.0621547,0.4313886,0.61489636,10.125339,16.48217,5.8740373,12.686846,0.0,0.0,0.0,2.0,1.0,-2.8408525,-0.019312369,-7.9345703E-4,93.0,93.0,93.0,93.0,21.980246,21.980246,24.842789,24.842789,0.016215244,0.015917165,-4.467286E-4,-4.5050768E-4,1161.9669,0.0,0.0,0.0,0.0,0.0,0.0,0.0,0.0,0.0,0.0,0.0,0.0,0.0,-25.745033,0.053658605,-83.33192,-3.262012E-4,0.018162938,-2.9294763E-4,549892.6,119984.914,0.009236145,0.008851908,7896.265,8140.34,6450.0234,6663.1855,0.3011818,0.0,0.0,0.0
29.74739,29.74739,0.333,0.0,0.0,314.42892,11236.0,100.0,0.0,-0.25518075,0.0,8.0,1.0,0.0,4000000.0,110.0,1.0,0.0,0.0,10.0,0.0,0.0,158.81342,1.2426119,777.2127,0.15873367,0.2502435,0.0018593482,319.45386,319.45535,314.23267,314.34006,423.0,424.0,490.0,495.0,93.0,93.0,93.0,93.0,0.0,0.0,0.0,0.0,0.049632344,0.04998296,0.0531179,0.053592123,0.64708287,0.49263233,0.6587058,0.6542354,-11.506676,-13.692675,0.08046626,-0.09387731,0.0,0.0,0.0,2.0,1.0,-2.839945,-0.019310443,-7.761717E-4,93.0,93.0,93.0,93.0,21.980246,21.980246,24.842789,24.842789,0.016169189,0.015873643,-4.469853E-4,-4.490372E-4,1163.6586,0.0,0.0,0.0,0.0,0.0,0.0,0.0,0.0,0.0,0.0,0.0,0.0,0.0,-25.855812,0.05269158,-83.426544,-3.6142036E-4,0.018098626,2.2052115E-4,549909.0,119984.9,0.009142379,0.008757122,7915.724,8161.417,6471.831,6685.5156,0.30108547,0.0,0.0,0.0
34.115562,34.115562,0.383,0.0,0.0,314.8668,11251.0,100.0,0.0,-0.26488522,0.0,8.0,1.0,0.0,4000000.0,110.0,1.0,0.0,0.0,10.0,0.0,0.0,157.5177,1.245227,773.03894,0.16067697,0.24719004,2.5047688E-5,319.88892,319.89008,314.67032,314.77823,421.0,423.0,489.0,493.0,93.0,93.0,93.0,93.0,0.0,0.0,0.0,0.0,0.049645223,0.050000936,0.053140376,0.053618394,0.07756054,0.26307997,0.31806526,0.4597753,-10.178983,-14.322993,-7.7515836,-4.962085,0.0,0.0,0.0,2.0,1.0,-2.83904,-0.019304607,-7.529259E-4,93.0,93.0,93.0,93.0,21.980246,21.980246,24.842789,24.842789,0.016138487,0.015840827,-4.4496096E-4,-4.4847655E-4,1165.2466,0.0,0.0,0.0,0.0,0.0,0.0,0.0,0.0,0.0,0.0,0.0,0.0,0.0,-25.966816,0.051751744,-83.51945,-5.9545314E-4,0.018244937,-1.6345594E-4,549925.3,119984.914,0.009080169,0.008706857,7924.357,8171.6772,6483.3545,6699.1436,0.3010292,0.0,0.0,0.0
38.489956,38.489956,0.433,0.0,0.0,315.2994,11266.0,100.0,0.0,-0.26290822,0.0,8.0,1.0,0.0,4000000.0,110.0,1.0,0.0,0.0,10.0,0.0,0.0,156.21643,1.2477667,768.86053,0.16192919,0.24427408,-9.918003E-4,320.3178,320.31976,315.102,315.2119,419.0,421.0,487.0,492.0,93.0,93.0,93.0,93.0,0.0,0.0,0.0,0.0,0.049662765,0.05002316,0.053159017,0.05364475,0.5406886,0.50067896,0.4354119,0.4843622,10.742245,3.7014465,3.7819145,-3.0711274,0.0,0.0,0.0,2.0,1.0,-2.8381178,-0.019295238,-7.303953E-4,93.0,93.0,93.0,93.0,21.980246,21.980246,24.842789,24.842789,0.016107995,0.015807426,-4.4440172E-4,-4.4716967E-4,1166.8342,0.0,0.0,0.0,0.0,0.0,0.0,0.0,0.0,0.0,0.0,0.0,0.0,0.0,-26.078321,0.049882535,-83.61059,-3.508522E-4,0.01854923,8.29309E-5,549941.44,119984.91,0.009019076,0.008656286,7933.043,8184.6123,6497.131,6716.0312,0.30097198,0.0,0.0,0.0
42.870335,42.870335,0.483,0.0,0.0,315.72702,11281.0,100.0,0.0,-0.26191974,0.0,8.0,1.0,0.0,4000000.0,110.0,1.0,0.0,0.0,10.0,0.0,0.0,154.90956,1.2502141,764.6777,0.16326483,0.24144971,7.026561E-5,320.74045,320.7424,315.5295,315.63968,418.0,419.0,485.0,490.0,93.0,93.0,93.0,93.0,0.0,0.0,0.0,0.0,0.049690843,0.050053034,0.05318209,0.05367077,0.53890043,0.63143665,0.4778802,0.57645136,-2.8833745,0.013411044,-0.013411044,2.5615094,0.0,0.0,0.0,2.0,1.0,-2.837189,-0.019291231,-7.1132183E-4,93.0,93.0,93.0,93.0,21.980246,21.980246,24.842789,24.842789,0.0160704,0.015770145,-4.4413374E-4,-4.4664525E-4,1168.4215,0.0,0.0,0.0,0.0,0.0,0.0,0.0,0.0,0.0,0.0,0.0,0.0,0.0,-26.190105,0.04821352,-83.70011,-4.0728433E-4,0.018574104,-2.3967135E-5,549957.25,119984.9,0.008945775,0.008584484,7947.4395,8200.65,6512.886,6733.374,0.3008995,0.0,0.0,0.0
47.256824,47.256824,0.533,0.0,0.0,316.1496,11296.0,100.0,0.0,-0.2622048,0.0,8.0,1.0,0.0,4000000.0,110.0,1.0,0.0,0.0,10.0,0.0,0.0,153.5971,1.2525922,760.4903,0.16387814,0.23853913,4.1376974E-4,321.15942,321.1604,315.9528,316.06165,416.0,417.0,483.0,488.0,93.0,93.0,93.0,93.0,0.0,0.0,0.0,0.0,0.04971534,0.050075945,0.05320721,0.05369662,0.49687916,0.33237037,0.5409121,0.4483759,1.0594724,-7.7247615,2.628563,-4.801152,0.0,0.0,0.0,2.0,1.0,-2.8362665,-0.019290958,-6.902218E-4,93.0,93.0,93.0,93.0,21.980246,21.980246,24.842789,24.842789,0.016035022,0.015736291,-4.4310177E-4,-4.4615986E-4,1170.0084,0.0,0.0,0.0,0.0,0.0,0.0,0.0,0.0,0.0,0.0,0.0,0.0,0.0,-26.30184,0.046963647,-83.7881,-4.1156216E-4,0.01836941,1.0744522E-4,549972.94,119984.9,0.008877137,0.008522506,7960.337,8214.0,6529.0986,6749.287,0.3008337,0.0,0.0,0.0
51.64922,51.64922,0.583,0.0,0.0,316.5671,11310.0,100.0,0.0,-0.2623473,0.0,8.0,1.0,0.0,4000000.0,110.0,1.0,0.0,0.0,10.0,0.0,0.0,152.27908,1.2549,756.2986,0.16406591,0.23572728,-6.66911E-4,321.57373,321.57455,316.37057,316.47906,414.0,415.0,481.0,486.0,93.0,93.0,93.0,93.0,0.0,0.0,0.0,0.0,0.049733367,0.05009506,0.053228676,0.0537194,0.5067139,0.31784174,0.4959851,0.41149554,14.926491,-1.7166137,8.301436,-1.9446014,0.0,0.0,0.0,2.0,1.0,-2.8353496,-0.019289792,-6.682873E-4,93.0,93.0,93.0,93.0,21.980246,21.980246,24.842789,24.842789,0.016003378,0.0157057,-4.4219012E-4,-4.4541957E-4,1171.4917,0.0,0.0,0.0,0.0,0.0,0.0,0.0,0.0,0.0,0.0,0.0,0.0,0.0,-26.41339,0.045325015,-83.8746,-4.035759E-4,0.018314874,1.3502968E-4,549988.5,119984.91,0.00881445,0.0084690945,7970.6304,8224.815,6542.5796,6763.2705,0.30077362,0.0,0.0,0.0
56.04752,56.04752,0.633,0.0,0.0,316.9795,11325.0,100.0,0.0,-0.2517583,0.0,8.0,1.0,0.0,4000000.0,110.0,1.0,0.0,0.0,10.0,0.0,0.0,150.95546,1.2571573,752.1026,0.16306672,0.23280776,-0.005520383,321.98526,321.98718,316.78268,316.8918,412.0,413.0,479.0,484.0,93.0,93.0,93.0,93.0,0.0,0.0,0.0,0.0,0.04970912,0.05011433,0.05323521,0.053763255,-2.8125196,0.47966835,0.33460554,0.5397945,144.61128,9.535253,42.56665,-62.1736,0.0,0.0,0.0,2.0,1.0,-2.8344274,-0.019245427,-6.290674E-4,93.0,93.0,93.0,93.0,21.980246,21.980246,24.842789,24.842789,0.015981765,0.015686363,-4.4202176E-4,-4.4400475E-4,1173.0782,0.0,0.0,0.0,0.0,0.0,0.0,0.0,0.0,0.0,0.0,0.0,0.0,0.0,-26.524721,0.04391269,-83.9596,2.3645486E-4,0.018373718,0.0014914864,550003.94,119984.9,0.0087611275,0.008468993,7973.869,8226.721,6551.1406,6787.0566,0.3007431,0.0,0.0,0.0
60.451595,60.451595,0.683,0.0,0.0,317.38736,11339.0,100.0,0.0,-0.2623947,0.0,8.0,1.0,0.0,4000000.0,110.0,1.0,0.0,0.0,10.0,0.0,0.0,149.62628,1.2592697,747.9024,0.16469264,0.23044673,3.108359E-4,322.3836,322.3869,317.19067,317.29944,410.0,411.0,478.0,482.0,93.0,93.0,93.0,93.0,0.0,0.0,0.0,0.0,0.049795434,0.050146643,0.05327887,0.053757988,0.7440894,1.6298889,0.48592684,0.45306978,-86.07208,57.895473,-32.32061,46.241276,0.0,0.0,0.0,2.0,1.0,-2.8335137,-0.019304305,-6.328821E-4,93.0,93.0,93.0,93.0,21.980246,21.980246,24.842789,24.842789,0.01593103,0.015640618,-4.4076834E-4,-4.4406418E-4,1174.5605,0.0,0.0,0.0,0.0,0.0,0.0,0.0,0.0,0.0,0.0,0.0,0.0,0.0,-26.635752,0.04130867,-84.043304,-2.97439E-4,0.018374123,-6.5430836E-4,550018.94,119984.9,0.008685609,0.008336924,8001.1494,8250.873,6573.1914,6790.013,0.30064487,0.0,0.0,0.0
64.861465,64.861465,0.733,0.0,0.0,317.79034,11353.0,100.0,0.0,-0.2541076,0.0,8.0,1.0,0.0,4000000.0,110.0,1.0,0.0,0.0,10.0,0.0,0.0,148.2916,1.2613274,743.69806,0.16315262,0.22743583,0.0016883484,322.78412,322.78442,317.59512,317.70132,408.0,410.0,476.0,481.0,93.0,93.0,93.0,93.0,0.0,0.0,0.0,0.0,0.049810857,0.050171856,0.05330248,0.053789128,0.06660818,-0.0017881392,0.5433708,0.3790855,-26.929373,-17.796453,-1.3411044,-15.516577,0.0,0.0,0.0,2.0,1.0,-2.8326144,-0.01929256,-6.095171E-4,93.0,93.0,93.0,93.0,21.980246,21.980246,24.842789,24.842789,0.015897512,0.015605936,-4.4019785E-4,-4.430396E-4,1176.0426,0.0,0.0,0.0,0.0,0.0,0.0,0.0,0.0,0.0,0.0,0.0,0.0,0.0,-26.745832,0.040941346,-84.12581,-7.0849835E-4,0.017901609,8.076418E-5,550033.9,119984.914,0.0086099645,0.008270417,8012.109,8266.593,6589.8994,6808.4004,0.3005705,0.0,0.0,0.0
69.27689,69.27689,0.783,0.0,0.0,318.18845,11367.0,100.0,0.0,-0.2170405,0.0,8.0,1.0,0.0,4000000.0,110.0,1.0,0.0,0.0,10.0,0.0,0.0,146.95145,1.2633386,739.4896,0.15695812,0.22480774,-9.7242417E-4,323.1808,323.18066,317.99612,318.0966,407.0,408.0,474.0,479.0,93.0,93.0,93.0,93.0,0.0,0.0,0.0,0.0,0.049828745,0.050170843,0.053331606,0.05380807,0.6580352,0.02749264,0.6061792,0.2916902,15.261766,11.090933,-0.2145767,-4.948675,0.0,0.0,0.0,2.0,1.0,-2.8317428,-0.019315239,-5.8341026E-4,93.0,93.0,93.0,93.0,21.980246,21.980246,24.842789,24.842789,0.015864978,0.015590375,-4.4136422E-4,-4.4050542E-4,1177.5248,0.0,0.0,0.0,0.0,0.0,0.0,0.0,0.0,0.0,0.0,0.0,0.0,0.0,-26.854033,0.03939393,-84.207405,8.2383194E-5,0.01677111,0.0010477318,550048.75,119984.91,0.008549176,0.0082422765,8022.4053,8267.3125,6607.7373,6821.484,0.30052757,0.0,0.0,0.0
73.69804,73.69804,0.833,0.0,0.0,318.58206,11381.0,100.0,0.0,-0.23282875,0.0,8.0,1.0,0.0,4000000.0,110.0,1.0,0.0,0.0,10.0,0.0,0.0,145.60593,1.2652584,735.2771,0.15466376,0.22225516,-5.559763E-6,323.56995,323.56882,318.39175,318.48816,405.0,406.0,472.0,477.0,93.0,93.0,93.0,93.0,0.0,0.0,0.0,0.0,0.049860913,0.050199598,0.05335936,0.053818062,0.38869676,0.71369106,0.43720004,0.436753,-16.71016,-4.358589,-7.322428,15.597044,0.0,0.0,0.0,2.0,1.0,-2.8309276,-0.019338006,-5.7029724E-4,93.0,93.0,93.0,93.0,21.980246,21.980246,24.842789,24.842789,0.015826892,0.015559265,-4.3873067E-4,-4.4162298E-4,1178.8677,0.0,0.0,0.0,0.0,0.0,0.0,0.0,0.0,0.0,0.0,0.0,0.0,0.0,-26.959986,0.037644558,-84.288345,-3.5335627E-4,0.016259568,9.978869E-5,549998.7,119984.91,0.00848996,0.008169167,8041.5703,8278.264,6623.1494,6829.878,0.30046082,0.0,0.0,0.0
78.12457,78.12457,0.883,0.0,0.0,318.97064,11394.0,100.0,0.0,-0.22618982,0.0,8.0,1.0,0.0,4000000.0,110.0,1.0,0.0,0.0,10.0,0.0,0.0,144.25519,1.2671077,731.0606,0.15027648,0.21926121,1.6491581E-4,323.9524,323.95255,318.78128,318.87613,403.0,404.0,471.0,475.0,93.0,93.0,93.0,93.0,0.0,0.0,0.0,0.0,0.049887598,0.05021079,0.053390767,0.05383554,0.5254894,0.19043683,0.68128103,0.28230247,-6.1959023,4.398822,-0.60349697,-2.0116565,0.0,0.0,0.0,2.0,1.0,-2.830124,-0.01936049,-5.491972E-4,93.0,93.0,93.0,93.0,21.980246,21.980246,24.842789,24.842789,0.015786309,0.015526859,-4.3828614E-4,-4.4087405E-4,1179.6428,0.0,0.0,0.0,0.0,0.0,0.0,0.0,0.0,0.0,0.0,0.0,0.0,0.0,-27.063688,0.03638221,-84.36847,-2.4176534E-4,0.015987545,5.673795E-4,549732.4,119984.9,0.008424487,0.008116715,8056.0405,8286.556,6643.2207,6842.365,0.30040073,0.0,0.0,0.0
82.55663,82.55663,0.933,0.0,0.0,319.35406,11407.0,100.0,0.0,-0.22752245,0.0,8.0,1.0,0.0,4000000.0,110.0,1.0,0.0,0.0,10.0,0.0,0.0,142.89934,1.2688875,726.84,0.14860669,0.21634524,-6.441064E-4,324.32956,324.3317,319.164,319.2605,401.0,402.0,469.0,474.0,93.0,93.0,93.0,93.0,0.0,0.0,0.0,0.0,0.04990406,0.05023185,0.05341419,0.05385323,0.27269122,0.5755573,0.385344,0.39875504,-1.7166137,13.63903,-3.4600494,4.4792886,0.0,0.0,0.0,2.0,1.0,-2.829317,-0.019361593,-5.289316E-4,93.0,93.0,93.0,93.0,21.980246,21.980246,24.842789,24.842789,0.015750324,0.015492061,-4.375301E-4,-4.3999826E-4,1180.4238,0.0,0.0,0.0,0.0,0.0,0.0,0.0,0.0,0.0,0.0,0.0,0.0,0.0,-27.166107,0.034817662,-84.44744,-4.561108E-4,0.016269373,1.8945866E-6,549469.44,119984.91,0.008368727,0.008065413,8067.3506,8296.453,6656.154,6853.8516,0.3003416,0.0,0.0,0.0
86.99399,86.99399,0.983,0.0,0.0,319.73236,11420.0,100.0,0.0,-0.22896808,0.0,8.0,1.0,0.0,4000000.0,110.0,1.0,0.0,0.0,10.0,0.0,0.0,141.5383,1.2705902,722.61566,0.14794034,0.21341588,-3.1856645E-4,324.70166,324.70483,319.54242,319.63895,399.0,401.0,467.0,472.0,93.0,93.0,93.0,93.0,0.0,0.0,0.0,0.0,0.049930826,0.050247367,0.05344,0.053875905,0.4908442,0.3931671,0.5100667,0.35405156,-8.7439995,15.462934,-4.1574235,-5.257129,0.0,0.0,0.0,2.0,1.0,-2.8285036,-0.019370178,-5.1128864E-4,93.0,93.0,93.0,93.0,21.980246,21.980246,24.842789,24.842789,0.015712569,0.0154579645,-4.365322E-4,-4.3931356E-4,1181.2119,0.0,0.0,0.0,0.0,0.0,0.0,0.0,0.0,0.0,0.0,0.0,0.0,0.0,-27.26754,0.03335861,-84.52516,-2.4184267E-4,0.016293243,1.3091115E-4,549210.4,119984.9,0.008298832,0.008008379,8080.709,8306.783,6673.2266,6868.9854,0.30027866,0.0,0.0,0.0
91.43663,91.43663,1.049,0.0,0.0,320.10562,11433.0,100.0,0.0,-0.21603835,0.0,8.0,1.0,0.0,4000000.0,110.0,1.0,0.0,0.0,10.0,0.0,0.0,140.17229,1.2722266,718.3874,0.14570087,0.21056342,4.3080666E-4,325.06955,325.07245,319.91696,320.011,398.0,399.0,465.0,470.0,93.0,93.0,93.0,93.0,0.0,0.0,0.0,0.0,0.049955104,0.050266046,0.05346544,0.053896274,0.0,0.0,0.0,0.0,11.07752,-28.713043,13.303754,-9.079275,0.0,0.0,0.0,2.0,1.0,-2.8276968,-0.01937925,-4.911423E-4,93.0,93.0,93.0,93.0,21.980246,21.980246,24.842789,24.842789,0.015673146,0.015425887,-4.3636526E-4,-4.3807758E-4,1182.0062,0.0,0.0,0.0,0.0,0.0,0.0,0.0,0.0,0.0,0.0,0.0,0.0,0.0,-27.367926,0.03219231,-84.6017,-2.2040747E-4,0.01581665,5.60735E-4,548954.75,119984.9,0.008232046,0.007952464,8094.3555,8316.595,6690.4644,6883.2925,0.30022144,0.0,0.0,0.0
95.88452,95.88452,1.083,0.0,0.0,320.4739,11446.0,100.0,0.0,-0.2038269,0.0,8.0,1.0,0.0,4000000.0,110.0,1.0,0.0,0.0,10.0,0.0,0.0,138.80133,1.2738006,714.1553,0.14289364,0.20780349,1.944208E-4,325.4328,325.43497,320.28674,320.37793,396.0,397.0,464.0,468.0,93.0,93.0,93.0,93.0,0.0,0.0,0.0,0.0,0.049975518,0.05028733,0.053489327,0.05391396,0.44926998,0.34399328,0.46156344,0.36433336,2.0384786,-23.53638,2.481043,-0.3352761,0.0,0.0,0.0,2.0,1.0,-2.8269165,-0.019389143,-4.736185E-4,93.0,93.0,93.0,93.0,21.980246,21.980246,24.842789,24.842789,0.015635649,0.01539446,-4.3598027E-4,-4.368302E-4,1182.8063,0.0,0.0,0.0,0.0,0.0,0.0,0.0,0.0,0.0,0.0,0.0,0.0,0.0,-27.466969,0.030877277,-84.67715,-2.1810562E-4,0.015298465,5.6477764E-4,548702.44,119984.91,0.0081752185,0.007896647,8107.035,8326.413,6703.5503,6894.363,0.30016518,0.0,0.0,0.0
100.33755,100.33755,1.133,0.0,0.0,320.8371,11459.0,100.0,0.0,-0.22161755,0.0,8.0,1.0,0.0,4000000.0,110.0,1.0,0.0,0.0,10.0,0.0,0.0,137.42543,1.2753303,709.91943,0.14303747,0.20483908,-0.004156351,325.79315,325.79578,320.65027,320.74097,394.0,395.0,462.0,466.0,93.0,93.0,93.0,93.0,0.0,0.0,0.0,0.0,0.049984124,0.050274566,0.05352129,0.053922735,-0.3236532,0.30353662,-8.940696E-4,0.79549843,-77.66335,353.4212,-56.232506,58.566025,0.0,0.0,0.0,2.0,1.0,-2.8261592,-0.019413995,-4.4238567E-4,93.0,93.0,93.0,93.0,21.980246,21.980246,24.842789,24.842789,0.015610541,0.0153683545,-4.3378715E-4,-4.374702E-4,1183.6088,0.0,0.0,0.0,0.0,0.0,0.0,0.0,0.0,0.0,0.0,0.0,0.0,0.0,-27.564756,0.029218033,-84.75146,-5.806523E-4,0.015357541,-0.0014596062,548451.8,119984.89,0.008129557,0.007892281,8110.1304,8330.738,6719.638,6904.021,0.30014515,0.0,0.0,0.0
104.795555,104.795555,1.183,0.0,0.0,321.19574,11471.0,100.0,0.0,-0.2075443,0.0,8.0,1.0,0.0,4000000.0,110.0,1.0,0.0,0.0,10.0,0.0,0.0,136.04459,1.2767317,705.67993,0.13987933,0.20248061,0.0010891822,326.14246,326.1459,321.00888,321.09973,392.0,394.0,460.0,465.0,93.0,93.0,93.0,93.0,0.0,0.0,0.0,0.0,0.05002729,0.050332777,0.05353273,0.053950995,1.3332813,0.7038563,0.59679145,0.28476116,11.56032,-22.731716,21.350378,-13.478098,0.0,0.0,0.0,2.0,1.0,-2.8253925,-0.019399298,-4.4357777E-4,93.0,93.0,93.0,93.0,21.980246,21.980246,24.842789,24.842789,0.015563262,0.015325927,-4.3431323E-4,-4.3594043E-4,1184.3228,0.0,0.0,0.0,0.0,0.0,0.0,0.0,0.0,0.0,0.0,0.0,0.0,0.0,-27.661285,0.027409222,-84.8248,7.73636E-5,0.015289536,8.461971E-4,548208.56,119984.9,0.008058725,0.0077786646,8133.898,8350.784,6731.6943,6918.511,0.30004597,0.0,0.0,0.0
109.25859,109.25859,1.233,0.0,0.0,321.54947,11483.0,100.0,0.0,-0.22347623,0.0,8.0,1.0,0.0,4000000.0,110.0,1.0,0.0,0.0,10.0,0.0,0.0,134.65904,1.2780943,701.43677,0.14118923,0.19948575,0.0014506187,326.491,326.49652,321.36197,321.45425,391.0,392.0,458.0,463.0,93.0,93.0,93.0,93.0,0.0,0.0,0.0,0.0,0.05004048,0.05034069,0.053563964,0.053973183,-0.16428529,0.22396444,0.42177734,0.7246434,-18.037853,4.331767,-12.378392,12.606381,0.0,0.0,0.0,2.0,1.0,-2.824626,-0.019407209,-4.1747093E-4,93.0,93.0,93.0,93.0,21.980246,21.980246,24.842789,24.842789,0.015531345,0.015296205,-4.322159E-4,-4.3610745E-4,1185.0363,0.0,0.0,0.0,0.0,0.0,0.0,0.0,0.0,0.0,0.0,0.0,0.0,0.0,-27.757399,0.027026981,-84.89678,-6.6343945E-4,0.01562757,-3.5888277E-4,547965.56,119984.9,0.007985513,0.007736514,8144.7275,8356.391,6751.464,6936.411,0.2999897,0.0,0.0,0.0
113.72651,113.72651,1.283,0.0,0.0,321.89844,11496.0,100.0,0.0,-0.22431554,0.0,8.0,1.0,0.0,4000000.0,110.0,1.0,0.0,0.0,10.0,0.0,0.0,133.26859,1.2794111,697.19006,0.14123295,0.19689761,-4.327927E-4,326.83627,326.8408,321.71133,321.80295,389.0,390.0,457.0,461.0,93.0,93.0,93.0,93.0,0.0,0.0,0.0,0.0,0.050057985,0.050353277,0.053582095,0.053991035,0.71234995,-0.016093252,0.51744276,0.093206756,13.974306,-30.37601,10.608134,-16.830858,0.0,0.0,0.0,2.0,1.0,-2.823847,-0.019409651,-3.9947033E-4,93.0,93.0,93.0,93.0,21.980246,21.980246,24.842789,24.842789,0.0155021,0.015266707,-4.3151883E-4,-4.3564872E-4,1185.8589,0.0,0.0,0.0,0.0,0.0,0.0,0.0,0.0,0.0,0.0,0.0,0.0,0.0,-27.853104,0.025648259,-84.967445,-2.6400454E-4,0.015519851,2.6822754E-4,547725.9,119984.91,0.007944495,0.0076988265,8151.945,8365.028,6761.1445,6943.665,0.29994488,0.0,0.0,0.0
118.199234,118.199234,1.333,0.0,0.0,322.24274,11508.0,100.0,0.0,-0.21006224,0.0,8.0,1.0,0.0,4000000.0,110.0,1.0,0.0,0.0,10.0,0.0,0.0,131.87346,1.2806491,692.9399,0.13986985,0.1942467,-6.2006974E-4,327.17578,327.1803,322.05646,322.1467,387.0,388.0,455.0,460.0,93.0,93.0,93.0,93.0,0.0,0.0,0.0,0.0,0.05007354,0.050372705,0.05360063,0.054009493,0.43451783,0.38713214,0.4121661,0.4097074,6.745755,-0.8717179,2.44081,1.1801718,0.0,0.0,0.0,2.0,1.0,-2.8230796,-0.019410009,-3.8135052E-4,93.0,93.0,93.0,93.0,21.980246,21.980246,24.842789,24.842789,0.015468845,0.015237636,-4.3161874E-4,-4.3412088E-4,1186.5851,0.0,0.0,0.0,0.0,0.0,0.0,0.0,0.0,0.0,0.0,0.0,0.0,0.0,-27.948242,0.023983167,-85.03688,-3.140464E-4,0.015222387,1.2772961E-4,547489.8,119984.9,0.007890782,0.00765156,8162.547,8374.944,6773.5156,6957.4277,0.29989433,0.0,0.0,0.0
122.67675,122.67675,1.383,0.0,0.0,322.58255,11519.0,100.0,0.0,-0.2117012,0.0,8.0,1.0,0.0,4000000.0,110.0,1.0,0.0,0.0,10.0,0.0,0.0,130.47357,1.2818109,688.6862,0.1391926,0.19167514,1.7766684E-4,327.51035,327.51474,322.39697,322.4861,385.0,387.0,453.0,458.0,93.0,93.0,93.0,93.0,0.0,0.0,0.0,0.0,0.05009676,0.050393336,0.0536239,0.05402907,0.39115545,0.4997849,0.42691824,0.4418939,-9.132919,8.851289,-5.364416,5.3241844,0.0,0.0,0.0,2.0,1.0,-2.8223283,-0.019415306,-3.6478043E-4,93.0,93.0,93.0,93.0,21.980246,21.980246,24.842789,24.842789,0.0154347075,0.015206187,-4.307372E-4,-4.3380406E-4,1187.2147,0.0,0.0,0.0,0.0,0.0,0.0,0.0,0.0,0.0,0.0,0.0,0.0,0.0,-28.042593,0.022629017,-85.1052,-3.3668475E-4,0.0150621105,3.133506E-5,547257.25,119984.89,0.007829025,0.0075944834,8175.4233,8386.031,6788.366,6970.7314,0.2998333,0.0,0.0,0.0
127.15904,127.15904,1.433,0.0,0.0,322.91776,11531.0,100.0,0.0,-0.2026397,0.0,8.0,1.0,0.0,4000000.0,110.0,1.0,0.0,0.0,10.0,0.0,0.0,129.06897,1.2829123,684.4292,0.13735448,0.18910387,1.8433045E-4,327.8406,327.84543,322.73254,322.8209,384.0,385.0,452.0,456.0,93.0,93.0,93.0,93.0,0.0,0.0,0.0,0.0,0.050116062,0.050409127,0.053646475,0.054047424,0.3466755,0.32477078,0.46312806,0.34578142,-5.6594605,5.9008584,-0.60349697,0.8180737,0.0,0.0,0.0,2.0,1.0,-2.8215804,-0.019420676,-3.464222E-4,93.0,93.0,93.0,93.0,21.980246,21.980246,24.842789,24.842789,0.015402345,0.01517785,-4.3032272E-4,-4.3247358E-4,1187.9526,0.0,0.0,0.0,0.0,0.0,0.0,0.0,0.0,0.0,0.0,0.0,0.0,0.0,-28.13607,0.021463322,-85.17241,-3.2199483E-4,0.014886606,2.3355149E-4,547027.5,119984.9,0.007774771,0.007547006,8186.496,8395.22,6802.463,6982.3823,0.2997799,0.0,0.0,0.0
131.64597,131.64597,1.483,0.0,0.0,323.24844,11542.0,100.0,0.0,-0.20292185,0.0,8.0,1.0,0.0,4000000.0,110.0,1.0,0.0,0.0,10.0,0.0,0.0,127.6597,1.2839494,680.1689,0.13702448,0.18658414,-3.4739886E-4,328.16687,328.1724,323.06293,323.15192,382.0,383.0,450.0,454.0,93.0,93.0,93.0,93.0,0.0,0.0,0.0,0.0,0.05013036,0.050422963,0.053665705,0.05406881,0.35494563,0.16741453,0.4546344,0.4161894,8.381902,-11.868773,7.1614976,-8.489189,0.0,0.0,0.0,2.0,1.0,-2.8208292,-0.019419538,-3.2699108E-4,93.0,93.0,93.0,93.0,21.980246,21.980246,24.842789,24.842789,0.015373607,0.015149982,-4.3017537E-4,-4.3212913E-4,1188.5922,0.0,0.0,0.0,0.0,0.0,0.0,0.0,0.0,0.0,0.0,0.0,0.0,0.0,-28.22916,0.020064179,-85.23837,-2.0600008E-4,0.015003695,2.5782813E-4,546800.4,119984.9,0.0077187954,0.007509423,8194.965,8402.973,6815.369,6996.3145,0.2997322,0.0,0.0,0.0
136.13748,136.13748,1.549,0.0,0.0,323.5749,11554.0,100.0,0.0,-0.16702391,0.0,8.0,1.0,0.0,4000000.0,110.0,1.0,0.0,0.0,10.0,0.0,0.0,126.245834,1.2849175,675.9053,0.13121912,0.18420887,4.0408038E-4,328.48907,328.49228,323.39334,323.47464,380.0,381.0,448.0,453.0,93.0,93.0,93.0,93.0,0.0,0.0,0.0,0.0,0.0501627,0.050437566,0.053694118,0.054077543,0.0,0.0,0.0,0.0,-22.08799,-8.985398,-0.7644295,2.9638402,0.0,0.0,0.0,2.0,1.0,-2.8201122,-0.019448467,-3.1363964E-4,93.0,93.0,93.0,93.0,21.980246,21.980246,24.842789,24.842789,0.015333506,0.015126138,-4.3097103E-4,-4.2989908E-4,1189.3423,0.0,0.0,0.0,0.0,0.0,0.0,0.0,0.0,0.0,0.0,0.0,0.0,0.0,-28.319986,0.018822853,-85.30379,-6.6958164E-5,0.013552199,8.717359E-4,546577.2,119984.91,0.007664403,0.007447531,8211.549,8411.151,6831.334,7002.8726,0.2996769,0.0,0.0,0.0
140.63354,140.63354,1.583,0.0,0.0,323.89688,11565.0,100.0,0.0,-0.18223374,0.0,8.0,1.0,0.0,4000000.0,110.0,1.0,0.0,0.0,10.0,0.0,0.0,124.827484,1.2858288,671.63837,0.12898839,0.18161981,-1.8101418E-4,328.8075,328.80988,323.7169,323.79535,379.0,380.0,446.0,451.0,93.0,93.0,93.0,93.0,0.0,0.0,0.0,0.0,0.050174884,0.050451808,0.053718157,0.054092813,2.235174E-4,0.54806465,0.26933846,0.50425524,-14.296172,16.72357,-14.229116,13.209877,0.0,0.0,0.0,2.0,1.0,-2.8194525,-0.019458963,-2.951622E-4,93.0,93.0,93.0,93.0,21.980246,21.980246,24.842789,24.842789,0.0153041035,0.015099818,-4.288923E-4,-4.3107753E-4,1189.9929,0.0,0.0,0.0,0.0,0.0,0.0,0.0,0.0,0.0,0.0,0.0,0.0,0.0,-28.408825,0.01763775,-85.368515,-3.5012487E-4,0.013224334,5.907616E-5,546356.06,119984.9,0.0076116384,0.007408393,8222.663,8416.629,6845.213,7014.4824,0.2996292,0.0,0.0,0.0
145.13416,145.13416,1.633,0.0,0.0,324.21466,11576.0,100.0,0.0,-0.19978952,0.0,8.0,1.0,0.0,4000000.0,110.0,1.0,0.0,0.0,10.0,0.0,0.0,123.40475,1.2866758,667.3682,0.12755114,0.17924698,-2.4949398E-4,329.11984,329.12424,324.03412,324.1137,377.0,378.0,445.0,449.0,93.0,93.0,93.0,93.0,0.0,0.0,0.0,0.0,0.05020067,0.050461844,0.053743567,0.054105088,0.45619902,0.2981722,0.50693744,0.2337992,-11.090932,11.70784,-4.4122334,3.4332273,0.0,0.0,0.0,2.0,1.0,-2.8187902,-0.019476455,-2.7942657E-4,93.0,93.0,93.0,93.0,21.980246,21.980246,24.842789,24.842789,0.015274839,0.015072651,-4.2668314E-4,-4.3138268E-4,1190.65,0.0,0.0,0.0,0.0,0.0,0.0,0.0,0.0,0.0,0.0,0.0,0.0,0.0,-28.495989,0.01630687,-85.43252,-2.888778E-4,0.013530398,6.87454E-5,546138.25,119984.9,0.0075594084,0.007362301,8235.145,8423.736,6860.8594,7022.6797,0.2995777,0.0,0.0,0.0
149.63913,149.63913,1.683,0.0,0.0,324.52823,11587.0,100.0,0.0,-0.17632146,0.0,8.0,1.0,0.0,4000000.0,110.0,1.0,0.0,0.0,10.0,0.0,0.0,121.97769,1.2874599,663.0949,0.123655215,0.17688724,5.5170327E-5,329.42828,329.43372,324.34836,324.4266,375.0,376.0,443.0,448.0,93.0,93.0,93.0,93.0,0.0,0.0,0.0,0.0,0.050221026,0.050477564,0.05376636,0.05412065,0.39383766,0.2943724,0.4649162,0.2979487,-9.682772,7.1614966,-3.8489678,2.2396443,0.0,0.0,0.0,2.0,1.0,-2.8181233,-0.019488178,-2.6404858E-4,93.0,93.0,93.0,93.0,21.980246,21.980246,24.842789,24.842789,0.015242359,0.015048108,-4.2738445E-4,-4.291574E-4,1191.3126,0.0,0.0,0.0,0.0,0.0,0.0,0.0,0.0,0.0,0.0,0.0,0.0,0.0,-28.581488,0.015132875,-85.4958,-2.0836474E-4,0.013178152,3.4152507E-4,545923.44,119984.9,0.0075057894,0.00731382,8247.351,8431.924,6874.7827,7033.7065,0.29952812,0.0,0.0,0.0
154.14842,154.14842,1.733,0.0,0.0,324.83768,11598.0,100.0,0.0,-0.16467947,0.0,8.0,1.0,0.0,4000000.0,110.0,1.0,0.0,0.0,10.0,0.0,0.0,120.54639,1.2881868,658.8185,0.120382234,0.17457685,-4.9673603E-5,329.7341,329.73834,324.65967,324.7343,374.0,375.0,441.0,446.0,93.0,93.0,93.0,93.0,0.0,0.0,0.0,0.0,0.050241657,0.050489176,0.053789638,0.054134823,0.5887448,0.05319714,0.5670636,0.1696497,17.219778,-16.441938,10.138747,-11.18481,0.0,0.0,0.0,2.0,1.0,-2.817474,-0.019502774,-2.4807453E-4,93.0,93.0,93.0,93.0,21.980246,21.980246,24.842789,24.842789,0.015210937,0.015024531,-4.273369E-4,-4.284281E-4,1191.9801,0.0,0.0,0.0,0.0,0.0,0.0,0.0,0.0,0.0,0.0,0.0,0.0,0.0,-28.665579,0.013993296,-85.5583,-8.518662E-5,0.012540393,6.959192E-4,545711.25,119984.9,0.0074535715,0.007269325,8259.307,8438.404,6889.199,7043.1074,0.29947853,0.0,0.0,0.0
158.66231,158.66231,1.783,0.0,0.0,325.143,11608.0,100.0,0.0,-0.11708256,0.0,8.0,1.0,0.0,4000000.0,110.0,1.0,0.0,0.0,10.0,0.0,0.0,119.11097,1.2888565,654.53894,0.11072688,0.17226887,-1.2528675E-5,330.0367,330.0379,324.9707,325.03442,372.0,373.0,440.0,444.0,93.0,93.0,93.0,93.0,0.0,0.0,0.0,0.0,0.050270073,0.050494153,0.05382198,0.05413945,0.6566941,0.07756054,0.719726,0.04470348,8.194148,-1.7166137,5.6594605,-3.2588835,0.0,0.0,0.0,2.0,1.0,-2.816892,-0.0195443,-2.3365021E-4,93.0,93.0,93.0,93.0,21.980246,21.980246,24.842789,24.842789,0.015171723,0.015008189,-4.289214E-4,-4.262016E-4,1192.5502,0.0,0.0,0.0,0.0,0.0,0.0,0.0,0.0,0.0,0.0,0.0,0.0,0.0,-28.746017,0.012869539,-85.62078,1.7698055E-4,0.010515621,0.0013070973,545501.9,119984.9,0.007402223,0.007225285,8276.009,8440.387,6907.7607,7048.7256,0.2994318,0.0,0.0,0.0
163.1805,163.1805,1.833,0.0,0.0,325.44443,11619.0,100.0,0.0,-0.00962233,0.0,8.0,1.0,0.0,4000000.0,110.0,1.0,0.0,0.0,10.0,0.0,0.0,117.67176,1.2894751,650.2562,0.08457172,0.17001775,-1.739685E-4,330.33945,330.32953,325.28903,325.3191,370.0,371.0,438.0,443.0,93.0,93.0,93.0,93.0,0.0,0.0,0.0,0.0,0.050326914,0.050472397,0.053883307,0.05411427,1.2224166,-0.5760043,1.4276056,-0.72397286,-2.0250676,-3.1381843,8.019804,-9.307264,0.0,0.0,0.0,2.0,1.0,-2.8165157,-0.01967345,-2.2387505E-4,93.0,93.0,93.0,93.0,21.980246,21.980246,24.842789,24.842789,0.015112772,0.0150132505,-4.3141926E-4,-4.2241387E-4,1193.228,0.0,0.0,0.0,0.0,0.0,0.0,0.0,0.0,0.0,0.0,0.0,0.0,0.0,-28.816303,0.011935932,-85.685486,8.840858E-4,0.0045281583,0.0030656222,545295.25,119984.91,0.007351067,0.007180182,8307.8955,8426.206,6940.2285,7038.3145,0.29938316,0.0,0.0,0.0
167.7028,167.7028,1.883,0.0,0.0,325.74197,11629.0,100.0,0.0,0.12288265,0.0,8.0,1.0,0.0,4000000.0,110.0,1.0,0.0,0.0,10.0,0.0,0.0,116.22949,1.2900566,645.97015,0.039018426,0.16776289,-3.8847048E-4,330.64114,330.6148,325.61346,325.59012,369.0,370.0,437.0,441.0,93.0,93.0,93.0,93.0,0.0,0.0,0.0,0.0,0.05040435,0.050427314,0.05397584,0.05405705,1.6133486,-1.1057405,2.0389256,-1.3019888,-3.4734604,-3.8757918,9.548656,0.7241964,0.0,0.0,0.0,2.0,1.0,-2.8165355,-0.019895865,-2.2053719E-4,93.0,93.0,93.0,93.0,21.980246,21.980246,24.842789,24.842789,0.015036315,0.015036863,-4.330615E-4,-4.1982165E-4,1193.8082,0.0,0.0,0.0,0.0,0.0,0.0,0.0,0.0,0.0,0.0,0.0,0.0,0.0,-28.867762,0.011348899,-85.75538,0.0015844498,-0.0046897237,0.004712899,545091.25,119984.9,0.0073003867,0.0071363524,8356.916,8394.082,6986.744,7014.165,0.29934597,0.0,0.0,0.0
172.22922,172.22922,1.933,0.0,0.0,326.0356,11639.0,100.0,0.0,0.17220151,0.0,8.0,1.0,0.0,4000000.0,110.0,1.0,0.0,0.0,10.0,0.0,0.0,114.785225,1.2906166,641.6804,-0.008363482,0.16556977,1.2107531E-4,330.93262,330.90167,325.92575,325.8651,367.0,368.0,435.0,439.0,93.0,93.0,93.0,93.0,0.0,0.0,0.0,0.0,0.050475102,0.050392266,0.05407442,0.05399691,1.6008316,-0.49017364,1.8399953,-1.1356919,22.839008,9.173153,-6.155669,3.017485,0.0,0.0,0.0,2.0,1.0,-2.8169458,-0.02011869,-2.2804737E-4,93.0,93.0,93.0,93.0,21.980246,21.980246,24.842789,24.842789,0.014968427,0.015050416,-4.304897E-4,-4.212698E-4,1194.394,0.0,0.0,0.0,0.0,0.0,0.0,0.0,0.0,0.0,0.0,0.0,0.0,0.0,-28.8974,0.011181076,-85.83147,0.0016635469,-0.010733904,0.0043020593,544890.2,119984.9,0.007240103,0.007080026,8409.094,8363.537,7034.4746,6991.0654,0.29927444,0.0,0.0,0.0
176.7598,176.7598,1.983,0.0,0.0,326.32526,11649.0,100.0,0.0,0.14722675,0.0,8.0,1.0,0.0,4000000.0,110.0,1.0,0.0,0.0,10.0,0.0,0.0,113.34001,1.291193,637.38666,-0.044578,0.16323026,8.459148E-4,331.2132,331.19247,326.22095,326.14908,365.0,366.0,433.0,438.0,93.0,93.0,93.0,93.0,0.0,0.0,0.0,0.0,0.050537784,0.050362166,0.0541628,0.053947862,0.8274614,-0.42714176,1.4910846,-0.76130027,-31.167263,7.201729,-22.798775,11.828541,0.0,0.0,0.0,2.0,1.0,-2.8175426,-0.02030787,-2.3555756E-4,93.0,93.0,93.0,93.0,21.980246,21.980246,24.842789,24.842789,0.0149176745,0.015050513,-4.2577082E-4,-4.2448254E-4,1194.9844,0.0,0.0,0.0,0.0,0.0,0.0,0.0,0.0,0.0,0.0,0.0,0.0,0.0,-28.907372,0.011920524,-85.913,0.0010271553,-0.012172564,0.002629526,544691.5,119984.9,0.007186239,0.0070376717,8453.307,8337.977,7077.4062,6974.1753,0.2992258,0.0,0.0,0.0
181.29425,181.29425,2.033,0.0,0.0,326.61075,11659.0,100.0,0.0,0.09235081,0.0,8.0,1.0,0.0,4000000.0,110.0,1.0,0.0,0.0,10.0,0.0,0.0,111.89464,1.2918099,633.0888,-0.06112573,0.16096754,-2.4292315E-4,331.48615,331.48422,326.4992,326.44196,364.0,365.0,432.0,436.0,93.0,93.0,93.0,93.0,0.0,0.0,0.0,0.0,0.050563917,0.05035679,0.05420991,0.05393302,0.21100043,-0.059902664,0.59835607,-0.15467404,-33.098454,-8.220969,-27.506048,1.3142823,0.0,0.0,0.0,2.0,1.0,-2.8180897,-0.020389758,-2.4271011E-4,93.0,93.0,93.0,93.0,21.980246,21.980246,24.842789,24.842789,0.014890864,0.015031349,-4.229043E-4,-4.2662217E-4,1195.5793,0.0,0.0,0.0,0.0,0.0,0.0,0.0,0.0,0.0,0.0,0.0,0.0,0.0,-28.90604,0.012656433,-85.997116,3.5475485E-4,-0.009372522,6.4175506E-4,544495.25,119984.91,0.007150894,0.0070115924,8474.819,8329.665,7098.2803,6971.1987,0.2991953,0.0,0.0,0.0
185.83263,185.83263,2.083,0.0,0.0,326.8924,11669.0,100.0,0.0,0.08040051,0.0,8.0,1.0,0.0,4000000.0,110.0,1.0,0.0,0.0,10.0,0.0,0.0,110.44946,1.2924421,628.78674,-0.06494605,0.15884595,-0.001500923,331.75745,331.76965,326.7725,326.73193,362.0,363.0,430.0,434.0,93.0,93.0,93.0,93.0,0.0,0.0,0.0,0.0,0.050579116,0.050363738,0.054230005,0.053939056,0.5111843,0.1837313,0.45374033,0.18551944,13.022122,1.0192393,5.2973623,2.2798774,0.0,0.0,0.0,2.0,1.0,-2.8184767,-0.02040861,-2.464056E-4,93.0,93.0,93.0,93.0,21.980246,21.980246,24.842789,24.842789,0.014870587,0.015007031,-4.2360387E-4,-4.2484104E-4,1196.1796,0.0,0.0,0.0,0.0,0.0,0.0,0.0,0.0,0.0,0.0,0.0,0.0,0.0,-28.900866,0.012610048,-86.08138,9.09373E-5,-0.006613298,8.50277E-5,544301.75,119984.89,0.0070995856,0.006970592,8484.3,8333.864,7110.2866,6978.2554,0.29914665,0.0,0.0,0.0
190.3749,190.3749,2.133,0.0,0.0,327.17044,11678.0,100.0,0.0,0.08911921,0.0,8.0,1.0,0.0,4000000.0,110.0,1.0,0.0,0.0,10.0,0.0,0.0,109.00456,1.2930846,624.48047,-0.062781736,0.15680347,0.003418996,332.0279,332.04306,327.04776,327.01257,361.0,362.0,428.0,433.0,93.0,93.0,93.0,93.0,0.0,0.0,0.0,0.0,0.050608154,0.05040081,0.05425309,0.05396886,1.0469555,1.2702494,0.69715077,0.9479373,42.231373,47.314156,22.155043,28.726456,0.0,0.0,0.0,2.0,1.0,-2.8187826,-0.020397415,-2.5081635E-4,93.0,93.0,93.0,93.0,21.980246,21.980246,24.842789,24.842789,0.014841568,0.014973636,-4.2442337E-4,-4.2300374E-4,1196.6862,0.0,0.0,0.0,0.0,0.0,0.0,0.0,0.0,0.0,0.0,0.0,0.0,0.0,-28.895596,0.013537711,-86.16462,9.991073E-5,-0.0058271307,-5.751477E-4,544112.6,119984.9,0.007027178,0.006903333,8499.727,8353.615,7131.1406,7003.89,0.29907703,0.0,0.0,0.0
194.9211,194.9211,2.199,0.0,0.0,327.4446,11688.0,100.0,0.0,0.08804715,0.0,8.0,1.0,0.0,4000000.0,110.0,1.0,0.0,0.0,10.0,0.0,0.0,107.5599,1.2938075,620.17004,-0.058760967,0.1545804,-4.0992838E-4,332.30057,332.3145,327.32126,327.28775,359.0,360.0,427.0,431.0,93.0,93.0,93.0,93.0,0.0,0.0,0.0,0.0,0.050603874,0.050409075,0.054255694,0.0539887,0.0,0.0,0.0,0.0,-5.1096067,-11.962649,0.79125154,-4.935264,0.0,0.0,0.0,2.0,1.0,-2.819066,-0.020373685,-2.5331974E-4,93.0,93.0,93.0,93.0,21.980246,21.980246,24.842789,24.842789,0.014825606,0.014950206,-4.239632E-4,-4.2205714E-4,1197.2946,0.0,0.0,0.0,0.0,0.0,0.0,0.0,0.0,0.0,0.0,0.0,0.0,0.0,-28.891846,0.0148460055,-86.2462,-2.612425E-4,-0.0055778027,-2.638236E-4,543923.5,119984.89,0.0070012156,0.0068853595,8497.491,8360.277,7126.267,7006.763,0.299057,0.0,0.0,0.0
199.47095,199.47095,2.233,0.0,0.0,327.71506,11697.0,100.0,0.0,0.101163656,0.0,8.0,1.0,0.0,4000000.0,110.0,1.0,0.0,0.0,10.0,0.0,0.0,106.11539,1.294555,615.8556,-0.058042258,0.15254596,-0.0023075102,332.56967,332.58148,327.59314,327.55707,357.0,358.0,425.0,429.0,93.0,93.0,93.0,93.0,0.0,0.0,0.0,0.0,0.0506113,0.050414134,0.054265857,0.05400377,0.35628673,0.043362375,0.20563601,0.18060206,18.158552,-2.7358527,7.630884,-1.2606381,0.0,0.0,0.0,2.0,1.0,-2.8193533,-0.020371461,-2.5463104E-4,93.0,93.0,93.0,93.0,21.980246,21.980246,24.842789,24.842789,0.014805117,0.014932057,-4.241209E-4,-4.2097064E-4,1197.8062,0.0,0.0,0.0,0.0,0.0,0.0,0.0,0.0,0.0,0.0,0.0,0.0,0.0,-28.888647,0.014792465,-86.32649,1.7086425E-4,-0.006084051,2.3613755E-4,543737.2,119984.9,0.006974911,0.0068670437,8501.101,8364.764,7134.092,7016.0425,0.2990408,0.0,0.0,0.0
204.02457,204.02457,2.283,0.0,0.0,327.9821,11707.0,100.0,0.0,0.09957479,0.0,8.0,1.0,0.0,4000000.0,110.0,1.0,0.0,0.0,10.0,0.0,0.0,104.67102,1.2952871,611.53723,-0.057304032,0.15064214,-5.751279E-4,332.8324,332.8428,327.86053,327.82352,356.0,357.0,424.0,428.0,93.0,93.0,93.0,93.0,0.0,0.0,0.0,0.0,0.05063195,0.05044279,0.05428021,0.054022323,0.8232146,0.6128847,0.2762675,0.39473173,45.101337,-10.849535,4.7340975,-4.613399,0.0,0.0,0.0,2.0,1.0,-2.8196564,-0.020364651,-2.6226044E-4,93.0,93.0,93.0,93.0,21.980246,21.980246,24.842789,24.842789,0.0147792855,0.014904271,-4.2353742E-4,-4.2096007E-4,1198.4283,0.0,0.0,0.0,0.0,0.0,0.0,0.0,0.0,0.0,0.0,0.0,0.0,0.0,-28.88572,0.014668604,-86.405685,1.7474651E-4,-0.006227413,1.9247356E-4,543554.94,119984.91,0.006908006,0.0067963204,8513.019,8378.321,7145.336,7029.508,0.29895973,0.0,0.0,0.0
208.58162,208.58162,2.333,0.0,0.0,328.246,11715.0,100.0,0.0,0.0839589,0.0,8.0,1.0,0.0,4000000.0,110.0,1.0,0.0,0.0,10.0,0.0,0.0,103.22681,1.2960709,607.21484,-0.056726716,0.14929761,0.011365303,333.0647,333.10168,328.1235,328.0882,354.0,355.0,422.0,426.0,93.0,93.0,93.0,93.0,0.0,0.0,0.0,0.0,0.050771676,0.050463524,0.05430716,0.05405117,6.941333,-0.16584991,0.2724677,0.4700571,367.14072,-79.75547,-38.355587,-24.756786,0.0,0.0,0.0,2.0,1.0,-2.8199592,-0.020348668,-2.6249886E-4,93.0,93.0,93.0,93.0,21.980246,21.980246,24.842789,24.842789,0.014681498,0.014879291,-4.2240703E-4,-4.2325462E-4,1198.8698,0.0,0.0,0.0,0.0,0.0,0.0,0.0,0.0,0.0,0.0,0.0,0.0,0.0,-28.882723,0.017901357,-86.48398,-0.0014967087,-0.0057735187,-0.0022324258,543383.8,119984.9,0.0068164757,0.006525288,8597.48,8392.718,7162.7754,7049.0303,0.29891396,0.0,0.0,0.0
213.14235,213.14235,2.383,0.0,0.0,328.5048,11725.0,100.0,0.0,0.07543754,0.0,8.0,1.0,0.0,4000000.0,110.0,1.0,0.0,0.0,10.0,0.0,0.0,101.782745,1.296962,602.8886,-0.053453784,0.14621979,-0.00801689,333.35217,333.36377,328.38058,328.34894,353.0,354.0,420.0,425.0,93.0,93.0,93.0,93.0,0.0,0.0,0.0,0.0,0.050618105,0.050440636,0.05430276,0.054068945,1.8332897,-0.7027387,0.91105694,-0.68418676,417.78082,-18.547472,64.18525,-49.071007,0.0,0.0,0.0,2.0,1.0,-2.820243,-0.020333638,-2.4855137E-4,93.0,93.0,93.0,93.0,21.980246,21.980246,24.842789,24.842789,0.0147548225,0.014868576,-4.2150836E-4,-4.2052023E-4,1199.4723,0.0,0.0,0.0,0.0,0.0,0.0,0.0,0.0,0.0,0.0,0.0,0.0,0.0,-28.880142,0.016315438,-86.56063,0.0015985281,-0.005226378,0.0020874355,543193.25,119984.9,0.0068611675,0.0068180314,8511.439,8382.041,7162.9155,7051.433,0.29894543,0.0,0.0,0.0
217.70673,217.70673,2.433,0.0,0.0,328.76154,11734.0,100.0,0.0,0.07737527,0.0,8.0,1.0,0.0,4000000.0,110.0,1.0,0.0,0.0,10.0,0.0,0.0,100.33879,1.2977451,598.55853,-0.05133163,0.14482892,0.001380207,333.59854,333.61136,328.63693,328.60617,351.0,352.0,419.0,423.0,93.0,93.0,93.0,93.0,0.0,0.0,0.0,0.0,0.0506826,0.05050303,0.054321807,0.054069933,0.42580065,1.4729797,0.11913478,0.7221847,-37.20223,-14.725327,-10.608134,39.7101,0.0,0.0,0.0,2.0,1.0,-2.8205,-0.02034691,-2.8288364E-4,93.0,93.0,93.0,93.0,21.980246,21.980246,24.842789,24.842789,0.01471297,0.014827816,-4.214032E-4,-4.202171E-4,1200.0132,0.0,0.0,0.0,0.0,0.0,0.0,0.0,0.0,0.0,0.0,0.0,0.0,0.0,-28.87827,0.015841296,-86.63643,-1.7671508E-4,-0.0050965943,-0.0011834105,543021.4,119984.9,0.006788744,0.006670686,8540.166,8409.842,7172.4766,7061.3633,0.29884243,0.0,0.0,0.0
222.27452,222.27452,2.483,0.0,0.0,329.01456,11742.0,100.0,0.0,0.07834414,0.0,8.0,1.0,0.0,4000000.0,110.0,1.0,0.0,0.0,10.0,0.0,0.0,98.89491,1.2985963,594.2248,-0.049857866,0.14263533,0.004294627,333.84918,333.85977,328.89017,328.85925,349.0,351.0,417.0,421.0,93.0,93.0,93.0,93.0,0.0,0.0,0.0,0.0,0.050692327,0.050517462,0.054343536,0.054108303,0.49777323,2.235174E-4,0.7666647,0.5874037,28.713043,-2.9772515,22.986528,-9.3609085,0.0,0.0,0.0,2.0,1.0,-2.820755,-0.02032778,-2.758503E-4,93.0,93.0,93.0,93.0,21.980246,21.980246,24.842789,24.842789,0.014692824,0.014800896,-4.2124503E-4,-4.1968923E-4,1200.4478,0.0,0.0,0.0,0.0,0.0,0.0,0.0,0.0,0.0,0.0,0.0,0.0,0.0,-28.876997,0.018167632,-86.71094,-4.7396203E-5,-0.00514869,2.0845281E-4,542847.94,119984.9,0.006716262,0.006629447,8545.097,8424.1455,7192.986,7086.2866,0.2987833,0.0,0.0,0.0
226.84575,226.84575,2.533,0.0,0.0,329.2639,11751.0,100.0,0.0,0.07882857,0.0,8.0,1.0,0.0,4000000.0,110.0,1.0,0.0,0.0,10.0,0.0,0.0,97.45109,1.2995324,589.8873,-0.049144898,0.14061695,-0.0018472575,334.09827,334.10867,329.1398,329.1084,348.0,349.0,416.0,420.0,93.0,93.0,93.0,93.0,0.0,0.0,0.0,0.0,0.050685205,0.05051052,0.054352064,0.054115083,-0.088065855,-0.11980533,0.075101845,0.0462681,8.837878,2.4676316,-1.3947486,-3.8623807,0.0,0.0,0.0,2.0,1.0,-2.8210144,-0.020328723,-2.7406216E-4,93.0,93.0,93.0,93.0,21.980246,21.980246,24.842789,24.842789,0.01468053,0.0147896055,-4.2056257E-4,-4.1900176E-4,1200.9863,0.0,0.0,0.0,0.0,0.0,0.0,0.0,0.0,0.0,0.0,0.0,0.0,0.0,-28.875763,0.01873902,-86.78435,-4.2606014E-5,-0.0052341493,-1.2174872E-4,542675.56,119984.89,0.0067084543,0.0066395425,8542.582,8420.48,7190.6084,7083.8965,0.2987814,0.0,0.0,0.0
231.4205,231.4205,2.583,0.0,0.0,329.51007,11760.0,100.0,0.0,0.064249344,0.0,8.0,1.0,0.0,4000000.0,110.0,1.0,0.0,0.0,10.0,0.0,0.0,96.00735,1.3004581,585.5462,-0.047207758,0.13885258,-0.0016243454,334.34106,334.3511,329.3855,329.35507,346.0,347.0,414.0,418.0,93.0,93.0,93.0,93.0,0.0,0.0,0.0,0.0,0.050700076,0.050528303,0.054361403,0.05412802,0.4895031,0.3980845,0.25145707,0.23692845,11.385977,0.911951,6.2763677,-0.26822087,0.0,0.0,0.0,2.0,1.0,-2.8212743,-0.020322558,-2.808571E-4,93.0,93.0,93.0,93.0,21.980246,21.980246,24.842789,24.842789,0.014661537,0.014766014,-4.1960628E-4,-4.1984147E-4,1201.5427,0.0,0.0,0.0,0.0,0.0,0.0,0.0,0.0,0.0,0.0,0.0,0.0,0.0,-28.874645,0.018331017,-86.85678,4.346073E-5,-0.0049839513,-3.9399858E-4,542511.44,119984.89,0.0066746073,0.006601026,8549.794,8430.018,7199.032,7093.8506,0.29874706,0.0,0.0,0.0
235.99857,235.99857,2.633,0.0,0.0,329.75308,11768.0,100.0,0.0,0.080707565,0.0,8.0,1.0,0.0,4000000.0,110.0,1.0,0.0,0.0,10.0,0.0,0.0,94.563614,1.3013818,581.20154,-0.048228536,0.1370554,5.912673E-4,334.57956,334.59015,329.6284,329.59818,345.0,346.0,413.0,417.0,93.0,93.0,93.0,93.0,0.0,0.0,0.0,0.0,0.05072141,0.050547812,0.054377504,0.054147508,0.48369166,0.16294418,0.5516409,0.34466383,-1.2874584,-10.956822,18.373127,-2.7090309,0.0,0.0,0.0,2.0,1.0,-2.8215237,-0.020323824,-2.835989E-4,93.0,93.0,93.0,93.0,21.980246,21.980246,24.842789,24.842789,0.014636658,0.014743104,-4.2017523E-4,-4.1813322E-4,1202.002,0.0,0.0,0.0,0.0,0.0,0.0,0.0,0.0,0.0,0.0,0.0,0.0,0.0,-28.87341,0.01875664,-86.92832,6.690766E-5,-0.0050655734,2.0696774E-4,542349.9,119984.89,0.0066125053,0.00654386,8560.952,8441.419,7212.4414,7107.9424,0.29869652,0.0,0.0,0.0
240.57997,240.57997,2.683,0.0,0.0,329.9927,11776.0,100.0,0.0,0.09005202,0.0,8.0,1.0,0.0,4000000.0,110.0,1.0,0.0,0.0,10.0,0.0,0.0,93.12001,1.3023493,576.8533,-0.049325705,0.13517827,0.0018990331,334.81604,334.8253,329.8692,329.83676,343.0,344.0,411.0,415.0,93.0,93.0,93.0,93.0,0.0,0.0,0.0,0.0,0.05073988,0.05056781,0.054399878,0.05416513,0.40791926,0.3171712,0.23134051,0.31158325,-8.6233,-20.894405,-19.82152,-7.590651,0.0,0.0,0.0,2.0,1.0,-2.821789,-0.020325888,-2.8908253E-4,93.0,93.0,93.0,93.0,21.980246,21.980246,24.842789,24.842789,0.014613175,0.014721878,-4.2020512E-4,-4.1715064E-4,1202.4652,0.0,0.0,0.0,0.0,0.0,0.0,0.0,0.0,0.0,0.0,0.0,0.0,0.0,-28.871582,0.019992732,-86.99907,9.9455625E-5,-0.005462992,-4.0613482E-5,542190.3,119984.89,0.0065675057,0.0065002963,8571.678,8450.96,7223.746,7118.556,0.29864216,0.0,0.0,0.0
245.16469,245.16469,2.733,0.0,0.0,330.2291,11785.0,100.0,0.0,0.08851356,0.0,8.0,1.0,0.0,4000000.0,110.0,1.0,0.0,0.0,10.0,0.0,0.0,91.6765,1.303367,572.50146,-0.05053684,0.13328713,-5.6247914E-4,335.05142,335.0598,330.10663,330.07233,342.0,343.0,410.0,414.0,93.0,93.0,93.0,93.0,0.0,0.0,0.0,0.0,0.050741915,0.050565764,0.0544126,0.054174054,0.14327465,0.04045665,0.35651025,0.22977589,11.546908,9.293853,8.663533,5.860626,0.0,0.0,0.0,2.0,1.0,-2.8220713,-0.020331392,-2.8848648E-4,93.0,93.0,93.0,93.0,21.980246,21.980246,24.842789,24.842789,0.014596816,0.014707708,-4.1944342E-4,-4.1713967E-4,1203.0316,0.0,0.0,0.0,0.0,0.0,0.0,0.0,0.0,0.0,0.0,0.0,0.0,0.0,-28.868868,0.020508062,-87.069145,7.388665E-5,-0.0057462933,1.2829798E-4,542031.44,119984.89,0.00654373,0.0064919665,8575.022,8451.824,7232.23,7124.5347,0.29862595,0.0,0.0,0.0
249.75269,249.75269,2.783,0.0,0.0,330.46237,11793.0,100.0,0.0,0.08774433,0.0,8.0,1.0,0.0,4000000.0,110.0,1.0,0.0,0.0,10.0,0.0,0.0,90.23313,1.3043913,568.1462,-0.05167699,0.13158175,-0.0010625214,335.28137,335.29016,330.34,330.30548,340.0,341.0,408.0,412.0,93.0,93.0,93.0,93.0,0.0,0.0,0.0,0.0,0.050757144,0.050578438,0.054424856,0.05418369,0.4070252,0.3417581,0.20183621,0.22150575,5.7131047,4.1037793,-3.2588828,2.1994112,0.0,0.0,0.0,2.0,1.0,-2.8223596,-0.020337127,-2.939701E-4,93.0,93.0,93.0,93.0,21.980246,21.980246,24.842789,24.842789,0.014577091,0.014688954,-4.1896407E-4,-4.1691808E-4,1203.5024,0.0,0.0,0.0,0.0,0.0,0.0,0.0,0.0,0.0,0.0,0.0,0.0,0.0,-28.865313,0.020464681,-87.138596,1.5806273E-4,-0.005767416,1.1190192E-4,541875.7,119984.89,0.0065118456,0.006456902,8583.182,8457.801,7238.5664,7130.2656,0.29858875,0.0,0.0,0.0
254.34392,254.34392,2.833,0.0,0.0,330.69263,11801.0,100.0,0.0,0.08735972,0.0,8.0,1.0,0.0,4000000.0,110.0,1.0,0.0,0.0,10.0,0.0,0.0,88.789986,1.3054277,563.7874,-0.052380554,0.12984319,0.001040576,335.50754,335.5165,330.5701,330.5358,339.0,340.0,406.0,411.0,93.0,93.0,93.0,93.0,0.0,0.0,0.0,0.0,0.05077499,0.050598603,0.05444531,0.054198835,0.3033131,0.6003677,0.43094155,0.3726035,-1.3947486,17.35389,-3.4064052,7.349252,0.0,0.0,0.0,2.0,1.0,-2.822647,-0.020342242,-3.0052662E-4,93.0,93.0,93.0,93.0,21.980246,21.980246,24.842789,24.842789,0.014555165,0.014666737,-4.1867123E-4,-4.1659593E-4,1203.9786,0.0,0.0,0.0,0.0,0.0,0.0,0.0,0.0,0.0,0.0,0.0,0.0,0.0,-28.86107,0.021126669,-87.207375,2.201948E-4,-0.0057315417,-6.9185575E-5,541722.6,119984.89,0.0064571844,0.006408453,8594.035,8468.365,7253.5874,7142.72,0.29853916,0.0,0.0,0.0
258.9381,258.9381,2.883,0.0,0.0,330.91977,11809.0,100.0,0.0,0.08778592,0.0,8.0,1.0,0.0,4000000.0,110.0,1.0,0.0,0.0,10.0,0.0,0.0,87.34704,1.3065139,559.4253,-0.052572343,0.12805809,3.632874E-4,335.7318,335.74152,330.79697,330.76358,337.0,338.0,405.0,409.0,93.0,93.0,93.0,93.0,0.0,0.0,0.0,0.0,0.050785787,0.050607238,0.054455362,0.05421139,0.0075995917,-0.042468306,0.2183765,0.19624828,-6.558,-13.62562,4.7877426,-5.2839503,0.0,0.0,0.0,2.0,1.0,-2.8229253,-0.020338757,-3.0457973E-4,93.0,93.0,93.0,93.0,21.980246,21.980246,24.842789,24.842789,0.014536713,0.0146481795,-4.18268E-4,-4.159057E-4,1204.4569,0.0,0.0,0.0,0.0,0.0,0.0,0.0,0.0,0.0,0.0,0.0,0.0,0.0,-28.85659,0.022138108,-87.275314,-7.683666E-7,-0.0055889175,1.0836093E-4,541570.7,119984.89,0.006427841,0.006378822,8600.254,8474.069,7258.0737,7148.144,0.2985115,0.0,0.0,0.0
263.53558,263.53558,2.933,0.0,0.0,331.14383,11817.0,100.0,0.0,0.08877832,0.0,8.0,1.0,0.0,4000000.0,110.0,1.0,0.0,0.0,10.0,0.0,0.0,85.90433,1.3076297,555.0597,-0.052009135,0.12636943,-0.0010592226,335.95337,335.9637,331.02026,330.98828,336.0,337.0,403.0,407.0,93.0,93.0,93.0,93.0,0.0,0.0,0.0,0.0,0.05079074,0.050615884,0.054463707,0.05422459,0.19624828,0.25615093,0.089853995,0.2646446,10.862945,1.3008704,-2.6687973,-1.1533498,0.0,0.0,0.0,2.0,1.0,-2.8231943,-0.020334007,-3.066063E-4,93.0,93.0,93.0,93.0,21.980246,21.980246,24.842789,24.842789,0.014521839,0.014631464,-4.1825874E-4,-4.1533136E-4,1204.9387,0.0,0.0,0.0,0.0,0.0,0.0,0.0,0.0,0.0,0.0,0.0,0.0,0.0,-28.852108,0.022368856,-87.34234,1.2573645E-4,-0.005373604,1.1349873E-4,541420.56,119984.9,0.0064032613,0.006359987,8603.472,8478.943,7263.2065,7156.203,0.2984867,0.0,0.0,0.0
268.13608,268.13608,2.983,0.0,0.0,331.36496,11824.0,100.0,0.0,0.08056247,0.0,8.0,1.0,0.0,4000000.0,110.0,1.0,0.0,0.0,10.0,0.0,0.0,84.46183,1.3087523,550.6908,-0.049690712,0.12473295,-3.7493056E-4,336.17093,336.18204,331.24005,331.21085,334.0,335.0,402.0,406.0,93.0,93.0,93.0,93.0,0.0,0.0,0.0,0.0,0.050799437,0.050636414,0.05447469,0.05424079,-0.107064836,0.65714115,0.10728835,0.46156344,-18.426773,13.625619,-13.276932,9.548663,0.0,0.0,0.0,2.0,1.0,-2.8234487,-0.020324072,-3.118515E-4,93.0,93.0,93.0,93.0,21.980246,21.980246,24.842789,24.842789,0.014505735,0.0146092195,-4.175401E-4,-4.151082E-4,1205.3242,0.0,0.0,0.0,0.0,0.0,0.0,0.0,0.0,0.0,0.0,0.0,0.0,0.0,-28.848166,0.022589866,-87.40833,8.743906E-5,-0.0048828437,-2.9632752E-4,541273.1,119984.89,0.006357498,0.0063211597,8608.678,8489.386,7271.6655,7167.6357,0.29844284,0.0,0.0,0.0
272.73962,272.73962,3.033,0.0,0.0,331.58325,11832.0,100.0,0.0,0.10541945,0.0,8.0,1.0,0.0,4000000.0,110.0,1.0,0.0,0.0,10.0,0.0,0.0,83.01953,1.3099054,546.3186,-0.051745243,0.123038635,0.0011859266,336.38626,336.396,331.46,331.42743,333.0,334.0,400.0,404.0,93.0,93.0,93.0,93.0,0.0,0.0,0.0,0.0,0.050823744,0.05064836,0.054490767,0.054253343,0.16674398,0.14439224,0.31962988,0.19468366,-28.002256,-7.7381716,-4.1574235,-4.948674,0.0,0.0,0.0,2.0,1.0,-2.8237026,-0.020330848,-3.1769276E-4,93.0,93.0,93.0,93.0,21.980246,21.980246,24.842789,24.842789,0.014481407,0.014591927,-4.1867793E-4,-4.1329092E-4,1205.8162,0.0,0.0,0.0,0.0,0.0,0.0,0.0,0.0,0.0,0.0,0.0,0.0,0.0,-28.843763,0.02357032,-87.47363,2.0532584E-4,-0.0055815424,4.551597E-4,541127.94,119984.9,0.0063193263,0.006276605,8620.323,8497.801,7282.0312,7175.07,0.29840374,0.0,0.0,0.0
277.3461,277.3461,3.099,0.0,0.0,331.79855,11839.0,100.0,0.0,0.089447975,0.0,8.0,1.0,0.0,4000000.0,110.0,1.0,0.0,0.0,10.0,0.0,0.0,81.57746,1.3111,541.94324,-0.05052632,0.12141699,-4.4519862E-4,336.60025,336.6091,331.67538,331.6427,331.0,332.0,399.0,403.0,93.0,93.0,93.0,93.0,0.0,0.0,0.0,0.0,0.050824303,0.050655533,0.05449987,0.054265812,0.0,0.0,0.0,0.0,9.307263,2.1055331,2.6151536,2.722442,0.0,0.0,0.0,2.0,1.0,-2.8239782,-0.020325223,-3.1900406E-4,93.0,93.0,93.0,93.0,21.980246,21.980246,24.842789,24.842789,0.014468504,0.014575584,-4.1679988E-4,-4.1401875E-4,1206.2075,0.0,0.0,0.0,0.0,0.0,0.0,0.0,0.0,0.0,0.0,0.0,0.0,0.0,-28.839302,0.024058355,-87.53807,7.607513E-5,-0.0055081747,-5.7927573E-6,540983.5,119984.89,0.00629308,0.0062613687,8623.124,8501.361,7287.6597,7182.9434,0.2983837,0.0,0.0,0.0
281.95554,281.95554,3.133,0.0,0.0,332.011,11847.0,100.0,0.0,0.07910985,0.0,8.0,1.0,0.0,4000000.0,110.0,1.0,0.0,0.0,10.0,0.0,0.0,80.13563,1.312308,537.56464,-0.050016332,0.11986837,-4.4523116E-4,336.80957,336.8189,331.8877,331.85547,330.0,331.0,397.0,401.0,93.0,93.0,93.0,93.0,0.0,0.0,0.0,0.0,0.050840404,0.05066582,0.054513294,0.054274123,0.20898877,0.40881333,0.21480022,0.25257465,-10.742246,14.564393,-5.9545026,8.542833,0.0,0.0,0.0,2.0,1.0,-2.824254,-0.02033076,-3.247261E-4,93.0,93.0,93.0,93.0,21.980246,21.980246,24.842789,24.842789,0.014451002,0.014557302,-4.1602584E-4,-4.1450298E-4,1206.7062,0.0,0.0,0.0,0.0,0.0,0.0,0.0,0.0,0.0,0.0,0.0,0.0,0.0,-28.83427,0.024272555,-87.60186,6.0103266E-5,-0.0053591672,-2.0382548E-4,540841.7,119984.9,0.0062599503,0.0062273243,8630.943,8507.676,7295.8613,7188.5205,0.29834938,0.0,0.0,0.0
286.5679,286.5679,3.183,0.0,0.0,332.22064,11854.0,100.0,0.0,0.08847387,0.0,8.0,1.0,0.0,4000000.0,110.0,1.0,0.0,0.0,10.0,0.0,0.0,78.69407,1.3135369,533.18286,-0.05159847,0.118229926,5.8414135E-4,337.01648,337.02512,332.09808,332.06436,328.0,329.0,396.0,400.0,93.0,93.0,93.0,93.0,0.0,0.0,0.0,0.0,0.050857484,0.050678138,0.054528743,0.05428616,0.35226342,0.23514031,0.3547221,0.23692845,-3.4734604,5.52535,0.56326383,2.5212762,0.0,0.0,0.0,2.0,1.0,-2.8245308,-0.020337515,-3.297329E-4,93.0,93.0,93.0,93.0,21.980246,21.980246,24.842789,24.842789,0.014430898,0.014539998,-4.1624022E-4,-4.1369614E-4,1207.1073,0.0,0.0,0.0,0.0,0.0,0.0,0.0,0.0,0.0,0.0,0.0,0.0,0.0,-28.828466,0.024916435,-87.66508,1.6148694E-4,-0.0056680175,1.4376716E-4,540702.0,119984.91,0.006220551,0.0061897016,8640.102,8515.134,7306.425,7197.164,0.2983122,0.0,0.0,0.0
291.1831,291.1831,3.233,0.0,0.0,332.42773,11861.0,100.0,0.0,0.07784352,0.0,8.0,1.0,0.0,4000000.0,110.0,1.0,0.0,0.0,10.0,0.0,0.0,77.25281,1.3148049,528.798,-0.050362263,0.117140085,0.0039579803,337.22214,337.2122,332.30502,332.27145,327.0,328.0,394.0,398.0,93.0,93.0,93.0,93.0,0.0,0.0,0.0,0.0,0.050862607,0.050752178,0.054540064,0.054296758,-0.064820044,4.064217,0.22999941,0.2145767,-12.834368,233.92883,4.1574235,-0.65714115,0.0,0.0,0.0,2.0,1.0,-2.8248155,-0.020344699,-3.3080578E-4,93.0,93.0,93.0,93.0,21.980246,21.980246,24.842789,24.842789,0.014418751,0.01448789,-4.1588486E-4,-4.1389506E-4,1207.5228,0.0,0.0,0.0,0.0,0.0,0.0,0.0,0.0,0.0,0.0,0.0,0.0,0.0,-28.822456,0.026210861,-87.72761,-7.2241965E-5,-0.005654575,9.946278E-4,540568.9,119984.91,0.0061694123,0.0060088136,8645.855,8561.174,7312.874,7202.892,0.29829025,0.0,0.0,0.0
295.8012,295.8012,3.283,0.0,0.0,332.63138,11868.0,100.0,0.0,0.08784071,0.0,8.0,1.0,0.0,4000000.0,110.0,1.0,0.0,0.0,10.0,0.0,0.0,75.81187,1.3161218,524.41,-0.052408606,0.11501572,-0.007893812,337.42572,337.43524,332.50922,332.47467,326.0,327.0,393.0,397.0,93.0,93.0,93.0,93.0,0.0,0.0,0.0,0.0,0.050852776,0.050656807,0.05455747,0.054291178,-0.38601455,1.2559443,-0.5862861,0.6414949,-51.95438,482.63663,-57.76136,52.745632,0.0,0.0,0.0,2.0,1.0,-2.825101,-0.02036531,-3.1805038E-4,93.0,93.0,93.0,93.0,21.980246,21.980246,24.842789,24.842789,0.014409885,0.014521221,-4.150797E-4,-4.12829E-4,1207.9137,0.0,0.0,0.0,0.0,0.0,0.0,0.0,0.0,0.0,0.0,0.0,0.0,0.0,-28.815437,0.02486837,-87.78945,-9.253551E-5,-0.0057568634,-0.0025891438,540424.94,119984.89,0.006168536,0.006196407,8638.645,8513.416,7316.6826,7202.0312,0.2982874,0.0,0.0,0.0
300.4221,300.4221,3.349,0.0,0.0,332.83334,11875.0,100.0,0.0,0.088187195,0.0,8.0,1.0,0.0,4000000.0,110.0,1.0,0.0,0.0,10.0,0.0,0.0,74.37128,1.3173413,520.01886,-0.052920505,0.11393993,0.0020409958,337.6199,337.6283,332.7104,332.67737,324.0,325.0,392.0,395.0,93.0,93.0,93.0,93.0,0.0,0.0,0.0,0.0,0.050902884,0.050725635,0.054556374,0.054320164,0.0,0.0,0.0,0.0,1.6361474,-54.20743,38.516514,-17.045435,0.0,0.0,0.0,2.0,1.0,-2.8253808,-0.020334369,-3.4451485E-4,93.0,93.0,93.0,93.0,21.980246,21.980246,24.842789,24.842789,0.0143787665,0.014483813,-4.155269E-4,-4.128367E-4,1208.3328,0.0,0.0,0.0,0.0,0.0,0.0,0.0,0.0,0.0,0.0,0.0,0.0,0.0,-28.808393,0.024722036,-87.8508,3.8505543E-4,-0.0055437246,8.73968E-4,540293.75,119984.9,0.0060627097,0.0060372427,8662.347,8540.961,7327.213,7219.3584,0.2981577,0.0,0.0,0.0
305.04572,305.04572,3.383,0.0,0.0,333.03226,11882.0,100.0,0.0,0.088360436,0.0,8.0,1.0,0.0,4000000.0,110.0,1.0,0.0,0.0,10.0,0.0,0.0,72.93105,1.3186753,515.62476,-0.05269982,0.112039976,0.0072480743,337.81424,337.82394,332.90933,332.8765,323.0,324.0,390.0,394.0,93.0,93.0,93.0,93.0,0.0,0.0,0.0,0.0,0.05092747,0.050747152,0.054594625,0.05434652,-0.61467284,-0.07152557,0.038892027,0.32164153,-126.96235,-90.30997,-81.87442,-45.074512,0.0,0.0,0.0,2.0,1.0,-2.8256576,-0.020344604,-3.4570694E-4,93.0,93.0,93.0,93.0,21.980246,21.980246,24.842789,24.842789,0.01435477,0.014463875,-4.1533113E-4,-4.1250227E-4,1208.7498,0.0,0.0,0.0,0.0,0.0,0.0,0.0,0.0,0.0,0.0,0.0,0.0,0.0,-28.801123,0.028754072,-87.91133,-9.615904E-5,-0.00549875,-3.5290475E-4,540161.8,119984.9,0.0060185622,0.006004701,8677.699,8549.518,7346.5303,7236.2373,0.29811668,0.0,0.0,0.0
309.67218,309.67218,3.433,0.0,0.0,333.22842,11890.0,100.0,0.0,0.08766776,0.0,8.0,1.0,0.0,4000000.0,110.0,1.0,0.0,0.0,10.0,0.0,0.0,71.4912,1.3200032,511.22763,-0.052892447,0.111145504,-0.07793563,338.04492,338.05502,333.10715,333.07336,321.0,322.0,389.0,392.0,93.0,93.0,93.0,93.0,0.0,0.0,0.0,0.0,0.050700948,0.050520662,0.05445375,0.05420844,-11.611282,-11.730417,-7.773488,-7.8579774,-640.32367,-644.27997,-446.4536,-453.89676,0.0,0.0,0.0,2.0,1.0,-2.8259387,-0.020343892,-2.850294E-4,93.0,93.0,93.0,93.0,21.980246,21.980246,24.842789,24.842789,0.01444645,0.014559197,-4.123782E-4,-4.1011343E-4,1209.216,0.0,0.0,0.0,0.0,0.0,0.0,0.0,0.0,0.0,0.0,0.0,0.0,0.0,-28.79318,0.016260037,-87.971275,-0.0046282285,-0.005752273,0.0017054351,540006.56,119984.9,0.005878948,0.006034451,8530.167,8403.378,7151.9644,7041.29,0.29804707,0.0,0.0,0.0
