LapDistance [m],TotalDistance [m],LapTime [s],Sector1Time [s],Sector2Time [s],Speed [km/h],EngineRevs [rpm],ThrottlePercentage [%],BrakePercentage [%],Steer [%],Clutch [%],Gear [int],DRS [0/1],CanUseDRS [0/1],KERSLevel [J],EngineTemperature [C],RacePosition [int],Sector [int],InPits [int],FuelRemaining [kg],CurrentFlag [int],CurrentLapInvalid [int],X [m],Y [m],Z [m],GForceLatitudinal [G],GForceLongitudinal [G],GForceVertical [G],WheelSpeedRearLeft [km/h],WheelSpeedRearRight [km/h],WheelSpeedFrontLeft [km/h],WheelSpeedFrontRight [km/h],BrakeTemperatureRearLeft [C],BrakeTemperatureRearRight [C],BrakeTemperatureFrontLeft [C],BrakeTemperatureFrontRight [C],TyreTemperatureRearLeft [C],TyreTemperatureRearRight [C],TyreTemperatureFrontLeft [C],TyreTemperatureFrontRight [C],TyreWearRearLeft [%],TyreWearRearRight [%],TyreWearFrontLeft [%],TyreWearFrontRight [%],SuspensionPositionRearLeft [m],SuspensionPositionRearRight [m],SuspensionPositionFrontLeft [m],SuspensionPositionFrontRight [m],SuspensionVelocityRearLeft [m/s],SuspensionVelocityRearRight [m/s],SuspensionVelocityFrontLeft [m/s],SuspensionVelocityFrontRight [m/s],SuspensionAccelerationRearLeft [m/s^2],SuspensionAccelerationRearRight [m/s^2],SuspensionAccelerationFrontLeft [m/s^2],SuspensionAccelerationFrontRight [m/s^2],MGUKHarvested [J],MGUHHarvested [J],ERSSpent [J],ERSMode [int],FuelMixMode [int],Yaw [rad],Roll [rad],Pitch [rad],TyreCarcassTemperatureRearLeft [C],TyreCarcassTemperatureRearRight [C],TyreCarcassTemperatureFrontLeft [C],TyreCarcassTemperatureFrontRight [C],TyrePressureRearLeft [PSI],TyrePressureRearRight [PSI],TyrePressureFrontLeft [PSI],TyrePressureFrontRight [PSI],WheelSlipRearLeft [%],WheelSlipRearRight [%],WheelSlipFrontLeft [%],WheelSlipFrontRight [%],Torque [Nm],Handbrake [%],RearLeftInside [C],RearLeftMiddle [C],RearLeftOutside [C],RearRightInside [C],RearRightMiddle [C],RearRightOutside [C],FrontLeftInside [C],FrontLeftMiddle [C],FrontLeftOutside [C],FrontRightInside [C],FrontRightMiddle [C],FrontRightOutside [C],WoldSpeedX [km/h],WoldSpeedY [km/h],WoldSpeedZ [km/h],LocalAngularVelocityX [rad/s],LocalAngularVelocityY [rad/s],LocalAngularVelocityZ [rad/s],IcePower [W],MgukPower [W],FrontRideHeight [m],RearRideHeight [m],LoadRearLeft [N],LoadRearRight [N],LoadFrontLeft [N],LoadFrontRight [N],Extra1 [m],Extra2 [],Extra3 [],Extra4 []
1.8842,1.8842,0.016,0.0,0.0,286.60968,10324.0,100.0,0.0,-0.060283612,0.0,8.0,1.0,0.0,4000000.0,110.0,1.0,0.0,0.0,10.0,0.0,0.0,-275.06058,27.365553,401.39542,0.036108956,0.335222,-0.17014118,292.0427,292.05923,286.4724,286.4895,310.0,309.0,337.0,334.0,97.0,97.0,97.0,97.0,0.0,0.0,0.0,0.0,0.037708327,0.036766555,0.051695287,0.051972784,-25.248749,-16.771404,-13.402774,-7.530301,-270.4202,1282.4849,-2088.5823,-1203.735,0.0,0.0,0.0,2.0,1.0,-2.6198413,0.012107364,0.007686734,97.0,97.0,97.0,97.0,21.302864,21.302864,24.666473,24.666473,0.019014334,0.019032232,-4.4121555E-4,-4.448035E-4,1034.9412,0.0,0.0,0.0,0.0,0.0,0.0,0.0,0.0,0.0,0.0,0.0,0.0,0.0,-39.64622,-0.29929367,-69.039444,-0.007701023,0.0032373462,0.015249498,532285.56,119984.9,0.019070884,0.026733272,6637.5815,6603.3125,5510.117,5656.918,0.31717587,0.0,0.0,0.0
5.869292,5.869292,0.066,0.0,0.0,287.19318,10346.0,100.0,0.0,0.014018788,0.0,8.0,1.0,0.0,4000000.0,110.0,1.0,0.0,0.0,10.0,0.0,0.0,-277.04532,27.348398,397.93988,0.01774016,0.32766473,-0.061908446,292.66806,292.64926,287.06152,287.0595,308.0,308.0,336.0,333.0,97.0,97.0,97.0,97.0,0.0,0.0,0.0,0.0,0.036579084,0.036302883,0.052255835,0.052308068,-17.344727,-6.912052,28.312502,17.88877,426.17612,133.45332,757.96533,541.0954,0.0,0.0,0.0,2.0,1.0,-2.6197834,0.011508584,0.00799489,97.0,97.0,97.0,97.0,21.302864,21.302864,24.666473,24.666473,0.019134149,0.01910634,-4.4378117E-4,-4.3866236E-4,1039.2129,0.0,0.0,0.0,0.0,0.0,0.0,0.0,0.0,0.0,0.0,0.0,0.0,0.0,-39.736557,-0.3660772,-69.17416,0.02746659,-9.073679E-4,-0.0069123325,533346.0,119984.91,0.016975082,0.028398594,6561.369,6585.7373,6250.712,6242.3613,0.32056332,0.0,0.0,0.0
9.862559,9.862559,0.116,0.0,0.0,287.79016,10349.0,100.0,0.0,0.0821144,0.0,8.0,1.0,0.0,4000000.0,110.0,1.0,0.0,0.0,10.0,0.0,0.0,-279.0345,27.331318,394.47748,-0.0022674203,0.33694163,0.288549,292.7629,292.711,287.65704,287.64105,307.0,306.0,335.0,332.0,97.0,97.0,97.0,97.0,0.0,0.0,0.0,0.0,0.040522367,0.04088079,0.053431053,0.05284126,132.19847,138.18025,27.088297,6.5173206,3035.6833,2286.4224,458.4297,-210.36563,0.0,0.0,0.0,2.0,1.0,-2.6198995,0.01231934,0.0047898293,97.0,97.0,97.0,97.0,21.302864,21.302864,24.666473,24.666473,0.017325811,0.017298132,-4.5763302E-4,-4.4571952E-4,1039.8146,0.0,0.0,0.0,0.0,0.0,0.0,0.0,0.0,0.0,0.0,0.0,0.0,0.0,-39.822845,-0.29021016,-69.31619,0.046961337,-0.004642675,-0.08382055,533500.1,119984.9,0.0120351,0.019497508,7707.4507,7695.447,6912.215,6565.2944,0.31241608,0.0,0.0,0.0
13.864212,13.864212,0.166,0.0,0.0,288.3911,10365.0,100.0,0.0,-0.05328293,0.0,8.0,1.0,0.0,4000000.0,110.0,1.0,0.0,0.0,10.0,0.0,0.0,-281.02777,27.321392,391.00778,0.0015694797,0.33964476,0.3609419,293.20422,293.16763,288.26163,288.25217,306.0,305.0,334.0,331.0,97.0,97.0,97.0,97.0,0.0,0.0,0.0,0.0,0.045106653,0.04625424,0.05296066,0.05315797,50.47984,50.61641,-12.465118,3.087446,-2992.7412,-4039.2185,-1.5824889,-229.74458,0.0,0.0,0.0,2.0,1.0,-2.6201248,0.014394951,0.0019439459,97.0,97.0,97.0,97.0,21.302864,21.302864,24.666473,24.666473,0.01670041,0.016578998,-4.4831136E-4,-4.6052376E-4,1042.9623,0.0,0.0,0.0,0.0,0.0,0.0,0.0,0.0,0.0,0.0,0.0,0.0,0.0,-39.90393,-0.11469665,-69.46263,0.009946667,-0.0014934001,-0.025728954,534289.06,119984.9,0.010276424,0.0123994155,8093.505,8218.68,6360.705,6502.1025,0.30747318,0.0,0.0,0.0
17.874136,17.874136,0.216,0.0,0.0,288.97998,10398.0,100.0,0.0,-0.054070044,0.0,8.0,1.0,0.0,4000000.0,110.0,1.0,0.0,0.0,10.0,0.0,0.0,-283.0251,27.317276,387.53088,-4.234761E-4,0.33323812,0.045245696,294.12888,294.13098,288.84854,288.85733,304.0,304.0,333.0,330.0,97.0,97.0,97.0,97.0,0.0,0.0,0.0,0.0,0.043455683,0.043996148,0.052505888,0.052577253,-49.017815,-62.96128,0.13411044,-2.8335302,-870.967,-764.7246,373.5646,434.26297,0.0,0.0,0.0,2.0,1.0,-2.6200852,0.014562953,0.002850294,97.0,97.0,97.0,97.0,21.302864,21.302864,24.666473,24.666473,0.017802354,0.017768355,-4.4648247E-4,-4.5031603E-4,1049.4822,0.0,0.0,0.0,0.0,0.0,0.0,0.0,0.0,0.0,0.0,0.0,0.0,0.0,-39.98404,-0.06682463,-69.60532,-0.028981494,0.002111567,0.015319237,535922.8,119984.914,0.010040922,0.0142209185,7326.892,7345.7754,6126.886,6152.991,0.3079319,0.0,0.0,0.0
21.892258,21.892258,0.266,0.0,0.0,289.5686,10425.0,100.0,0.0,-0.008889793,0.0,8.0,1.0,0.0,4000000.0,110.0,1.0,0.0,0.0,10.0,0.0,0.0,-285.0265,27.31331,384.04694,0.0017083883,0.3366801,-0.108921856,294.90845,294.9039,289.43338,289.44284,303.0,302.0,331.0,328.0,97.0,97.0,97.0,97.0,0.0,0.0,0.0,0.0,0.04059247,0.04086999,0.052355096,0.052429136,-50.771976,-52.35895,-4.4926996,-2.8496234,649.202,811.7703,-40.327003,63.635403,0.0,0.0,0.0,2.0,1.0,-2.6199725,0.0147273755,0.004056692,97.0,97.0,97.0,97.0,21.302864,21.302864,24.666473,24.666473,0.018491762,0.018442415,-4.5189867E-4,-4.4818828E-4,1054.856,0.0,0.0,0.0,0.0,0.0,0.0,0.0,0.0,0.0,0.0,0.0,0.0,0.0,-40.06697,-0.10113702,-69.74621,-0.014392401,0.0016653985,0.006063154,537271.9,119984.91,0.009998581,0.017086541,6935.878,6981.128,5997.002,6039.7476,0.30906677,0.0,0.0,0.0
25.918644,25.918644,0.316,0.0,0.0,290.15967,10442.0,100.0,0.0,0.032145325,0.0,8.0,1.0,0.0,4000000.0,110.0,1.0,0.0,0.0,10.0,0.0,0.0,-287.03198,27.307898,380.55582,-0.0041362494,0.32246703,-0.011044361,295.36832,295.37732,290.03253,290.02707,302.0,301.0,330.0,327.0,97.0,97.0,97.0,97.0,0.0,0.0,0.0,0.0,0.040688768,0.040644303,0.052358687,0.05256699,6.7030635,-2.036914,-12.565925,-13.173669,-1806.4407,-1907.6808,-1906.742,-2310.991,0.0,0.0,0.0,2.0,1.0,-2.6199691,0.014443017,0.0045084953,97.0,97.0,97.0,97.0,21.302864,21.302864,24.666473,24.666473,0.017919961,0.017963488,-4.4637884E-4,-4.4236903E-4,1058.1838,0.0,0.0,0.0,0.0,0.0,0.0,0.0,0.0,0.0,0.0,0.0,0.0,0.0,-40.147877,-0.10387719,-69.88907,-0.0072655757,-8.492645E-4,0.017443595,538089.44,119984.9,0.012097758,0.018220956,7241.8984,7214.793,5918.4644,6004.293,0.30886173,0.0,0.0,0.0
29.953033,29.953033,0.366,0.0,0.0,290.72247,10470.0,100.0,0.0,0.091555506,0.0,8.0,1.0,0.0,4000000.0,110.0,1.0,0.0,0.0,10.0,0.0,0.0,-289.04138,27.300966,377.05774,-0.01525113,0.3150313,-0.20423415,296.17642,296.17426,290.60553,290.5877,300.0,300.0,329.0,326.0,97.0,97.0,97.0,97.0,0.0,0.0,0.0,0.0,0.039155375,0.038929358,0.051877122,0.051978193,-39.61086,-39.7785,-18.625706,-16.32191,-892.1025,-588.946,-1670.6674,-1209.9576,0.0,0.0,0.0,2.0,1.0,-2.6200457,0.014059659,0.0059736967,97.0,97.0,97.0,97.0,21.302864,21.302864,24.666473,24.666473,0.018715147,0.01876893,-4.4036016E-4,-4.3252876E-4,1063.7668,0.0,0.0,0.0,0.0,0.0,0.0,0.0,0.0,0.0,0.0,0.0,0.0,0.0,-40.222523,-0.17662668,-70.02634,-0.028528005,-0.0028197125,0.024162093,539481.75,119984.914,0.017699374,0.023375317,6751.9604,6725.198,5527.336,5587.171,0.31497288,0.0,0.0,0.0
33.995144,33.995144,0.416,0.0,0.0,291.26822,10496.0,100.0,0.0,0.035125688,0.0,8.0,1.0,0.0,4000000.0,110.0,1.0,0.0,0.0,10.0,0.0,0.0,-291.05432,27.288507,373.55283,-0.018055975,0.3081898,-0.21843082,296.92892,296.9058,291.15054,291.12607,299.0,298.0,328.0,325.0,97.0,97.0,97.0,97.0,0.0,0.0,0.0,0.0,0.036609046,0.036352314,0.052068185,0.05203505,-49.617958,-44.904423,21.249353,16.50609,259.70486,727.1468,907.16327,941.9649,0.0,0.0,0.0,2.0,1.0,-2.6202497,0.0136601,0.007596731,97.0,97.0,97.0,97.0,21.302864,21.302864,24.666473,24.666473,0.019476254,0.019490417,-4.3330115E-4,-4.3542663E-4,1068.9581,0.0,0.0,0.0,0.0,0.0,0.0,0.0,0.0,0.0,0.0,0.0,0.0,0.0,-40.290833,-0.30624095,-70.161476,0.002296932,-0.0040862346,0.0035132135,540771.6,119984.9,0.01829429,0.028804889,6337.8936,6338.7,6060.8555,6034.986,0.32088566,0.0,0.0,0.0
38.044937,38.044937,0.466,0.0,0.0,291.82867,10499.0,100.0,0.0,0.058435496,0.0,8.0,1.0,0.0,4000000.0,110.0,1.0,0.0,0.0,10.0,0.0,0.0,-293.0707,27.272385,370.04108,-0.025666565,0.31782106,0.058032826,296.99677,296.97934,291.70016,291.67938,298.0,297.0,327.0,324.0,97.0,97.0,97.0,97.0,0.0,0.0,0.0,0.0,0.038605593,0.038558923,0.05284028,0.052615657,75.53525,78.230865,7.9154224,2.9356775,1241.5541,1197.7534,-523.1916,-666.3545,0.0,0.0,0.0,2.0,1.0,-2.620452,0.013762086,0.0055031776,97.0,97.0,97.0,97.0,21.302864,21.302864,24.666473,24.666473,0.017840462,0.017861389,-4.500234E-4,-4.4712715E-4,1069.5402,0.0,0.0,0.0,0.0,0.0,0.0,0.0,0.0,0.0,0.0,0.0,0.0,0.0,-40.358772,-0.3156144,-70.30195,0.045178674,-0.004537699,-0.038093023,540911.44,119984.9,0.014415461,0.02277224,7311.816,7307.198,6385.72,6263.8047,0.3207121,0.0,0.0,0.0
42.102562,42.102562,0.516,0.0,0.0,292.3916,10509.0,100.0,0.0,0.03413505,0.0,8.0,1.0,0.0,4000000.0,110.0,1.0,0.0,0.0,10.0,0.0,0.0,-295.09045,27.25958,366.52225,-0.02180703,0.31910443,0.33969125,297.27533,297.2576,292.26108,292.2468,296.0,296.0,325.0,323.0,97.0,97.0,97.0,97.0,0.0,0.0,0.0,0.0,0.044145424,0.04456664,0.05329254,0.053212784,95.17661,101.24981,6.563365,9.387284,-1539.3063,-1741.37,-166.4847,-232.11833,0.0,0.0,0.0,2.0,1.0,-2.6206217,0.014492887,0.0028003454,97.0,97.0,97.0,97.0,21.302864,21.302864,24.666473,24.666473,0.016762123,0.01673199,-4.499965E-4,-4.4855574E-4,1070.95,0.0,0.0,0.0,0.0,0.0,0.0,0.0,0.0,0.0,0.0,0.0,0.0,0.0,-40.426567,-0.18457541,-70.4438,0.031080956,-0.0031045284,-0.031311642,541109.06,119984.9,0.010769109,0.014446077,8038.254,8076.795,6716.8022,6688.458,0.31115437,0.0,0.0,0.0
46.168083,46.168083,0.566,0.0,0.0,292.9566,10532.0,100.0,0.0,0.06207776,0.0,8.0,1.0,0.0,4000000.0,110.0,1.0,0.0,0.0,10.0,0.0,0.0,-297.1136,27.252825,362.9963,-0.022911347,0.32052147,0.21431729,297.9112,297.88376,292.82996,292.81592,295.0,295.0,324.0,321.0,97.0,97.0,97.0,97.0,0.0,0.0,0.0,0.0,0.044457242,0.04482922,0.053286303,0.053076364,2.9835103,2.3256986,3.0968337,0.3109127,-178.94354,153.6235,-647.351,-322.2808,0.0,0.0,0.0,2.0,1.0,-2.620748,0.014842822,0.0019471645,97.0,97.0,97.0,97.0,21.302864,21.302864,24.666473,24.666473,0.01692205,0.016874786,-4.5279463E-4,-4.4540473E-4,1074.0636,0.0,0.0,0.0,0.0,0.0,0.0,0.0,0.0,0.0,0.0,0.0,0.0,0.0,-40.494877,-0.08570832,-70.58574,0.003121206,-0.0028427588,-0.013940286,541497.1,119984.9,0.007474198,0.011231874,7874.1577,7938.2275,6643.9785,6547.246,0.3044672,0.0,0.0,0.0
50.24144,50.24144,0.616,0.0,0.0,293.5123,10561.0,100.0,0.0,0.12502939,0.0,8.0,1.0,0.0,4000000.0,110.0,1.0,0.0,0.0,10.0,0.0,0.0,-299.14,27.249681,359.46323,-0.039582387,0.3066821,-0.104087815,298.75757,298.7351,293.41064,293.36945,294.0,293.0,323.0,320.0,97.0,97.0,97.0,97.0,0.0,0.0,0.0,0.0,0.043506257,0.043645095,0.052323718,0.05222096,-50.981636,-56.88652,-22.29385,-21.2194,-2431.221,-2343.62,-72.20512,-206.32884,0.0,0.0,0.0,2.0,1.0,-2.6209886,0.015232909,0.0033529997,97.0,97.0,97.0,97.0,21.302864,21.302864,24.666473,24.666473,0.017687934,0.017744396,-4.3990248E-4,-4.3381072E-4,1078.054,0.0,0.0,0.0,0.0,0.0,0.0,0.0,0.0,0.0,0.0,0.0,0.0,0.0,-40.556473,-0.071296275,-70.72837,-0.059549663,-0.006301298,0.027914703,542016.44,119984.9,0.011840326,0.013923031,7295.7656,7280.9766,5743.619,5700.5596,0.30747604,0.0,0.0,0.0
52.96124,52.96124,0.666,0.0,0.0,293.8669,10585.0,100.0,0.0,0.16868097,0.0,8.0,1.0,0.0,4000000.0,110.0,1.0,0.0,0.0,10.0,0.0,0.0,-300.49258,27.245924,357.10394,-0.050897814,0.30276433,-0.25060257,299.42014,299.41635,293.7701,293.7198,293.0,292.0,322.0,319.0,97.0,97.0,97.0,97.0,0.0,0.0,0.0,0.0,0.040493682,0.040529054,0.05196512,0.052154314,0.0,0.0,0.0,0.0,26.822203,133.6006,446.82916,1044.5057,0.0,0.0,0.0,2.0,1.0,-2.6212187,0.015024745,0.005679965,97.0,97.0,97.0,97.0,21.302864,21.302864,24.666473,24.666473,0.018776901,0.018871743,-4.331263E-4,-4.2654524E-4,1081.3225,0.0,0.0,0.0,0.0,0.0,0.0,0.0,0.0,0.0,0.0,0.0,0.0,0.0,-40.593178,-0.15101244,-70.82075,-0.043023985,-0.007700994,0.05236979,542427.1,119984.91,0.014073931,0.020383865,6642.947,6640.2607,5770.9136,5918.3374,0.3126545,0.0,0.0,0.0
58.410667,58.410667,0.716,0.0,0.0,294.57574,10604.0,100.0,0.0,0.17363273,0.0,8.0,1.0,0.0,4000000.0,110.0,1.0,0.0,0.0,10.0,0.0,0.0,-303.20108,27.2293,352.376,-0.06814981,0.29975826,-0.111203015,299.94214,299.95602,294.47125,294.41534,291.0,291.0,321.0,318.0,97.0,97.0,97.0,97.0,0.0,0.0,0.0,0.0,0.038129404,0.037298553,0.052499224,0.052323695,20.322426,21.736843,4.3264027,2.0413845,1701.9283,2354.2148,-1055.4358,-898.741,0.0,0.0,0.0,2.0,1.0,-2.621816,0.013636888,0.0069760084,97.0,97.0,97.0,97.0,21.302864,21.302864,24.666473,24.666473,0.01823231,0.018442556,-4.3858023E-4,-4.3416853E-4,1083.9226,0.0,0.0,0.0,0.0,0.0,0.0,0.0,0.0,0.0,0.0,0.0,0.0,0.0,-40.657494,-0.30559647,-71.01033,0.016338095,-0.009748413,0.001649322,542757.2,119984.9,0.016148118,0.024207847,7046.093,6915.455,6151.7803,6067.5796,0.31545925,0.0,0.0,0.0
62.505184,62.505184,0.766,0.0,0.0,295.09378,10619.0,100.0,0.0,0.12443517,0.0,8.0,1.0,0.0,4000000.0,110.0,1.0,0.0,0.0,10.0,0.0,0.0,-305.23508,27.212946,348.82175,-0.06647146,0.29005834,-0.026675344,300.36838,300.36337,294.9904,294.9393,290.0,289.0,320.0,317.0,97.0,97.0,97.0,97.0,0.0,0.0,0.0,0.0,0.03952866,0.039197702,0.0525291,0.05222448,24.07573,34.001244,3.5865602,4.4551487,-310.86798,-397.39606,231.42096,502.87384,0.0,0.0,0.0,2.0,1.0,-2.6222823,0.0135445185,0.00671196,97.0,97.0,97.0,97.0,21.302864,21.302864,24.666473,24.666473,0.017835692,0.017971465,-4.3154065E-4,-4.3342315E-4,1085.972,0.0,0.0,0.0,0.0,0.0,0.0,0.0,0.0,0.0,0.0,0.0,0.0,0.0,-40.700634,-0.33833474,-71.15129,-0.0029957988,-0.008544541,-0.0012359837,543015.25,119984.89,0.017763171,0.02382247,7234.375,7164.5547,6153.034,6021.9,0.31664467,0.0,0.0,0.0
66.60608,66.60608,0.816,0.0,0.0,295.5902,10642.0,100.0,0.0,0.09895631,0.0,8.0,1.0,0.0,4000000.0,110.0,1.0,0.0,0.0,10.0,0.0,0.0,-307.27115,27.196026,345.26056,-0.062031582,0.27648652,-0.22663544,301.02527,301.01077,295.47952,295.4375,289.0,288.0,318.0,316.0,97.0,97.0,97.0,97.0,0.0,0.0,0.0,0.0,0.039434385,0.039123315,0.052492045,0.05226202,-42.976585,-40.21279,-23.856236,-25.131626,-3761.4355,-3442.038,-2222.8,-2335.6406,0.0,0.0,0.0,2.0,1.0,-2.6226764,0.013612746,0.0062612295,97.0,97.0,97.0,97.0,21.302864,21.302864,24.666473,24.666473,0.018400805,0.0184866,-4.3168984E-4,-4.3244197E-4,1089.127,0.0,0.0,0.0,0.0,0.0,0.0,0.0,0.0,0.0,0.0,0.0,0.0,0.0,-40.741688,-0.3628911,-71.286545,0.0102563305,-0.0072782445,-0.007970462,543415.8,119984.9,0.016536735,0.023548814,6742.935,6693.8584,5771.165,5660.849,0.31875515,0.0,0.0,0.0
70.71408,70.71408,0.866,0.0,0.0,296.11273,10644.0,100.0,0.0,0.09838531,0.0,8.0,1.0,0.0,4000000.0,110.0,1.0,0.0,0.0,10.0,0.0,0.0,-309.30942,27.178747,341.69244,-0.061588623,0.29052526,0.2966849,301.07352,301.05743,295.99698,295.95395,288.0,287.0,317.0,314.0,97.0,97.0,97.0,97.0,0.0,0.0,0.0,0.0,0.042182386,0.042022575,0.053600833,0.05326852,88.11861,88.94182,24.51159,23.199318,1396.2908,1343.746,-152.05443,-82.29022,0.0,0.0,0.0,2.0,1.0,-2.6230597,0.013793293,0.0047080517,97.0,97.0,97.0,97.0,21.302864,21.302864,24.666473,24.666473,0.016787779,0.016871218,-4.399444E-4,-4.406639E-4,1089.4022,0.0,0.0,0.0,0.0,0.0,0.0,0.0,0.0,0.0,0.0,0.0,0.0,0.0,-40.78571,-0.29256368,-71.42888,0.04018576,-0.0080209095,-0.03175027,543451.0,119984.91,0.011910586,0.017673632,7926.84,7877.5127,7076.335,6922.4814,0.31355667,0.0,0.0,0.0
74.82928,74.82928,0.916,0.0,0.0,296.6334,10660.0,100.0,0.0,0.21472324,0.0,8.0,1.0,0.0,4000000.0,110.0,1.0,0.0,0.0,10.0,0.0,0.0,-311.34985,27.166506,338.11728,-0.075653456,0.2982626,0.26267245,301.52588,301.51022,296.5242,296.4675,286.0,286.0,316.0,313.0,97.0,97.0,97.0,97.0,0.0,0.0,0.0,0.0,0.044584308,0.044451084,0.05368457,0.0534463,47.135574,44.089478,8.313283,7.7719235,272.04297,-35.25764,-160.12784,-393.48004,0.0,0.0,0.0,2.0,1.0,-2.6234834,0.014038236,0.0028922558,97.0,97.0,97.0,97.0,21.302864,21.302864,24.666473,24.666473,0.016483156,0.016608415,-4.506301E-4,-4.3882668E-4,1091.6019,0.0,0.0,0.0,0.0,0.0,0.0,0.0,0.0,0.0,0.0,0.0,0.0,0.0,-40.82733,-0.1891139,-71.572,0.032320615,-0.0106279,-0.018059323,543731.0,119984.89,0.005955669,0.01136152,8113.158,8045.58,6971.7676,6857.3413,0.30420113,0.0,0.0,0.0
78.95183,78.95183,0.966,0.0,0.0,297.16302,10682.0,100.0,0.0,0.102382965,0.0,8.0,1.0,0.0,4000000.0,110.0,1.0,0.0,0.0,10.0,0.0,0.0,-313.3924,27.15998,334.53485,-0.06480655,0.29671735,0.101012036,302.16013,302.13336,297.05832,297.01068,285.0,284.0,315.0,312.0,97.0,97.0,97.0,97.0,0.0,0.0,0.0,0.0,0.045754902,0.045721464,0.05323138,0.052854884,-17.633959,-11.158213,-15.175938,-15.012547,-2855.627,-2721.2615,-319.90704,-77.56948,0.0,0.0,0.0,2.0,1.0,-2.6239443,0.014368981,0.0025804043,97.0,97.0,97.0,97.0,21.302864,21.302864,24.666473,24.666473,0.016684944,0.016738039,-4.3870925E-4,-4.4211088E-4,1094.6309,0.0,0.0,0.0,0.0,0.0,0.0,0.0,0.0,0.0,0.0,0.0,0.0,0.0,-40.871227,-0.09624983,-71.71651,-0.030967945,-0.007513604,0.0056304857,544116.8,119984.9,0.00566518,0.008334346,7892.6475,7881.368,6388.997,6221.8096,0.30221176,0.0,0.0,0.0
83.0816,83.0816,1.016,0.0,0.0,297.66797,10710.0,100.0,0.0,0.0664344,0.0,8.0,1.0,0.0,4000000.0,110.0,1.0,0.0,0.0,10.0,0.0,0.0,-315.4371,27.155518,330.94534,-0.05559297,0.26608405,-0.06725427,302.99133,302.93756,297.5641,297.52466,284.0,283.0,314.0,311.0,97.0,97.0,97.0,97.0,0.0,0.0,0.0,0.0,0.04390002,0.043760628,0.05314561,0.052636065,-69.549675,-57.751534,-22.830738,-9.214505,-4896.2646,-2934.363,-3794.7217,-1439.4208,0.0,0.0,0.0,2.0,1.0,-2.6242814,0.015468594,0.0048542023,97.0,97.0,97.0,97.0,21.302864,21.302864,24.666473,24.666473,0.017683104,0.01762082,-4.180378E-4,-4.2440568E-4,1098.509,0.0,0.0,0.0,0.0,0.0,0.0,0.0,0.0,0.0,0.0,0.0,0.0,0.0,-40.913364,-0.0866005,-71.85394,-0.058677424,-0.0058187684,-0.008588405,544617.0,119984.9,0.010394902,0.015164049,7173.353,7243.6035,6281.3003,6121.709,0.30867958,0.0,0.0,0.0
87.218124,87.218124,1.066,0.0,0.0,298.15488,10736.0,100.0,0.0,0.09647034,0.0,8.0,1.0,0.0,4000000.0,110.0,1.0,0.0,0.0,10.0,0.0,0.0,-317.48383,27.146936,327.3492,-0.06395045,0.28670788,-0.3164111,303.68246,303.67932,298.04657,298.0023,283.0,282.0,313.0,310.0,97.0,97.0,97.0,97.0,0.0,0.0,0.0,0.0,0.03863168,0.038819402,0.052387904,0.05221071,-56.45804,-66.41998,-4.68336,-7.84099,4652.6265,3737.8728,85.32105,-456.29733,0.0,0.0,0.0,2.0,1.0,-2.624605,0.016140344,0.0063148737,97.0,97.0,97.0,97.0,21.302864,21.302864,24.666473,24.666473,0.018586664,0.018712085,-4.3055956E-4,-4.3085738E-4,1102.0652,0.0,0.0,0.0,0.0,0.0,0.0,0.0,0.0,0.0,0.0,0.0,0.0,0.0,-40.954845,-0.2491468,-71.98557,-0.0046677724,-0.007472718,8.335402E-4,545056.8,119984.9,0.014855788,0.021742703,6724.2314,6656.331,5974.5957,5873.6885,0.31381798,0.0,0.0,0.0
91.36155,91.36155,1.116,0.0,0.0,298.64487,10747.0,100.0,0.0,0.128203,0.0,8.0,1.0,0.0,4000000.0,110.0,1.0,0.0,0.0,10.0,0.0,0.0,-319.53278,27.131397,323.74643,-0.06533388,0.27229956,-0.20818788,303.98624,304.02136,298.5409,298.50308,281.0,281.0,311.0,309.0,97.0,97.0,97.0,97.0,0.0,0.0,0.0,0.0,0.038936157,0.038659398,0.051773053,0.05181414,22.51692,5.1797924,-15.123187,-8.019804,870.72546,-20.384787,181.7867,65.60686,0.0,0.0,0.0,2.0,1.0,-2.6249113,0.016069142,0.00711596,97.0,97.0,97.0,97.0,21.302864,21.302864,24.666473,24.666473,0.017853895,0.018082459,-4.2169876E-4,-4.2212047E-4,1103.601,0.0,0.0,0.0,0.0,0.0,0.0,0.0,0.0,0.0,0.0,0.0,0.0,0.0,-40.997715,-0.36187017,-72.1173,-0.030605083,-0.0055531114,0.032545857,545257.75,119984.9,0.021319734,0.024249962,7145.0527,6999.1387,5512.343,5558.0576,0.31741714,0.0,0.0,0.0
95.51128,95.51128,1.166,0.0,0.0,299.06558,10798.0,100.0,0.0,0.27413824,0.0,8.0,1.0,0.0,4000000.0,110.0,1.0,0.0,0.0,10.0,0.0,0.0,-321.5835,27.109531,320.1374,-0.07398717,0.21018647,-0.98719877,305.44684,305.45743,298.9799,298.91367,280.0,280.0,310.0,308.0,97.0,97.0,97.0,97.0,0.0,0.0,0.0,0.0,0.035215124,0.0347751,0.05057742,0.050789114,-201.70836,-185.43541,-80.981476,-68.41219,-10582.117,-9071.74,-5680.61,-4670.3555,0.0,0.0,0.0,2.0,1.0,-2.6252987,0.014916094,0.0098234415,97.0,97.0,97.0,97.0,21.302864,21.302864,24.666473,24.666473,0.021262253,0.021393958,-4.0662612E-4,-3.8863486E-4,1110.6342,0.0,0.0,0.0,0.0,0.0,0.0,0.0,0.0,0.0,0.0,0.0,0.0,0.0,-41.027172,-0.5863453,-72.233505,-0.031541914,-0.010622355,0.07051925,546140.94,119984.9,0.024462441,0.032389805,4948.3877,4962.884,3943.641,4096.041,0.32474995,0.0,0.0,0.0
99.66738,99.66738,1.216,0.0,0.0,299.56946,10771.0,100.0,0.0,0.057017274,0.0,8.0,1.0,0.0,4000000.0,110.0,1.0,0.0,0.0,10.0,0.0,0.0,-323.63583,27.07574,316.52194,-0.07047012,0.27093205,0.24457633,304.66425,304.67767,299.4564,299.39618,279.0,278.0,309.0,306.0,97.0,97.0,97.0,97.0,0.0,0.0,0.0,0.0,0.038659707,0.03704537,0.054199662,0.05346196,207.53456,185.16785,68.67103,80.20542,8038.203,8615.764,-2010.5569,1552.61,0.0,0.0,0.0,2.0,1.0,-2.625922,0.013028923,0.0089735985,97.0,97.0,97.0,97.0,21.302864,21.302864,24.666473,24.666473,0.01715376,0.01739614,-4.3097365E-4,-4.4082958E-4,1106.908,0.0,0.0,0.0,0.0,0.0,0.0,0.0,0.0,0.0,0.0,0.0,0.0,0.0,-41.062294,-0.6597519,-72.37388,0.09063512,-0.011217453,-0.04807478,545673.06,119984.89,0.014343685,0.024108618,7682.1147,7498.041,7618.3516,7361.581,0.31790924,0.0,0.0,0.0
103.830215,103.830215,1.266,0.0,0.0,300.04474,10770.0,100.0,0.0,-0.08906117,0.0,8.0,1.0,0.0,4000000.0,110.0,1.0,0.0,0.0,10.0,0.0,0.0,-325.68982,27.04952,312.8997,-0.047255002,0.2725671,0.685219,304.62003,304.62024,299.9041,299.88193,278.0,277.0,308.0,305.0,97.0,97.0,97.0,97.0,0.0,0.0,0.0,0.0,0.049789764,0.04941113,0.054935664,0.05476676,176.44576,196.55585,9.890868,12.583136,-2310.8037,-2736.9927,-1292.2748,-1387.6405,0.0,0.0,0.0,2.0,1.0,-2.626355,0.013184054,0.0029628277,97.0,97.0,97.0,97.0,21.302864,21.302864,24.666473,24.666473,0.015352219,0.015412538,-4.3232206E-4,-4.577226E-4,1106.7576,0.0,0.0,0.0,0.0,0.0,0.0,0.0,0.0,0.0,0.0,0.0,0.0,0.0,-41.09727,-0.37421715,-72.507866,0.11054506,-0.0044600014,-0.06843741,545649.56,119984.9,0.0043093096,0.0076908767,9073.908,8987.3,7819.742,7752.7227,0.30206776,0.0,0.0,0.0
107.99997,107.99997,1.316,0.0,0.0,300.5357,10789.0,100.0,0.0,0.09511991,0.0,8.0,1.0,0.0,4000000.0,110.0,1.0,0.0,0.0,10.0,0.0,0.0,-327.74612,27.041414,309.27078,-0.0355246,0.25834802,0.641781,305.16788,305.1778,300.4041,300.4163,277.0,276.0,307.0,304.0,97.0,97.0,97.0,97.0,0.0,0.0,0.0,0.0,0.049318925,0.049247902,0.054285247,0.054306734,-87.13737,-98.78374,-8.093118,-11.516957,-5033.6206,-4677.839,459.04663,-127.32445,0.0,0.0,0.0,2.0,1.0,-2.6262255,0.01332969,0.001432538,97.0,97.0,97.0,97.0,21.302864,21.302864,24.666473,24.666473,0.015247133,0.015244002,-4.4394305E-4,-4.262391E-4,1109.3989,0.0,0.0,0.0,0.0,0.0,0.0,0.0,0.0,0.0,0.0,0.0,0.0,0.0,-41.148464,0.007234458,-72.63657,-0.040078856,0.0020882227,0.034245078,545988.56,119984.89,0.0029304193,0.003822503,9051.15,9081.767,7174.728,7167.5674,0.2975645,0.0,0.0,0.0
112.17604,112.17604,1.366,0.0,0.0,300.97583,10824.0,100.0,0.0,0.12364774,0.0,8.0,1.0,0.0,4000000.0,110.0,1.0,0.0,0.0,10.0,0.0,0.0,-329.8047,27.044828,305.63593,-0.03233429,0.24585062,-0.04729977,306.1922,306.1742,300.862,300.83038,275.0,275.0,306.0,303.0,97.0,97.0,97.0,97.0,0.0,0.0,0.0,0.0,0.045439627,0.04516768,0.053779114,0.05358602,-75.12733,-72.21154,-42.633934,-37.814674,-2388.6677,-1519.4174,-4101.888,-3058.6836,0.0,0.0,0.0,2.0,1.0,-2.6263688,0.013347854,0.0026946068,97.0,97.0,97.0,97.0,21.302864,21.302864,24.666473,24.666473,0.017220026,0.017265348,-4.2207632E-4,-4.1385565E-4,1114.2509,0.0,0.0,0.0,0.0,0.0,0.0,0.0,0.0,0.0,0.0,0.0,0.0,0.0,-41.19306,0.08779275,-72.75176,-0.0074047353,-0.005717904,-0.0076754014,546603.25,119984.89,0.009075849,0.01352864,7407.7495,7398.2305,6459.156,6397.738,0.30554104,0.0,0.0,0.0
116.35828,116.35828,1.416,0.0,0.0,301.42715,10853.0,100.0,0.0,0.22536632,0.0,8.0,1.0,0.0,4000000.0,110.0,1.0,0.0,0.0,10.0,0.0,0.0,-331.86542,27.044025,301.99518,-0.065167785,0.26573727,-0.4585455,307.00702,306.99597,301.34186,301.2654,274.0,274.0,305.0,302.0,97.0,97.0,97.0,97.0,0.0,0.0,0.0,0.0,0.039881084,0.039659236,0.05192585,0.051890347,-91.31379,-100.3877,-11.760368,-8.72299,2988.9324,2325.8372,1564.747,2071.3489,0.0,0.0,0.0,2.0,1.0,-2.6268709,0.013404886,0.004260659,97.0,97.0,97.0,97.0,21.302864,21.302864,24.666473,24.666473,0.018442739,0.018638795,-4.2364004E-4,-4.1716176E-4,1118.2594,0.0,0.0,0.0,0.0,0.0,0.0,0.0,0.0,0.0,0.0,0.0,0.0,0.0,-41.232403,-0.12499302,-72.8735,-0.033946253,-0.012711573,0.02848736,547103.8,119984.89,0.013961993,0.020030662,6678.2554,6577.5527,5609.5625,5615.449,0.31224823,0.0,0.0,0.0
120.54688,120.54688,1.466,0.0,0.0,301.88968,10861.0,100.0,0.0,0.22942789,0.0,8.0,1.0,0.0,4000000.0,110.0,1.0,0.0,0.0,10.0,0.0,0.0,-333.9278,27.03413,298.34808,-0.094318435,0.261284,-0.15929973,307.21396,307.20654,301.80667,301.7143,273.0,272.0,304.0,301.0,97.0,97.0,97.0,97.0,0.0,0.0,0.0,0.0,0.039244525,0.038558703,0.05266258,0.05238522,20.099133,13.950839,12.6960125,2.7711687,1868.6143,2155.3157,-525.6324,-637.266,0.0,0.0,0.0,2.0,1.0,-2.627598,0.012671898,0.0054210424,97.0,97.0,97.0,97.0,21.302864,21.302864,24.666473,24.666473,0.017592598,0.017869547,-4.2540408E-4,-4.2449814E-4,1119.3538,0.0,0.0,0.0,0.0,0.0,0.0,0.0,0.0,0.0,0.0,0.0,0.0,0.0,-41.26007,-0.2426723,-73.00516,-0.0011398164,-0.015573867,0.015891038,547235.9,119984.89,0.01387748,0.02055447,7239.954,7085.8057,6309.238,6162.549,0.31105804,0.0,0.0,0.0
124.742,124.742,1.516,0.0,0.0,302.32867,10882.0,100.0,0.0,0.06617924,0.0,8.0,1.0,0.0,4000000.0,110.0,1.0,0.0,0.0,10.0,0.0,0.0,-335.99136,27.020151,294.69443,-0.080202326,0.23932445,-0.37755194,307.82324,307.81592,302.23654,302.17563,272.0,271.0,302.0,300.0,97.0,97.0,97.0,97.0,0.0,0.0,0.0,0.0,0.039676975,0.039143067,0.052161794,0.052021164,-47.627537,-35.476906,-36.8949,-21.433977,-5020.183,-3875.2283,-2411.0776,-1322.7982,0.0,0.0,0.0,2.0,1.0,-2.6282492,0.0121993525,0.0065333843,97.0,97.0,97.0,97.0,21.302864,21.302864,24.666473,24.666473,0.018085241,0.018200215,-4.040813E-4,-4.2199958E-4,1122.283,0.0,0.0,0.0,0.0,0.0,0.0,0.0,0.0,0.0,0.0,0.0,0.0,0.0,-41.282314,-0.3394792,-73.132256,-0.029810285,-0.008882795,0.034544155,547609.1,119984.89,0.01576979,0.021640236,6739.6016,6693.6865,5486.925,5486.9585,0.3121977,0.0,0.0,0.0
128.94434,128.94434,1.566,0.0,0.0,302.77298,10891.0,100.0,0.0,0.037528735,0.0,8.0,1.0,0.0,4000000.0,110.0,1.0,0.0,0.0,10.0,0.0,0.0,-338.05624,27.000235,291.03455,-0.060395904,0.25121823,-0.050621286,308.05557,308.0715,302.64597,302.63412,271.0,270.0,301.0,299.0,97.0,97.0,97.0,97.0,0.0,0.0,0.0,0.0,0.039432153,0.038886383,0.05316716,0.052749854,22.38035,27.833952,25.78385,20.211338,1601.7479,2241.656,19.808119,169.73018,0.0,0.0,0.0,2.0,1.0,-2.628507,0.011743063,0.0076560974,97.0,97.0,97.0,97.0,21.302864,21.302864,24.666473,24.666473,0.017537775,0.017640678,-4.3330807E-4,-4.2728908E-4,1123.5259,0.0,0.0,0.0,0.0,0.0,0.0,0.0,0.0,0.0,0.0,0.0,0.0,0.0,-41.313194,-0.42308855,-73.25611,0.0047175423,-0.0024418046,-0.0095638,547762.56,119984.89,0.013746641,0.021714695,7270.8457,7190.6494,6786.3945,6579.241,0.31298828,0.0,0.0,0.0
133.15277,133.15277,1.616,0.0,0.0,303.20322,10896.0,100.0,0.0,0.06944397,0.0,8.0,1.0,0.0,4000000.0,110.0,1.0,0.0,0.0,10.0,0.0,0.0,-340.12292,26.98083,287.36865,-0.039937638,0.2417077,0.14336573,308.21353,308.22647,303.06543,303.06766,269.0,269.0,300.0,298.0,97.0,97.0,97.0,97.0,0.0,0.0,0.0,0.0,0.04268256,0.04301353,0.053625796,0.05348567,56.2448,55.81386,-2.2695956,6.3825393,-196.06955,-1964.5703,-255.76198,-415.4607,0.0,0.0,0.0,2.0,1.0,-2.6285665,0.01259281,0.0060077906,97.0,97.0,97.0,97.0,21.302864,21.302864,24.666473,24.666473,0.016600532,0.016638326,-4.3791358E-4,-4.228041E-4,1124.2466,0.0,0.0,0.0,0.0,0.0,0.0,0.0,0.0,0.0,0.0,0.0,0.0,0.0,-41.351665,-0.35523358,-73.37198,0.029411081,-8.827045E-4,-0.029468331,547862.4,119984.89,0.012364384,0.01835345,7852.5645,7833.6445,6848.9404,6800.712,0.31128216,0.0,0.0,0.0
137.36716,137.36716,1.666,0.0,0.0,303.62994,10907.0,100.0,0.0,0.09846239,0.0,8.0,1.0,0.0,4000000.0,110.0,1.0,0.0,0.0,10.0,0.0,0.0,-342.19165,26.96563,283.69708,-0.032301888,0.24340332,0.2227572,308.53006,308.49557,303.4992,303.48593,268.0,268.0,299.0,297.0,97.0,97.0,97.0,97.0,0.0,0.0,0.0,0.0,0.044967275,0.045526996,0.05392905,0.053527456,42.03692,56.30247,-0.60684973,-2.5109944,168.71085,404.7187,-730.32513,-145.04044,0.0,0.0,0.0,2.0,1.0,-2.628685,0.013455564,0.0038226843,97.0,97.0,97.0,97.0,21.302864,21.302864,24.666473,24.666473,0.016175505,0.016121147,-4.425671E-4,-4.236103E-4,1125.7565,0.0,0.0,0.0,0.0,0.0,0.0,0.0,0.0,0.0,0.0,0.0,0.0,0.0,-41.394596,-0.2540464,-73.48426,0.023797214,-0.0037997868,-0.039679788,548044.94,119984.89,0.010258794,0.014071159,8161.465,8251.95,6995.713,6820.1895,0.3078251,0.0,0.0,0.0
141.58745,141.58745,1.716,0.0,0.0,304.04132,10935.0,100.0,0.0,0.14410229,0.0,8.0,1.0,0.0,4000000.0,110.0,1.0,0.0,0.0,10.0,0.0,0.0,-344.26257,26.955395,280.02002,-0.018355578,0.23720749,0.16143435,309.54398,309.06985,303.94302,303.87668,267.0,266.0,298.0,295.0,97.0,97.0,97.0,97.0,0.0,0.0,0.0,0.0,0.045977425,0.046353288,0.053511877,0.05353075,-5.345642,-7.102042,-2.7834623,5.540773,-1613.5631,-996.9904,403.8333,357.9139,0.0,0.0,0.0,2.0,1.0,-2.6290658,0.014382007,0.003156662,97.0,97.0,97.0,97.0,21.302864,21.302864,24.666473,24.666473,0.017976807,0.016637595,-4.4313574E-4,-4.15232E-4,1129.6472,0.0,0.0,0.0,0.0,0.0,0.0,0.0,0.0,0.0,0.0,0.0,0.0,0.0,-41.440746,-0.16558072,-73.589676,-0.0067233276,-0.012660317,-0.010279995,548530.9,119984.9,0.0101367375,0.012802266,7988.0537,8051.254,6782.801,6815.4346,0.3076496,0.0,0.0,0.0
145.81345,145.81345,1.766,0.0,0.0,304.46906,10956.0,100.0,0.0,0.12300731,0.0,8.0,1.0,0.0,4000000.0,110.0,1.0,0.0,0.0,10.0,0.0,0.0,-346.3356,26.947292,276.33755,-0.06528618,0.25565436,-0.033052918,310.13177,309.6663,304.37915,304.2892,266.0,265.0,297.0,294.0,97.0,97.0,97.0,97.0,0.0,0.0,0.0,0.0,0.043996483,0.044266414,0.053430814,0.05316539,-28.346254,-38.238464,15.644208,-1.2183933,2452.1826,1721.2133,2335.5198,1368.8384,0.0,0.0,0.0,2.0,1.0,-2.6298156,0.014156479,0.0030859709,97.0,97.0,97.0,97.0,21.302864,21.302864,24.666473,24.666473,0.018558674,0.017311627,-4.4571E-4,-4.278822E-4,1132.5668,0.0,0.0,0.0,0.0,0.0,0.0,0.0,0.0,0.0,0.0,0.0,0.0,0.0,-41.477905,-0.17484541,-73.70508,0.011896048,-0.016282715,0.0033072107,548894.4,119984.9,0.0073843705,0.012684375,7670.042,7598.5557,6810.962,6624.2983,0.30601883,0.0,0.0,0.0
150.04567,150.04567,1.816,0.0,0.0,304.91953,10964.0,100.0,0.0,0.05949778,0.0,8.0,1.0,0.0,4000000.0,110.0,1.0,0.0,0.0,10.0,0.0,0.0,-348.41025,26.939651,272.6489,-0.084127516,0.25402498,0.061104998,310.34805,309.9108,304.8269,304.7472,265.0,264.0,296.0,293.0,97.0,97.0,97.0,97.0,0.0,0.0,0.0,0.0,0.04556195,0.045409817,0.053395186,0.053035215,41.565742,35.872307,-19.907578,-13.229324,76.268456,173.673,-1107.256,-690.4676,0.0,0.0,0.0,2.0,1.0,-2.6306007,0.014364387,0.0024951696,97.0,97.0,97.0,97.0,21.302864,21.302864,24.666473,24.666473,0.017707508,0.01650378,-4.39216E-4,-4.334722E-4,1133.6921,0.0,0.0,0.0,0.0,0.0,0.0,0.0,0.0,0.0,0.0,0.0,0.0,0.0,-41.504436,-0.13535024,-73.83381,-0.016917286,-0.013604952,-9.1651455E-5,549038.9,119984.89,0.0077228057,0.008876515,8209.637,8113.956,6464.9824,6327.21,0.30174446,0.0,0.0,0.0
154.28394,154.28394,1.866,0.0,0.0,305.33685,10997.0,100.0,0.0,0.022222131,0.0,8.0,1.0,0.0,4000000.0,110.0,1.0,0.0,0.0,10.0,0.0,0.0,-350.486,26.931929,268.95395,-0.08643454,0.22886558,-0.3170769,311.28647,310.8613,305.24033,305.1923,264.0,263.0,295.0,292.0,97.0,97.0,97.0,97.0,0.0,0.0,0.0,0.0,0.043496285,0.043235622,0.052468907,0.052417018,-82.69406,-84.370445,-27.216373,-16.838236,-2185.2622,-2253.0151,-1037.9478,-523.45984,0.0,0.0,0.0,2.0,1.0,-2.6311061,0.0143708885,0.005129814,97.0,97.0,97.0,97.0,21.302864,21.302864,24.666473,24.666473,0.019314112,0.018054461,-4.1717853E-4,-4.116466E-4,1138.297,0.0,0.0,0.0,0.0,0.0,0.0,0.0,0.0,0.0,0.0,0.0,0.0,0.0,-41.524902,-0.20710327,-73.95511,-0.057103463,-0.0072134095,0.04671594,549614.75,119984.9,0.012229031,0.015563175,7108.79,6991.003,5805.4883,5831.2007,0.30109215,0.0,0.0,0.0
158.52786,158.52786,1.916,0.0,0.0,305.74393,11019.0,100.0,0.0,-0.09146885,0.0,8.0,1.0,0.0,4000000.0,110.0,1.0,0.0,0.0,10.0,0.0,0.0,-352.56287,26.916437,265.25314,-0.06376095,0.231406,-0.36276323,311.89038,311.49045,305.624,305.6112,262.0,262.0,294.0,291.0,97.0,97.0,97.0,97.0,0.0,0.0,0.0,0.0,0.039603062,0.03855305,0.05239858,0.05247745,-62.463726,-68.954,10.23285,9.423941,986.04694,1959.4604,619.9791,485.7882,0.0,0.0,0.0,2.0,1.0,-2.631334,0.013119818,0.008198857,97.0,97.0,97.0,97.0,21.302864,21.302864,24.666473,24.666473,0.02014788,0.018875806,-4.1506728E-4,-4.1850976E-4,1140.7046,0.0,0.0,0.0,0.0,0.0,0.0,0.0,0.0,0.0,0.0,0.0,0.0,0.0,-41.550106,-0.39814103,-74.06985,-0.017918937,-0.0012750082,0.038876284,549677.56,119984.89,0.014244302,0.022355253,6734.8584,6510.332,6181.435,6213.9487,0.31014252,0.0,0.0,0.0
162.77742,162.77742,1.966,0.0,0.0,306.1459,11023.0,100.0,0.0,-0.015078335,0.0,8.0,1.0,0.0,4000000.0,110.0,1.0,0.0,0.0,10.0,0.0,0.0,-354.6412,26.894444,261.5467,-0.048366286,0.22317752,-0.1660197,311.9958,311.6175,306.0159,306.01596,261.0,261.0,293.0,290.0,97.0,97.0,97.0,97.0,0.0,0.0,0.0,0.0,0.040181763,0.039191145,0.05275146,0.052934397,11.936947,17.388313,3.0717998,6.3427534,162.39435,46.76433,673.0198,284.46164,0.0,0.0,0.0,2.0,1.0,-2.6313548,0.012231482,0.008771777,97.0,97.0,97.0,97.0,21.302864,21.302864,24.666473,24.666473,0.01916972,0.017937122,-4.2558767E-4,-4.11736E-4,1141.1282,0.0,0.0,0.0,0.0,0.0,0.0,0.0,0.0,0.0,0.0,0.0,0.0,0.0,-41.581978,-0.47969097,-74.17952,0.007136358,-3.0735193E-4,0.02143742,549682.1,119984.89,0.014501373,0.023124129,7291.8926,7103.2373,6348.273,6425.3,0.31476688,0.0,0.0,0.0
167.03252,167.03252,2.016,0.0,0.0,306.54776,11023.0,100.0,0.0,0.05592421,0.0,8.0,1.0,0.0,4000000.0,110.0,1.0,0.0,0.0,10.0,0.0,0.0,-356.72128,26.870373,257.8349,-0.036999896,0.23695701,0.16040222,312.01392,311.60666,306.40952,306.39206,260.0,260.0,292.0,289.0,97.0,97.0,97.0,97.0,0.0,0.0,0.0,0.0,0.042368516,0.042074516,0.054218337,0.054071404,97.63486,113.48247,22.754965,20.299404,4409.94,4060.0195,-688.3084,-310.29132,0.0,0.0,0.0,2.0,1.0,-2.6314793,0.011551339,0.006352186,97.0,97.0,97.0,97.0,21.302864,21.302864,24.666473,24.666473,0.017998517,0.016713165,-4.4984813E-4,-4.259519E-4,1141.129,0.0,0.0,0.0,0.0,0.0,0.0,0.0,0.0,0.0,0.0,0.0,0.0,0.0,-41.620426,-0.45757875,-74.28607,0.087137096,-0.005084748,-0.0426268,549682.56,119984.89,0.0052130264,0.015420044,8069.601,7966.8667,7472.4624,7403.8535,0.3074093,0.0,0.0,0.0
171.29349,171.29349,2.066,0.0,0.0,306.9843,11016.0,100.0,0.0,-0.040229652,0.0,8.0,1.0,0.0,4000000.0,110.0,1.0,0.0,0.0,10.0,0.0,0.0,-358.8034,26.854979,254.11752,-0.018877089,0.25775963,0.98831075,311.77545,311.40045,306.85397,306.8191,259.0,258.0,290.0,288.0,97.0,97.0,97.0,97.0,0.0,0.0,0.0,0.0,0.051796183,0.052354824,0.05541882,0.054853376,57.088356,138.62057,-31.413134,-7.417872,-16530.547,-9809.252,-7488.083,-3001.016,0.0,0.0,0.0,2.0,1.0,-2.631866,0.012835405,8.2957745E-4,97.0,97.0,97.0,97.0,21.302864,21.302864,24.666473,24.666473,0.015663756,0.01451433,-4.6242098E-4,-4.5180554E-4,1140.3883,0.0,0.0,0.0,0.0,0.0,0.0,0.0,0.0,0.0,0.0,0.0,0.0,0.0,-41.663624,-0.10126238,-74.40221,0.016888127,-0.0071450337,-0.094829425,549674.8,119984.89,0.0017108232,6.2748295E-4,9968.499,9906.738,7671.1304,7558.3237,0.29723644,0.0,0.0,0.0
175.56021,175.56021,2.116,0.0,0.0,307.35715,11063.0,100.0,0.0,-0.023141144,0.0,8.0,1.0,0.0,4000000.0,110.0,1.0,0.0,0.0,10.0,0.0,0.0,-360.88754,26.856064,250.39467,-0.045518816,0.19424497,-0.23077679,313.17874,312.70218,307.25876,307.21768,258.0,257.0,289.0,287.0,97.0,97.0,97.0,97.0,0.0,0.0,0.0,0.0,0.04528427,0.04599637,0.053589575,0.053105347,-127.276855,-132.23178,-33.893955,-44.47907,2538.093,2124.4033,-311.55188,-573.5634,0.0,0.0,0.0,2.0,1.0,-2.6321635,0.014055237,0.002982974,97.0,97.0,97.0,97.0,21.302864,21.302864,24.666473,24.666473,0.018655518,0.017250665,-4.0616764E-4,-3.9454811E-4,1145.358,0.0,0.0,0.0,0.0,0.0,0.0,0.0,0.0,0.0,0.0,0.0,0.0,0.0,-41.696743,0.020428995,-74.50242,-0.06700249,-0.006530301,0.026430294,549724.8,119984.89,0.009487176,0.011118065,7319.4053,7436.1494,6350.7456,6099.101,0.30521965,0.0,0.0,0.0
179.83199,179.83199,2.166,0.0,0.0,307.72552,11096.0,100.0,0.0,0.15014891,0.0,8.0,1.0,0.0,4000000.0,110.0,1.0,0.0,0.0,10.0,0.0,0.0,-362.97314,26.850744,246.66687,-0.07193084,0.20564675,-0.55047464,314.1097,313.63962,307.6304,307.57986,257.0,256.0,288.0,286.0,97.0,97.0,97.0,97.0,0.0,0.0,0.0,0.0,0.038964503,0.038964894,0.052093923,0.05216139,-127.615036,-134.71439,-10.862275,2.2045522,-362.9434,486.95523,1292.3821,1314.0676,0.0,0.0,0.0,2.0,1.0,-2.632477,0.0145460805,0.006848812,97.0,97.0,97.0,97.0,21.302864,21.302864,24.666473,24.666473,0.020665063,0.01928633,-4.1173588E-4,-3.8914534E-4,1148.8474,0.0,0.0,0.0,0.0,0.0,0.0,0.0,0.0,0.0,0.0,0.0,0.0,0.0,-41.723904,-0.2315957,-74.604126,-0.05188777,-0.008609443,0.034023114,549759.7,119984.91,0.016607817,0.023763848,6253.4697,6202.4023,5789.3994,5866.906,0.31631374,0.0,0.0,0.0
184.10884,184.10884,2.216,0.0,0.0,308.10144,11102.0,100.0,0.0,-0.051094428,0.0,8.0,1.0,0.0,4000000.0,110.0,1.0,0.0,0.0,10.0,0.0,0.0,-365.06003,26.833206,242.93394,-0.052766092,0.21271282,-0.5001648,314.2424,313.82925,307.98172,307.96005,256.0,255.0,287.0,285.0,97.0,97.0,97.0,97.0,0.0,0.0,0.0,0.0,0.036993716,0.036498528,0.052103214,0.052373298,-16.28816,-23.37031,-22.087543,-13.491287,79.876205,491.6891,-2403.2856,-1737.6287,0.0,0.0,0.0,2.0,1.0,-2.632801,0.013535045,0.0076904297,97.0,97.0,97.0,97.0,21.302864,21.302864,24.666473,24.666473,0.020057887,0.01876089,-4.1266318E-4,-4.1507918E-4,1149.4817,0.0,0.0,0.0,0.0,0.0,0.0,0.0,0.0,0.0,0.0,0.0,0.0,0.0,-41.752464,-0.45419705,-74.706764,0.01742646,-0.0033608838,0.026486278,549765.94,119984.91,0.015913712,0.025111398,6646.6494,6476.0586,5622.6816,5795.747,0.31575108,0.0,0.0,0.0
188.39122,188.39122,2.266,0.0,0.0,308.4964,11094.0,100.0,0.0,-0.12577474,0.0,8.0,1.0,0.0,4000000.0,110.0,1.0,0.0,0.0,10.0,0.0,0.0,-367.14862,26.808561,239.19579,-0.025828071,0.21927913,0.11574029,314.00623,313.64032,308.35324,308.36438,254.0,254.0,286.0,284.0,97.0,97.0,97.0,97.0,0.0,0.0,0.0,0.0,0.042665422,0.04146442,0.053412598,0.053573947,148.08252,142.82271,26.846228,25.578661,822.875,1986.3097,-338.24008,-88.32515,0.0,0.0,0.0,2.0,1.0,-2.6328459,0.011738789,0.006591916,97.0,97.0,97.0,97.0,21.302864,21.302864,24.666473,24.666473,0.018007012,0.01678854,-4.2713853E-4,-4.2605077E-4,1148.6376,0.0,0.0,0.0,0.0,0.0,0.0,0.0,0.0,0.0,0.0,0.0,0.0,0.0,-41.790348,-0.4841346,-74.81109,0.05051472,0.0015526022,0.0056102425,549758.4,119984.9,0.011152992,0.016816447,7970.331,7776.966,7030.168,7103.984,0.3090639,0.0,0.0,0.0
192.68002,192.68002,2.316,0.0,0.0,308.86307,11102.0,100.0,0.0,-0.044390626,0.0,8.0,1.0,0.0,4000000.0,110.0,1.0,0.0,0.0,10.0,0.0,0.0,-369.23917,26.789156,235.45267,-0.01618246,0.20347935,0.22226505,314.2191,313.86243,308.73022,308.7339,253.0,253.0,285.0,283.0,97.0,97.0,97.0,97.0,0.0,0.0,0.0,0.0,0.04821334,0.04742142,0.05365746,0.05414035,-17.741247,14.602168,-9.684562,1.3015418,-6940.094,-6017.9375,507.92993,-121.66499,0.0,0.0,0.0,2.0,1.0,-2.6327913,0.010993918,0.005139947,97.0,97.0,97.0,97.0,21.302864,21.302864,24.666473,24.666473,0.017341945,0.016189143,-4.2576724E-4,-4.151908E-4,1149.483,0.0,0.0,0.0,0.0,0.0,0.0,0.0,0.0,0.0,0.0,0.0,0.0,0.0,-41.830788,-0.32533327,-74.90602,0.0124609275,2.531546E-4,0.014209386,549766.6,119984.91,0.010174162,0.0137218805,8398.098,8175.9814,6843.2554,7085.0273,0.30882454,0.0,0.0,0.0
196.97382,196.97382,2.366,0.0,0.0,309.22824,11112.0,100.0,0.0,-0.069413096,0.0,8.0,1.0,0.0,4000000.0,110.0,1.0,0.0,0.0,10.0,0.0,0.0,-371.33185,26.775734,231.70502,-0.007009566,0.22233069,0.3003041,314.51187,314.1014,309.0815,309.07733,252.0,252.0,284.0,282.0,97.0,97.0,97.0,97.0,0.0,0.0,0.0,0.0,0.047367737,0.04704326,0.054845024,0.05466815,25.184824,30.554829,19.669308,0.5149841,3533.4612,3430.545,-596.37573,-789.30695,0.0,0.0,0.0,2.0,1.0,-2.632845,0.009911083,0.00259614,97.0,97.0,97.0,97.0,21.302864,21.302864,24.666473,24.666473,0.017255379,0.015944416,-4.4535697E-4,-4.296424E-4,1150.5398,0.0,0.0,0.0,0.0,0.0,0.0,0.0,0.0,0.0,0.0,0.0,0.0,0.0,-41.875473,-0.2066103,-74.99767,0.09011509,-0.0025258404,-0.041640762,549776.8,119984.91,0.0,0.008121567,8519.999,8480.502,7777.5664,7635.1533,0.30916595,0.0,0.0,0.0
201.27313,201.27313,2.416,0.0,0.0,309.6409,11102.0,100.0,0.0,0.08777742,0.0,8.0,1.0,0.0,4000000.0,110.0,1.0,0.0,0.0,10.0,0.0,0.0,-373.4269,26.777304,227.95235,-0.014029287,0.24242954,1.4728373,314.2212,313.78235,309.51532,309.4794,251.0,251.0,283.0,281.0,97.0,97.0,97.0,97.0,0.0,0.0,0.0,0.0,0.05244551,0.05312994,0.056826428,0.055667587,-95.557045,-45.275013,-49.61483,-11.530146,-24655.01,-20725.092,-12494.746,-5517.115,0.0,0.0,0.0,2.0,1.0,-2.6330838,0.012883739,-0.0025508404,97.0,97.0,97.0,97.0,21.302864,21.302864,24.666473,24.666473,0.014765978,0.013453548,-4.7157847E-4,-4.376169E-4,1149.4819,0.0,0.0,0.0,0.0,0.0,0.0,0.0,0.0,0.0,0.0,0.0,0.0,0.0,-41.921318,0.34731698,-75.102844,-0.022721287,-0.007847993,-0.11620803,549766.06,119984.91,0.0,0.0,10741.613,11039.326,8391.224,8068.369,0.30086803,0.0,0.0,0.0
205.57733,205.57733,2.466,0.0,0.0,309.93256,11176.0,100.0,0.0,-0.05730791,0.0,8.0,1.0,0.0,4000000.0,110.0,1.0,0.0,0.0,10.0,0.0,0.0,-375.52365,26.798294,224.19507,-0.04055042,0.15032595,-0.768274,316.41217,315.87466,309.84198,309.79364,250.0,250.0,282.0,280.0,97.0,97.0,97.0,97.0,0.0,0.0,0.0,0.0,0.041900992,0.043094285,0.052930694,0.05273249,-276.13095,-260.2078,-49.821358,-56.417133,-5088.9146,-3613.0964,2271.7505,841.0333,0.0,0.0,0.0,2.0,1.0,-2.6334958,0.015615642,8.4865093E-4,97.0,97.0,97.0,97.0,21.302864,21.302864,24.666473,24.666473,0.02064303,0.019019106,-3.7749697E-4,-3.722747E-4,1157.31,0.0,0.0,0.0,0.0,0.0,0.0,0.0,0.0,0.0,0.0,0.0,0.0,0.0,-41.946545,0.31982064,-75.18166,-0.07976485,-0.007191097,0.024719307,549845.06,119984.914,0.0084554115,0.014079273,5754.1187,6023.6465,5840.003,5649.6714,0.30735683,0.0,0.0,0.0
209.8861,209.8861,2.516,0.0,0.0,310.3038,11187.0,100.0,0.0,-0.06914414,0.0,8.0,1.0,0.0,4000000.0,110.0,1.0,0.0,0.0,10.0,0.0,0.0,-377.62167,26.803349,220.43329,-0.06331901,0.21390614,-0.7649433,316.66312,316.22504,310.2114,310.16476,249.0,248.0,281.0,279.0,97.0,97.0,97.0,97.0,0.0,0.0,0.0,0.0,0.036205962,0.036605682,0.051240753,0.05100649,-48.511547,-77.31579,-12.424886,-12.352913,3528.016,2227.6545,2631.8367,1878.3507,0.0,0.0,0.0,2.0,1.0,-2.6338835,0.01645394,0.0050395727,97.0,97.0,97.0,97.0,21.302864,21.302864,24.666473,24.666473,0.020511532,0.019244002,-3.976879E-4,-4.0542122E-4,1158.4731,0.0,0.0,0.0,0.0,0.0,0.0,0.0,0.0,0.0,0.0,0.0,0.0,0.0,-41.97408,-0.08657395,-75.28501,-0.10349828,-0.0058229906,0.03678926,549856.5,119984.9,0.017856903,0.022896305,6363.211,6179.201,5128.842,5022.0225,0.31706905,0.0,0.0,0.0
214.19968,214.19968,2.566,0.0,0.0,310.62863,11210.0,100.0,0.0,-0.15929498,0.0,8.0,1.0,0.0,4000000.0,110.0,1.0,0.0,0.0,10.0,0.0,0.0,-379.72116,26.789948,216.66678,-0.033397064,0.18318968,-0.9413783,317.34482,316.90472,310.49927,310.51926,248.0,247.0,280.0,278.0,97.0,97.0,97.0,97.0,0.0,0.0,0.0,0.0,0.03306669,0.03321283,0.05085096,0.051455565,-68.6147,-72.28173,-46.8754,-22.73619,-1032.4358,-814.882,-3810.9626,-3014.856,0.0,0.0,0.0,2.0,1.0,-2.6338685,0.016298223,0.008874416,97.0,97.0,97.0,97.0,21.302864,21.302864,24.666473,24.666473,0.021803277,0.020261776,-3.866291E-4,-3.9418534E-4,1160.9088,0.0,0.0,0.0,0.0,0.0,0.0,0.0,0.0,0.0,0.0,0.0,0.0,0.0,-42.00565,-0.45497456,-75.3694,-0.034095585,0.005087999,0.06162037,549882.0,119984.9,0.019836022,0.030251848,5637.84,5611.6895,4625.477,4983.1113,0.3239603,0.0,0.0,0.0
218.51808,218.51808,2.616,0.0,0.0,310.9956,11193.0,100.0,0.0,-0.22085989,0.0,8.0,1.0,0.0,4000000.0,110.0,1.0,0.0,0.0,10.0,0.0,0.0,-381.82272,26.760979,212.89592,0.011468954,0.20034236,-0.05708384,316.78696,316.42612,310.82593,310.88736,247.0,246.0,279.0,277.0,97.0,97.0,97.0,97.0,0.0,0.0,0.0,0.0,0.0376435,0.036465067,0.053665105,0.05334147,175.20479,148.31252,79.95888,42.851864,4947.4277,5163.2383,1214.1686,-201.48741,0.0,0.0,0.0,2.0,1.0,-2.6334794,0.014055901,0.009276986,97.0,97.0,97.0,97.0,21.302864,21.302864,24.666473,24.666473,0.018948207,0.017579023,-4.2026205E-4,-4.195425E-4,1159.1084,0.0,0.0,0.0,0.0,0.0,0.0,0.0,0.0,0.0,0.0,0.0,0.0,0.0,-42.05441,-0.62307006,-75.45772,0.06801666,0.009937703,0.00434009,549863.06,119984.91,0.012559656,0.023336126,7370.5645,7236.0244,7189.702,7341.7725,0.31393814,0.0,0.0,0.0
222.8414,222.8414,2.666,0.0,0.0,311.33978,11184.0,100.0,0.0,-0.15542744,0.0,8.0,1.0,0.0,4000000.0,110.0,1.0,0.0,0.0,10.0,0.0,0.0,-383.92688,26.734251,209.12088,0.036979027,0.19311813,0.34150997,316.53726,316.16083,311.17975,311.2207,246.0,245.0,278.0,276.0,97.0,97.0,97.0,97.0,0.0,0.0,0.0,0.0,0.048792314,0.048251815,0.05394917,0.054493245,154.96686,175.66747,-17.727165,-7.590204,-3877.1719,-4349.1206,-585.72736,-1018.7833,0.0,0.0,0.0,2.0,1.0,-2.6331213,0.013547191,0.0050848722,97.0,97.0,97.0,97.0,21.302864,21.302864,24.666473,24.666473,0.016822523,0.01550986,-4.262779E-4,-4.1556885E-4,1158.1569,0.0,0.0,0.0,0.0,0.0,0.0,0.0,0.0,0.0,0.0,0.0,0.0,0.0,-42.1109,-0.45350778,-75.536896,0.058049414,0.0056650466,-0.019033108,549853.8,119984.91,0.0111737605,0.011962381,8788.379,8718.598,6945.9756,7219.4214,0.3078165,0.0,0.0,0.0
227.16946,227.16946,2.716,0.0,0.0,311.66837,11197.0,100.0,0.0,-0.046359673,0.0,8.0,1.0,0.0,4000000.0,110.0,1.0,0.0,0.0,10.0,0.0,0.0,-386.03403,26.716875,205.34209,0.02902256,0.17579363,0.37442133,316.91104,316.50137,311.52835,311.5386,245.0,244.0,277.0,275.0,97.0,97.0,97.0,97.0,0.0,0.0,0.0,0.0,0.048505217,0.048562307,0.054496266,0.054704715,-25.11218,-33.74666,18.49316,3.0760465,66.69307,-363.7344,152.05443,-351.38278,0.0,0.0,0.0,2.0,1.0,-2.6329284,0.01279107,0.0036449432,97.0,97.0,97.0,97.0,21.302864,21.302864,24.666473,24.666473,0.016846439,0.015513998,-4.306205E-4,-4.0595644E-4,1159.5314,0.0,0.0,0.0,0.0,0.0,0.0,0.0,0.0,0.0,0.0,0.0,0.0,0.0,-42.169098,-0.25565514,-75.60988,0.032704435,2.1649693E-4,0.003013556,549867.25,119984.91,0.008056256,0.011036098,8667.52,8734.62,7582.6797,7628.011,0.3102064,0.0,0.0,0.0
231.50204,231.50204,2.766,0.0,0.0,311.9921,11208.0,100.0,0.0,-0.0617328,0.0,8.0,1.0,0.0,4000000.0,110.0,1.0,0.0,0.0,10.0,0.0,0.0,-388.14383,26.708298,201.55962,0.014646731,0.18672867,0.29786888,317.25327,316.806,311.86508,311.84476,244.0,243.0,276.0,274.0,97.0,97.0,97.0,97.0,0.0,0.0,0.0,0.0,0.048390705,0.048758183,0.054711446,0.054406792,1.213476,25.848,-10.139867,-4.6813483,331.03818,1927.2609,-1394.8826,282.04767,0.0,0.0,0.0,2.0,1.0,-2.6330843,0.013497959,0.0017098188,97.0,97.0,97.0,97.0,21.302864,21.302864,24.666473,24.666473,0.016873924,0.015507124,-4.2611023E-4,-4.1439687E-4,1160.6963,0.0,0.0,0.0,0.0,0.0,0.0,0.0,0.0,0.0,0.0,0.0,0.0,0.0,-42.218994,-0.10057635,-75.68538,0.015458057,-0.0047211223,-0.05461984,549879.44,119984.9,0.0070072156,0.008871677,8628.838,8762.422,7418.683,7320.586,0.3080454,0.0,0.0,0.0
235.83916,235.83916,2.816,0.0,0.0,312.3189,11229.0,100.0,0.0,-0.104279794,0.0,8.0,1.0,0.0,4000000.0,110.0,1.0,0.0,0.0,10.0,0.0,0.0,-390.256,26.706213,197.77325,-0.0022094473,0.180787,-0.109607115,317.8608,317.39224,312.19644,312.1838,243.0,242.0,275.0,273.0,97.0,97.0,97.0,97.0,0.0,0.0,0.0,0.0,0.047097687,0.04742661,0.053731017,0.05361477,-67.19939,-71.310326,-35.262554,-40.464474,-3557.8154,-3341.7373,-1648.5526,-2226.2197,0.0,0.0,0.0,2.0,1.0,-2.633256,0.014476429,9.355545E-4,97.0,97.0,97.0,97.0,21.302864,21.302864,24.666473,24.666473,0.017700776,0.01624193,-4.1592677E-4,-4.0692798E-4,1162.918,0.0,0.0,0.0,0.0,0.0,0.0,0.0,0.0,0.0,0.0,0.0,0.0,0.0,-42.263958,-0.030890368,-75.76431,-0.01345353,-0.0025062147,-7.9587894E-4,549901.6,119984.9,0.0060928687,0.0089176865,7772.515,7963.7925,6447.6025,6362.4277,0.3037634,0.0,0.0,0.0
240.18097,240.18097,2.866,0.0,0.0,312.67255,11240.0,100.0,0.0,-0.1144557,0.0,8.0,1.0,0.0,4000000.0,110.0,1.0,0.0,0.0,10.0,0.0,0.0,-392.37042,26.703802,193.98279,-0.006095618,0.20239995,-0.03489704,318.15347,317.74368,312.54294,312.54535,241.0,241.0,274.0,271.0,97.0,97.0,97.0,97.0,0.0,0.0,0.0,0.0,0.045810997,0.046126094,0.053468525,0.053513292,-6.5419073,-15.850065,-4.4301147,0.016987322,980.5082,247.50084,218.55977,-112.23702,0.0,0.0,0.0,2.0,1.0,-2.6333017,0.015007708,0.0018801689,97.0,97.0,97.0,97.0,21.302864,21.302864,24.666473,24.666473,0.017562697,0.01624351,-4.2341324E-4,-4.165548E-4,1164.083,0.0,0.0,0.0,0.0,0.0,0.0,0.0,0.0,0.0,0.0,0.0,0.0,0.0,-42.309975,-0.058039527,-75.85111,-0.031745423,5.1093753E-4,0.0069607124,549913.8,119984.91,0.0040910505,0.00746682,8040.422,8011.449,6730.3467,6753.7046,0.30134106,0.0,0.0,0.0
244.52771,244.52771,2.916,0.0,0.0,313.02304,11248.0,100.0,0.0,-0.112324335,0.0,8.0,1.0,0.0,4000000.0,110.0,1.0,0.0,0.0,10.0,0.0,0.0,-394.48712,26.700272,190.18794,-0.0019109249,0.20358829,0.30556244,318.37662,317.97638,312.88657,312.8938,240.0,240.0,273.0,270.0,97.0,97.0,97.0,97.0,0.0,0.0,0.0,0.0,0.045929424,0.046091236,0.054444186,0.054267935,75.32358,61.25092,61.10094,46.46681,7084.558,5887.4883,3760.1614,2845.9575,0.0,0.0,0.0,2.0,1.0,-2.6332633,0.015337119,0.0031321049,97.0,97.0,97.0,97.0,21.302864,21.302864,24.666473,24.666473,0.017129622,0.015831606,-4.2154142E-4,-4.1397728E-4,1164.9299,0.0,0.0,0.0,0.0,0.0,0.0,0.0,0.0,0.0,0.0,0.0,0.0,0.0,-42.355553,-0.04351107,-75.93717,-0.0032452524,8.525598E-4,-0.011788906,549922.5,119984.91,0.0036682563,0.008894679,8609.82,8554.592,7904.3354,7846.1924,0.30187988,0.0,0.0,0.0
248.87904,248.87904,2.966,0.0,0.0,313.34143,11273.0,100.0,0.0,-0.09489089,0.0,8.0,1.0,0.0,4000000.0,110.0,1.0,0.0,0.0,10.0,0.0,0.0,-396.60602,26.697176,186.38907,-0.0019704401,0.18262368,-0.3911347,319.10455,318.66776,313.21765,313.22412,239.0,239.0,272.0,270.0,97.0,97.0,97.0,97.0,0.0,0.0,0.0,0.0,0.044361483,0.044796977,0.052691422,0.052866634,-60.132217,-54.61536,-47.58395,-34.756287,-1196.3724,-1544.2012,-145.08063,-6.088714,0.0,0.0,0.0,2.0,1.0,-2.6332119,0.016246026,0.0038206577,97.0,97.0,97.0,97.0,21.302864,21.302864,24.666473,24.666473,0.018326119,0.016922211,-4.043027E-4,-3.9435603E-4,1167.5751,0.0,0.0,0.0,0.0,0.0,0.0,0.0,0.0,0.0,0.0,0.0,0.0,0.0,-42.39975,-0.1314735,-76.01369,-0.050601415,0.001470354,0.021181963,549948.9,119984.91,0.009536689,0.012710522,7409.166,7472.765,5750.3667,5875.0386,0.30510616,0.0,0.0,0.0
253.23378,253.23378,3.016,0.0,0.0,313.65005,11294.0,100.0,0.0,-0.15357488,0.0,8.0,1.0,0.0,4000000.0,110.0,1.0,0.0,0.0,10.0,0.0,0.0,-398.72723,26.686037,182.58644,0.0053168386,0.17126241,-0.4582025,319.69202,319.2765,313.52338,313.544,238.0,238.0,271.0,269.0,97.0,97.0,97.0,97.0,0.0,0.0,0.0,0.0,0.04123229,0.04139296,0.052102607,0.052461665,-68.759315,-77.073944,-8.729249,-6.701499,-335.62476,-732.57837,1174.1906,589.28125,0.0,0.0,0.0,2.0,1.0,-2.6330588,0.016196616,0.007089615,97.0,97.0,97.0,97.0,21.302864,21.302864,24.666473,24.666473,0.019272607,0.017877445,-3.9295878E-4,-3.9031304E-4,1169.7977,0.0,0.0,0.0,0.0,0.0,0.0,0.0,0.0,0.0,0.0,0.0,0.0,0.0,-42.445892,-0.3226459,-76.08555,-0.062295113,0.004685166,0.048325345,549971.25,119984.91,0.016127897,0.020546392,6891.198,6844.0693,5799.16,5949.9844,0.31454277,0.0,0.0,0.0
257.58984,257.58984,3.066,0.0,0.0,313.94455,11298.0,100.0,0.0,-0.20340694,0.0,8.0,1.0,0.0,4000000.0,110.0,1.0,0.0,0.0,10.0,0.0,0.0,-400.85083,26.665207,178.78049,0.029059172,0.17955074,-0.199736,319.7995,319.37933,313.7843,313.8358,237.0,237.0,270.0,268.0,97.0,97.0,97.0,97.0,0.0,0.0,0.0,0.0,0.039157074,0.039168444,0.05321832,0.053511128,14.853402,12.338608,20.83562,19.255354,5015.5957,4578.369,-283.6973,-339.3664,0.0,0.0,0.0,2.0,1.0,-2.632724,0.01565186,0.008093715,97.0,97.0,97.0,97.0,21.302864,21.302864,24.666473,24.666473,0.018968292,0.017468024,-4.123312E-4,-4.0725165E-4,1170.221,0.0,0.0,0.0,0.0,0.0,0.0,0.0,0.0,0.0,0.0,0.0,0.0,0.0,-42.49781,-0.47805083,-76.14944,0.036973324,0.007964843,-0.008978834,549975.44,119984.91,0.014168784,0.023588212,7261.6504,7250.0015,6847.9414,6975.958,0.32080078,0.0,0.0,0.0
261.95013,261.95013,3.116,0.0,0.0,314.2545,11293.0,100.0,0.0,-0.109429136,0.0,8.0,1.0,0.0,4000000.0,110.0,1.0,0.0,0.0,10.0,0.0,0.0,-402.97717,26.640936,174.97124,0.033126384,0.17734273,0.112073936,319.6432,319.239,314.1039,314.1298,236.0,236.0,269.0,267.0,97.0,97.0,97.0,97.0,0.0,0.0,0.0,0.0,0.04410537,0.044282828,0.053762693,0.053999305,123.08589,127.343666,19.010155,14.510303,2518.4463,2365.6675,1298.0951,905.91595,0.0,0.0,0.0,2.0,1.0,-2.6324553,0.015171555,0.005607128,97.0,97.0,97.0,97.0,21.302864,21.302864,24.666473,24.666473,0.017280638,0.015931463,-4.2179646E-4,-4.073077E-4,1169.6918,0.0,0.0,0.0,0.0,0.0,0.0,0.0,0.0,0.0,0.0,0.0,0.0,0.0,-42.553185,-0.4732982,-76.217155,0.049836513,0.002872818,-0.018851778,549970.1,119984.9,0.009538666,0.014363567,8265.567,8273.277,7157.251,7245.9644,0.31632137,0.0,0.0,0.0
266.3148,266.3148,3.166,0.0,0.0,314.57465,11300.0,100.0,0.0,0.05171633,0.0,8.0,1.0,0.0,4000000.0,110.0,1.0,0.0,0.0,10.0,0.0,0.0,-405.1063,26.620691,171.15852,0.0092466995,0.18738212,0.18842669,319.84814,319.41776,314.44504,314.43042,235.0,235.0,268.0,266.0,97.0,97.0,97.0,97.0,0.0,0.0,0.0,0.0,0.048524592,0.048677802,0.05406582,0.054206282,0.75101846,-4.6136227,-15.142186,-16.56398,-7439.106,-7963.705,-1693.3722,-1742.2688,0.0,0.0,0.0,2.0,1.0,-2.6324537,0.0150000155,0.0033308268,97.0,97.0,97.0,97.0,21.302864,21.302864,24.666473,24.666473,0.016819358,0.015508712,-4.4228975E-4,-4.1076663E-4,1170.4325,0.0,0.0,0.0,0.0,0.0,0.0,0.0,0.0,0.0,0.0,0.0,0.0,0.0,-42.60577,-0.3481261,-76.29033,0.020033468,-0.004317488,-0.0025679525,549977.5,119984.91,0.004734194,0.006201898,8446.224,8526.895,6923.0957,6979.2695,0.30331802,0.0,0.0,0.0
270.684,270.684,3.216,0.0,0.0,314.90155,11311.0,100.0,0.0,-0.042844087,0.0,8.0,1.0,0.0,4000000.0,110.0,1.0,0.0,0.0,10.0,0.0,0.0,-407.23776,26.607128,167.3419,-0.0072413757,0.18507928,0.22043577,320.13754,319.72116,314.79074,314.75763,234.0,234.0,267.0,265.0,97.0,97.0,97.0,97.0,0.0,0.0,0.0,0.0,0.048653837,0.048676673,0.053996187,0.054019548,2.6216357,-1.297742,-22.55581,-20.376741,59.22317,-318.84753,-1197.7671,-1074.2515,0.0,0.0,0.0,2.0,1.0,-2.6327543,0.014933239,0.0032131672,97.0,97.0,97.0,97.0,21.302864,21.302864,24.666473,24.666473,0.016551867,0.0153280515,-4.218242E-4,-4.1248804E-4,1171.5955,0.0,0.0,0.0,0.0,0.0,0.0,0.0,0.0,0.0,0.0,0.0,0.0,0.0,-42.648876,-0.2131419,-76.37076,-0.033108365,-0.0055893385,0.017903958,549988.6,119984.9,0.005950265,0.0044781887,8756.791,8748.279,6840.7627,6858.3467,0.29896164,0.0,0.0,0.0
275.05746,275.05746,3.266,0.0,0.0,315.1806,11352.0,100.0,0.0,-0.19305293,0.0,8.0,1.0,0.0,4000000.0,110.0,1.0,0.0,0.0,10.0,0.0,0.0,-409.3711,26.59477,163.52144,-0.0077006444,0.15208688,-0.67450833,321.33014,320.9031,315.0758,315.06592,233.0,233.0,266.0,264.0,97.0,97.0,97.0,97.0,0.0,0.0,0.0,0.0,0.043453578,0.043468,0.051928844,0.05254568,-171.23422,-168.11302,-66.27112,-42.06374,-4521.855,-4261.761,-2139.3965,-1144.5387,0.0,0.0,0.0,2.0,1.0,-2.6329203,0.014401881,0.0071698427,97.0,97.0,97.0,97.0,21.302864,21.302864,24.666473,24.666473,0.019386085,0.018022634,-3.6720777E-4,-3.8670283E-4,1175.9364,0.0,0.0,0.0,0.0,0.0,0.0,0.0,0.0,0.0,0.0,0.0,0.0,0.0,-42.682407,-0.35742155,-76.44028,-0.075629786,9.6990843E-4,0.082538165,550032.6,119984.91,0.014547529,0.01717656,6569.6616,6560.8613,5151.714,5475.4604,0.31086254,0.0,0.0,0.0
279.43475,279.43475,3.316,0.0,0.0,315.4677,11361.0,100.0,0.0,-0.22292873,0.0,8.0,1.0,0.0,4000000.0,110.0,1.0,0.0,0.0,10.0,0.0,0.0,-411.50626,26.569262,159.69765,0.0093695745,0.16968459,-0.37989464,321.575,321.147,315.31827,315.3579,232.0,232.0,265.0,263.0,97.0,97.0,97.0,97.0,0.0,0.0,0.0,0.0,0.03832249,0.037974995,0.053063028,0.052977994,-42.32816,-38.763058,34.630894,22.415443,4272.504,4944.893,272.7271,526.9736,0.0,0.0,0.0,2.0,1.0,-2.6327014,0.013044204,0.010254979,97.0,97.0,97.0,97.0,21.302864,21.302864,24.666473,24.666473,0.019617071,0.018137563,-4.0124773E-4,-4.0282833E-4,1176.8887,0.0,0.0,0.0,0.0,0.0,0.0,0.0,0.0,0.0,0.0,0.0,0.0,0.0,-42.723137,-0.61505824,-76.50724,0.004696238,0.006820024,0.00551836,550042.0,119984.91,0.01354765,0.023628386,6782.9077,6747.538,6821.0503,6747.825,0.31378365,0.0,0.0,0.0
283.81598,283.81598,3.366,0.0,0.0,315.75455,11346.0,100.0,0.0,-0.15806547,0.0,8.0,1.0,0.0,4000000.0,110.0,1.0,0.0,0.0,10.0,0.0,0.0,-413.6438,26.539255,155.87059,0.03539531,0.15857367,0.13109934,321.14865,320.73804,315.5895,315.64334,231.0,231.0,264.0,262.0,97.0,97.0,97.0,97.0,0.0,0.0,0.0,0.0,0.044453647,0.045083858,0.054084163,0.054121427,132.91037,150.9869,-3.8677452,-1.7121433,-275.57095,-589.13446,-823.5051,-803.01306,0.0,0.0,0.0,2.0,1.0,-2.6323009,0.013553502,0.0074379444,97.0,97.0,97.0,97.0,21.302864,21.302864,24.666473,24.666473,0.017274186,0.015825195,-4.164365E-4,-3.9834148E-4,1175.3022,0.0,0.0,0.0,0.0,0.0,0.0,0.0,0.0,0.0,0.0,0.0,0.0,0.0,-42.775368,-0.5740269,-76.56965,0.05033087,0.0072306897,-0.04759356,550026.75,119984.89,0.01283323,0.016750015,8196.892,8299.971,7117.62,7134.494,0.31056595,0.0,0.0,0.0
288.20117,288.20117,3.416,0.0,0.0,316.02905,11351.0,100.0,0.0,-0.05077672,0.0,8.0,1.0,0.0,4000000.0,110.0,1.0,0.0,0.0,10.0,0.0,0.0,-415.78394,26.513277,152.0405,0.025873676,0.15151462,0.28601444,321.29578,320.87674,315.89487,315.9005,230.0,230.0,263.0,261.0,97.0,97.0,97.0,97.0,0.0,0.0,0.0,0.0,0.04849515,0.048746947,0.053951565,0.054343943,52.27245,22.6859,3.4224985,11.899619,-1264.6478,-3129.3193,578.539,474.69727,0.0,0.0,0.0,2.0,1.0,-2.6321418,0.013899375,0.005453706,97.0,97.0,97.0,97.0,21.302864,21.302864,24.666473,24.666473,0.016710186,0.015372414,-4.148084E-4,-3.9877737E-4,1175.832,0.0,0.0,0.0,0.0,0.0,0.0,0.0,0.0,0.0,0.0,0.0,0.0,0.0,-42.82421,-0.4592158,-76.630486,0.02196528,-6.696826E-5,0.0019430481,550032.25,119984.91,0.012805683,0.013210577,8617.362,8694.326,7168.7944,7367.4404,0.30998898,0.0,0.0,0.0
292.59,292.59,3.466,0.0,0.0,316.29208,11366.0,100.0,0.0,-0.06697266,0.0,8.0,1.0,0.0,4000000.0,110.0,1.0,0.0,0.0,10.0,0.0,0.0,-417.92624,26.492287,148.20741,0.0077725574,0.16131534,0.08031985,321.70428,321.29077,316.16486,316.15155,229.0,229.0,262.0,260.0,97.0,97.0,97.0,97.0,0.0,0.0,0.0,0.0,0.046763252,0.046711944,0.05397473,0.054223094,-15.725119,-16.637518,18.377153,11.30104,4945.537,4500.29,2964.699,2546.556,0.0,0.0,0.0,2.0,1.0,-2.6322405,0.013017347,0.0047352314,97.0,97.0,97.0,97.0,21.302864,21.302864,24.666473,24.666473,0.017202856,0.015931362,-4.1574464E-4,-4.0778075E-4,1177.4187,0.0,0.0,0.0,0.0,0.0,0.0,0.0,0.0,0.0,0.0,0.0,0.0,0.0,-42.86558,-0.40846148,-76.69135,0.031241618,-0.0029501615,0.0056019006,550047.6,119984.9,0.009791786,0.01275448,8248.168,8205.025,7269.6494,7353.9893,0.3089304,0.0,0.0,0.0
