LapDistance [m],TotalDistance [m],LapTime [s],Sector1Time [s],Sector2Time [s],Speed [km/h],EngineRevs [rpm],ThrottlePercentage [%],BrakePercentage [%],Steer [%],Clutch [%],Gear [int],DRS [0/1],CanUseDRS [0/1],KERSLevel [J],EngineTemperature [C],RacePosition [int],Sector [int],InPits [int],FuelRemaining [kg],CurrentFlag [int],CurrentLapInvalid [int],X [m],Y [m],Z [m],GForceLatitudinal [G],GForceLongitudinal [G],GForceVertical [G],WheelSpeedRearLeft [km/h],WheelSpeedRearRight [km/h],WheelSpeedFrontLeft [km/h],WheelSpeedFrontRight [km/h],BrakeTemperatureRearLeft [C],BrakeTemperatureRearRight [C],BrakeTemperatureFrontLeft [C],BrakeTemperatureFrontRight [C],TyreTemperatureRearLeft [C],TyreTemperatureRearRight [C],TyreTemperatureFrontLeft [C],TyreTemperatureFrontRight [C],TyreWearRearLeft [%],TyreWearRearRight [%],TyreWearFrontLeft [%],TyreWearFrontRight [%],SuspensionPositionRearLeft [m],SuspensionPositionRearRight [m],SuspensionPositionFrontLeft [m],SuspensionPositionFrontRight [m],SuspensionVelocityRearLeft [m/s],SuspensionVelocityRearRight [m/s],SuspensionVelocityFrontLeft [m/s],SuspensionVelocityFrontRight [m/s],SuspensionAccelerationRearLeft [m/s^2],SuspensionAccelerationRearRight [m/s^2],SuspensionAccelerationFrontLeft [m/s^2],SuspensionAccelerationFrontRight [m/s^2],MGUKHarvested [J],MGUHHarvested [J],ERSSpent [J],ERSMode [int],FuelMixMode [int],Yaw [rad],Roll [rad],Pitch [rad],TyreCarcassTemperatureRearLeft [C],TyreCarcassTemperatureRearRight [C],TyreCarcassTemperatureFrontLeft [C],TyreCarcassTemperatureFrontRight [C],TyrePressureRearLeft [PSI],TyrePressureRearRight [PSI],TyrePressureFrontLeft [PSI],TyrePressureFrontRight [PSI],WheelSlipRearLeft [%],WheelSlipRearRight [%],WheelSlipFrontLeft [%],WheelSlipFrontRight [%],Torque [Nm],Handbrake [%],RearLeftInside [C],RearLeftMiddle [C],RearLeftOutside [C],RearRightInside [C],RearRightMiddle [C],RearRightOutside [C],FrontLeftInside [C],FrontLeftMiddle [C],FrontLeftOutside [C],FrontRightInside [C],FrontRightMiddle [C],FrontRightOutside [C],WoldSpeedX [km/h],WoldSpeedY [km/h],WoldSpeedZ [km/h],LocalAngularVelocityX [rad/s],LocalAngularVelocityY [rad/s],LocalAngularVelocityZ [rad/s],IcePower [W],MgukPower [W],FrontRideHeight [m],RearRideHeight [m],LoadRearLeft [N],LoadRearRight [N],LoadFrontLeft [N],LoadFrontRight [N],Extra1 [m],Extra2 [],Extra3 [],Extra4 []
3.8428462,3.8428462,0.05,0.0,0.0,288.52435,11208.0,100.0,0.0,0.06358579,0.0,7.0,1.0,0.0,4000000.0,110.0,1.0,0.0,0.0,10.0,0.0,0.0,-275.69135,27.351057,399.50613,0.03142777,-0.6723654,-0.07407618,288.52957,288.52264,288.53506,288.52692,300.0,299.0,323.0,317.0,97.0,97.0,97.0,97.0,0.0,0.0,0.0,0.0,0.036070414,0.035823368,0.0532403,0.05320725,0.0,0.0,0.0,0.0,2375.9407,2134.5957,-25.85655,681.2005,0.0,0.0,0.0,2.0,1.0,-2.6277828,0.012702452,0.008808374,97.0,97.0,97.0,97.0,21.302864,21.302864,24.666473,24.666473,3.0914853E-5,5.3331907E-5,1.7701366E-5,3.2166292E-5,1160.6951,0.0,0.0,0.0,0.0,0.0,0.0,0.0,0.0,0.0,0.0,0.0,0.0,0.0,-39.348446,-0.31798038,-69.82066,-0.018536111,-0.0017640314,0.01897039,549878.9,0.0,0.018118301,0.029573172,6648.472,6668.605,6882.443,6849.9355,0.31797123,0.0,0.0,0.0
7.847296,7.847296,0.1,0.0,0.0,288.4383,10805.0,100.0,0.0,0.11428166,0.0,8.0,1.0,0.0,4000000.0,110.0,1.0,0.0,0.0,10.0,0.0,0.0,-277.65738,27.331367,396.01804,-0.0038698167,0.3556986,-0.014582852,294.24634,294.1984,288.30643,288.26016,299.0,298.0,322.0,316.0,97.0,97.0,97.0,97.0,0.0,0.0,0.0,0.0,0.036167145,0.03646588,0.05357653,0.053457852,0.0,0.0,0.0,0.0,7152.5654,7893.0425,-6.3031764,238.30083,0.0,0.0,0.0,2.0,1.0,-2.628092,0.013045395,0.007852197,97.0,97.0,97.0,97.0,21.302864,21.302864,24.666473,24.666473,0.020147469,0.02013869,-4.8764257E-4,-4.837709E-4,1111.6112,0.0,0.0,0.0,0.0,0.0,0.0,0.0,0.0,0.0,0.0,0.0,0.0,0.0,-39.340393,-0.4184348,-69.797226,0.063995466,-0.009277187,-0.0535054,546267.25,119984.89,0.014123258,0.025372332,7133.814,7187.174,6910.388,6866.4814,0.31440163,0.0,0.0,0.0
11.859311,11.859311,0.15,0.0,0.0,289.20078,10481.0,100.0,0.0,-0.095950186,0.0,8.0,1.0,0.0,4000000.0,110.0,1.0,0.0,0.0,10.0,0.0,0.0,-279.62695,27.31276,392.52325,-0.0011385679,0.43587896,0.29793048,294.456,294.42322,289.0496,289.03854,297.0,296.0,320.0,315.0,97.0,97.0,97.0,97.0,0.0,0.0,0.0,0.0,0.045565717,0.046255838,0.05364982,0.053564474,0.0,0.0,0.0,0.0,-2794.7542,-3166.7896,923.87335,819.8573,0.0,0.0,0.0,2.0,1.0,-2.6284509,0.013680483,0.0030997992,97.0,97.0,97.0,97.0,21.302864,21.302864,24.666473,24.666473,0.018272867,0.018175092,-4.946201E-4,-5.116253E-4,1065.9114,0.0,0.0,0.0,0.0,0.0,0.0,0.0,0.0,0.0,0.0,0.0,0.0,0.0,-39.440876,-0.31291842,-69.984276,0.06065271,-0.0023031686,-0.04614225,540002.0,119984.9,0.008693503,0.012380396,8252.691,8342.049,6776.795,6744.8667,0.30284405,0.0,0.0,0.0
15.881864,15.881864,0.2,0.0,0.0,289.9027,10358.0,100.0,0.0,-0.3622181,0.0,8.0,1.0,0.0,4000000.0,110.0,1.0,0.0,0.0,10.0,0.0,0.0,-281.60175,27.302265,389.01932,0.047289073,0.34736523,0.45492017,294.49368,294.5076,289.73727,289.80624,296.0,295.0,319.0,314.0,97.0,97.0,97.0,97.0,0.0,0.0,0.0,0.0,0.04893291,0.049124595,0.053755444,0.0537147,0.0,0.0,0.0,0.0,-6700.01,-4492.619,-382.26837,-20.089745,0.0,0.0,0.0,2.0,1.0,-2.6282043,0.014291742,0.0013847351,97.0,97.0,97.0,97.0,21.302864,21.302864,24.666473,24.666473,0.01595349,0.015732033,-4.4422742E-4,-4.7566617E-4,1041.6104,0.0,0.0,0.0,0.0,0.0,0.0,0.0,0.0,0.0,0.0,0.0,0.0,0.0,-39.544582,-0.108881034,-70.15025,-0.022799892,0.0132547105,-0.0083755525,533957.1,119984.9,0.005414077,0.005752869,8679.257,8866.947,6805.23,6811.916,0.29742336,0.0,0.0,0.0
19.91296,19.91296,0.25,0.0,0.0,290.47684,10388.0,100.0,0.0,-0.15337956,0.0,8.0,1.0,0.0,4000000.0,110.0,1.0,0.0,0.0,10.0,0.0,0.0,-283.58163,27.299913,385.50845,0.061634064,0.32821852,0.28695735,295.35294,295.3761,290.30188,290.39224,295.0,294.0,318.0,313.0,97.0,97.0,97.0,97.0,0.0,0.0,0.0,0.0,0.04650345,0.046939686,0.053912546,0.054133296,0.0,0.0,0.0,0.0,2540.1995,2803.27,2037.2312,1897.0189,0.0,0.0,0.0,2.0,1.0,-2.6273832,0.015015946,0.002786994,97.0,97.0,97.0,97.0,21.302864,21.302864,24.666473,24.666473,0.016892683,0.016689327,-4.4742363E-4,-4.3730854E-4,1047.5356,0.0,0.0,0.0,0.0,0.0,0.0,0.0,0.0,0.0,0.0,0.0,0.0,0.0,-39.646763,0.0036829035,-70.27581,-0.012004513,0.0150339315,-0.0072864695,535443.75,119984.9,0.0067590447,0.010707212,8002.818,8149.945,7267.125,7372.7983,0.30064678,0.0,0.0,0.0
23.951797,23.951797,0.3,0.0,0.0,291.03244,10422.0,100.0,0.0,-0.019531062,0.0,8.0,1.0,0.0,4000000.0,110.0,1.0,0.0,0.0,10.0,0.0,0.0,-285.5666,27.299175,381.99155,0.054452896,0.31646815,-0.24491891,296.33438,296.32495,290.88406,290.91977,294.0,293.0,317.0,312.0,97.0,97.0,97.0,97.0,0.0,0.0,0.0,0.0,0.04294413,0.04341348,0.052702338,0.05305179,0.0,0.0,0.0,0.0,-916.52386,-1131.0072,1353.8584,961.0889,0.0,0.0,0.0,2.0,1.0,-2.6268988,0.015227399,0.003205657,97.0,97.0,97.0,97.0,21.302864,21.302864,24.666473,24.666473,0.018309832,0.018186243,-4.513576E-4,-4.356267E-4,1054.2264,0.0,0.0,0.0,0.0,0.0,0.0,0.0,0.0,0.0,0.0,0.0,0.0,0.0,-39.748512,-0.06240996,-70.39558,-0.0075123673,0.005444572,0.0046836953,537105.8,119984.9,0.011520626,0.015953928,6934.9526,7023.8193,6026.4736,6170.6436,0.3054924,0.0,0.0,0.0
27.99857,27.99857,0.35,0.0,0.0,291.60388,10438.0,100.0,0.0,0.006896082,0.0,8.0,1.0,0.0,4000000.0,110.0,1.0,0.0,0.0,10.0,0.0,0.0,-287.55664,27.293331,378.4684,0.032894477,0.3200209,-0.18485495,296.7868,296.76825,291.48044,291.47562,292.0,291.0,316.0,310.0,97.0,97.0,97.0,97.0,0.0,0.0,0.0,0.0,0.041498724,0.041715,0.052205168,0.052549727,0.0,0.0,0.0,0.0,834.3681,726.1677,27.425592,-140.35994,0.0,0.0,0.0,2.0,1.0,-2.626821,0.014938504,0.0041139126,97.0,97.0,97.0,97.0,21.302864,21.302864,24.666473,24.666473,0.017796624,0.017763149,-4.4537516E-4,-4.4272255E-4,1057.3806,0.0,0.0,0.0,0.0,0.0,0.0,0.0,0.0,0.0,0.0,0.0,0.0,0.0,-39.844822,-0.16126893,-70.52332,-0.027814876,-4.0396248E-4,0.02729696,537887.0,119984.91,0.015977206,0.018556716,7288.4844,7318.1504,5742.873,5892.6904,0.30802155,0.0,0.0,0.0
32.052986,32.052986,0.4,0.0,0.0,292.13617,10464.0,100.0,0.0,-0.005505543,0.0,8.0,1.0,0.0,4000000.0,110.0,1.0,0.0,0.0,10.0,0.0,0.0,-289.551,27.28293,374.93893,0.00947506,0.2962489,-0.17639585,297.54092,297.5091,292.02228,292.00156,291.0,290.0,315.0,309.0,97.0,97.0,97.0,97.0,0.0,0.0,0.0,0.0,0.040151685,0.040027823,0.052447442,0.052584644,0.0,0.0,0.0,0.0,-602.8666,-361.45428,437.87054,239.92357,0.0,0.0,0.0,2.0,1.0,-2.626935,0.0142734265,0.0062921047,97.0,97.0,97.0,97.0,21.302864,21.302864,24.666473,24.666473,0.018487569,0.018478831,-4.277853E-4,-4.3261377E-4,1062.5586,0.0,0.0,0.0,0.0,0.0,0.0,0.0,0.0,0.0,0.0,0.0,0.0,0.0,-39.92369,-0.24956349,-70.64833,-0.020850012,-0.0029682422,0.022834746,539178.0,119984.9,0.020420702,0.025227167,6873.909,6874.2007,6103.288,6138.301,0.31482697,0.0,0.0,0.0
36.11469,36.11469,0.45,0.0,0.0,292.68103,10480.0,100.0,0.0,-0.01192439,0.0,8.0,1.0,0.0,4000000.0,110.0,1.0,0.0,0.0,10.0,0.0,0.0,-291.5492,27.262995,371.4033,-0.0011606365,0.32077014,-0.08585726,297.97086,297.9638,292.55164,292.5421,290.0,289.0,313.0,308.0,97.0,97.0,97.0,97.0,0.0,0.0,0.0,0.0,0.037607476,0.03752416,0.0528482,0.052747797,0.0,0.0,0.0,0.0,5741.335,5429.1655,1558.4437,1698.066,0.0,0.0,0.0,2.0,1.0,-2.6270344,0.013602741,0.0073770285,97.0,97.0,97.0,97.0,21.302864,21.302864,24.666473,24.666473,0.018286051,0.018310538,-4.4444783E-4,-4.4598972E-4,1065.7086,0.0,0.0,0.0,0.0,0.0,0.0,0.0,0.0,0.0,0.0,0.0,0.0,0.0,-40.00097,-0.45841473,-70.77746,0.023897897,-0.0019551062,-0.009859509,539950.8,119984.9,0.01544417,0.024553997,7098.001,7079.3467,6792.3394,6727.1733,0.31302452,0.0,0.0,0.0
40.18414,40.18414,0.5,0.0,0.0,293.23224,10482.0,100.0,0.0,0.043907195,0.0,8.0,1.0,0.0,4000000.0,110.0,1.0,0.0,0.0,10.0,0.0,0.0,-293.55127,27.242374,367.86093,-0.005416453,0.31532395,0.34149772,298.01303,298.00668,293.08438,293.08917,288.0,288.0,312.0,307.0,97.0,97.0,97.0,97.0,0.0,0.0,0.0,0.0,0.044977885,0.045276497,0.054141194,0.054188848,0.0,0.0,0.0,0.0,-1126.2194,-1337.0406,1632.7946,1125.1194,0.0,0.0,0.0,2.0,1.0,-2.6270564,0.0138735315,0.003993511,97.0,97.0,97.0,97.0,21.302864,21.302864,24.666473,24.666473,0.016447688,0.016418315,-4.5880422E-4,-4.4792803E-4,1066.0933,0.0,0.0,0.0,0.0,0.0,0.0,0.0,0.0,0.0,0.0,0.0,0.0,0.0,-40.07654,-0.34906548,-70.91125,0.07255901,-8.3078776E-4,-0.043633007,540042.6,119984.9,0.0064776703,0.012888472,8243.124,8284.096,7396.3477,7410.032,0.30296707,0.0,0.0,0.0
44.26149,44.26149,0.55,0.0,0.0,293.6381,10491.0,100.0,0.0,-0.09522928,0.0,8.0,1.0,0.0,4000000.0,110.0,1.0,0.0,0.0,10.0,0.0,0.0,-295.55704,27.230936,364.3116,0.01048629,0.34255293,0.6250009,298.28372,298.26706,293.672,293.679,287.0,286.0,311.0,306.0,97.0,97.0,97.0,97.0,0.0,0.0,0.0,0.0,0.050166573,0.050220918,0.054209784,0.05413346,0.0,0.0,0.0,0.0,-6859.5337,-7233.125,-457.0484,-295.9817,0.0,0.0,0.0,2.0,1.0,-2.6271472,0.014053643,6.965399E-4,97.0,97.0,97.0,97.0,21.302864,21.302864,24.666473,24.666473,0.015252234,0.015182296,-4.6314433E-4,-4.7302697E-4,1067.9475,0.0,0.0,0.0,0.0,0.0,0.0,0.0,0.0,0.0,0.0,0.0,0.0,0.0,-40.116714,-0.029096007,-71.01889,0.005651562,-1.1859037E-4,-0.006042243,540517.8,119984.89,0.0026998685,0.00204622,9257.748,9331.512,6978.763,6942.213,0.29268265,0.0,0.0,0.0
48.344444,48.344444,0.6,0.0,0.0,294.1919,10524.0,100.0,0.0,-0.058044203,0.0,8.0,1.0,0.0,4000000.0,110.0,1.0,0.0,0.0,10.0,0.0,0.0,-297.5651,27.232103,360.75717,0.017106801,0.30604026,0.13404049,299.22168,299.21338,294.05865,294.0737,286.0,285.0,310.0,305.0,97.0,97.0,97.0,97.0,0.0,0.0,0.0,0.0,0.046014782,0.046146646,0.05388958,0.053811185,0.0,0.0,0.0,0.0,4776.142,4217.2236,3023.895,2509.2195,0.0,0.0,0.0,2.0,1.0,-2.6270323,0.014639025,0.002985239,97.0,97.0,97.0,97.0,21.302864,21.302864,24.666473,24.666473,0.01701268,0.016968604,-4.311217E-4,-4.3338977E-4,1072.9829,0.0,0.0,0.0,0.0,0.0,0.0,0.0,0.0,0.0,0.0,0.0,0.0,0.0,-40.19962,0.0431465,-71.148735,-0.040430162,0.0030568084,-0.0020408444,541363.5,119984.9,0.006744637,0.010921165,7896.997,7901.656,7239.631,7186.4233,0.2967968,0.0,0.0,0.0
52.434696,52.434696,0.65,0.0,0.0,294.71158,10558.0,100.0,0.0,-0.013370064,0.0,8.0,1.0,0.0,4000000.0,110.0,1.0,0.0,0.0,10.0,0.0,0.0,-299.5772,27.230675,357.19666,0.013919927,0.2999725,-0.46136177,300.2048,300.19635,294.5776,294.5935,285.0,284.0,309.0,304.0,97.0,97.0,97.0,97.0,0.0,0.0,0.0,0.0,0.041050587,0.04154157,0.052299567,0.052579362,0.0,0.0,0.0,0.0,-598.9773,-1154.7042,1557.7598,1210.883,0.0,0.0,0.0,2.0,1.0,-2.6268446,0.015262829,0.0046824217,97.0,97.0,97.0,97.0,21.302864,21.302864,24.666473,24.666473,0.018720435,0.018646263,-4.3625836E-4,-4.3410386E-4,1077.6384,0.0,0.0,0.0,0.0,0.0,0.0,0.0,0.0,0.0,0.0,0.0,0.0,0.0,-40.281094,-0.12672324,-71.2684,-0.032992695,0.0031737739,0.020170761,541961.5,119984.9,0.0135504855,0.018683499,6614.3613,6663.709,5693.9097,5827.0527,0.30711842,0.0,0.0,0.0
56.53228,56.53228,0.7,0.0,0.0,295.24084,10572.0,100.0,0.0,-0.024840303,0.0,8.0,1.0,0.0,4000000.0,110.0,1.0,0.0,0.0,10.0,0.0,0.0,-301.59348,27.21956,353.63004,0.019625016,0.2982888,-0.23804286,300.57462,300.59314,295.10135,295.12277,284.0,283.0,308.0,303.0,97.0,97.0,97.0,97.0,0.0,0.0,0.0,0.0,0.039421223,0.039419945,0.052423086,0.05285051,0.0,0.0,0.0,0.0,1438.4686,1842.0203,503.28964,108.14666,0.0,0.0,0.0,2.0,1.0,-2.6266527,0.014805111,0.006103277,97.0,97.0,97.0,97.0,21.302864,21.302864,24.666473,24.666473,0.018216139,0.01819024,-4.384618E-4,-4.340646E-4,1079.5396,0.0,0.0,0.0,0.0,0.0,0.0,0.0,0.0,0.0,0.0,0.0,0.0,0.0,-40.36471,-0.28744605,-71.38956,-0.0030157678,0.0037378708,0.021091454,542198.6,119984.9,0.015109894,0.02161534,7022.9663,7029.748,6137.5146,6330.3447,0.30957985,0.0,0.0,0.0
60.636875,60.636875,0.749,0.0,0.0,295.75357,10582.0,100.0,0.0,0.06986605,0.0,8.0,1.0,0.0,4000000.0,110.0,1.0,0.0,0.0,10.0,0.0,0.0,-303.61368,27.203587,350.05734,0.0032681152,0.28524098,-0.03572267,300.87598,300.86725,295.62994,295.61835,282.0,281.0,307.0,302.0,97.0,97.0,97.0,97.0,0.0,0.0,0.0,0.0,0.041234124,0.04111513,0.05301716,0.053029504,0.0,0.0,0.0,0.0,59.66583,419.13525,-213.07468,23.750967,0.0,0.0,0.0,2.0,1.0,-2.626635,0.01412309,0.006207466,97.0,97.0,97.0,97.0,21.302864,21.302864,24.666473,24.666473,0.017363228,0.01737337,-4.3743936E-4,-4.2724248E-4,1080.9174,0.0,0.0,0.0,0.0,0.0,0.0,0.0,0.0,0.0,0.0,0.0,0.0,0.0,-40.43863,-0.33409187,-71.51117,0.00425062,-0.0024425806,0.0048495377,542377.6,119984.9,0.01699698,0.021392241,7494.302,7512.5215,6416.9937,6409.206,0.3097725,0.0,0.0,0.0
64.7472,64.7472,0.799,0.0,0.0,296.26355,10601.0,100.0,0.0,0.04955695,0.0,8.0,1.0,0.0,4000000.0,110.0,1.0,0.0,0.0,10.0,0.0,0.0,-305.6374,27.182354,346.4786,-0.009424001,0.29469714,-0.029414892,301.4215,301.39587,296.14618,296.11908,281.0,280.0,306.0,300.0,97.0,97.0,97.0,97.0,0.0,0.0,0.0,0.0,0.040543307,0.040561542,0.053127524,0.05308765,0.0,0.0,0.0,0.0,2775.2947,2939.2046,1103.6619,1164.3468,0.0,0.0,0.0,2.0,1.0,-2.6268275,0.014159805,0.007078886,97.0,97.0,97.0,97.0,21.302864,21.302864,24.666473,24.666473,0.017495902,0.017503822,-4.384007E-4,-4.383782E-4,1083.5159,0.0,0.0,0.0,0.0,0.0,0.0,0.0,0.0,0.0,0.0,0.0,0.0,0.0,-40.507027,-0.45714232,-71.63455,0.0012102602,-0.004762482,-0.005837621,542707.06,119984.89,0.013689825,0.020170495,7431.799,7446.907,6801.371,6785.4707,0.30809402,0.0,0.0,0.0
68.86467,68.86467,0.849,0.0,0.0,296.76962,10609.0,100.0,0.0,0.08801568,0.0,8.0,1.0,0.0,4000000.0,110.0,1.0,0.0,0.0,10.0,0.0,0.0,-307.66434,27.161407,342.8935,-0.027571224,0.28697073,0.22477818,301.64487,301.62805,296.64648,296.61536,280.0,279.0,305.0,299.0,97.0,97.0,97.0,97.0,0.0,0.0,0.0,0.0,0.044930015,0.044918638,0.05408329,0.054081842,0.0,0.0,0.0,0.0,-2591.7776,-2591.4834,380.1226,579.3436,0.0,0.0,0.0,2.0,1.0,-2.627084,0.0142904725,0.005447507,97.0,97.0,97.0,97.0,21.302864,21.302864,24.666473,24.666473,0.016486006,0.016525757,-4.4564335E-4,-4.4311245E-4,1084.6204,0.0,0.0,0.0,0.0,0.0,0.0,0.0,0.0,0.0,0.0,0.0,0.0,0.0,-40.56648,-0.37375134,-71.76292,0.039630994,-0.006066219,-0.021978501,542850.56,119984.89,0.008414792,0.014523682,8092.263,8079.663,7204.7246,7214.366,0.30404568,0.0,0.0,0.0
72.98925,72.98925,0.899,0.0,0.0,297.28555,10620.0,100.0,0.0,0.012865792,0.0,8.0,1.0,0.0,4000000.0,110.0,1.0,0.0,0.0,10.0,0.0,0.0,-309.69427,27.146606,339.30188,-0.019903213,0.29810473,0.32333463,301.9399,301.92828,297.1467,297.14023,279.0,278.0,303.0,298.0,97.0,97.0,97.0,97.0,0.0,0.0,0.0,0.0,0.048513073,0.048614826,0.054400653,0.05431024,0.0,0.0,0.0,0.0,71.748955,400.19894,-786.5577,-777.5589,0.0,0.0,0.0,2.0,1.0,-2.6272616,0.014418709,0.002342105,97.0,97.0,97.0,97.0,21.302864,21.302864,24.666473,24.666473,0.015723258,0.015701706,-4.5143347E-4,-4.5035168E-4,1086.117,0.0,0.0,0.0,0.0,0.0,0.0,0.0,0.0,0.0,0.0,0.0,0.0,0.0,-40.627724,-0.22247092,-71.89355,0.042121824,-0.0018786523,-0.029165462,543036.56,119984.9,0.0033766478,0.0059175864,8745.311,8777.961,7144.5854,7095.625,0.29533577,0.0,0.0,0.0
77.11944,77.11944,0.949,0.0,0.0,297.62976,10635.0,100.0,0.0,0.013917873,0.0,8.0,1.0,0.0,4000000.0,110.0,1.0,0.0,0.0,10.0,0.0,0.0,-311.72614,27.142153,335.70493,-9.0842694E-4,0.28905487,0.41819066,302.3935,302.3643,297.50165,297.49585,277.0,277.0,302.0,297.0,97.0,97.0,97.0,97.0,0.0,0.0,0.0,0.0,0.048427664,0.048560992,0.054518253,0.054340374,0.0,0.0,0.0,0.0,4725.0728,4663.744,3885.072,3630.745,0.0,0.0,0.0,2.0,1.0,-2.6273015,0.014938762,0.002226472,97.0,97.0,97.0,97.0,21.302864,21.302864,24.666473,24.666473,0.015912889,0.015848959,-4.3417705E-4,-4.3146533E-4,1088.1934,0.0,0.0,0.0,0.0,0.0,0.0,0.0,0.0,0.0,0.0,0.0,0.0,0.0,-40.65585,0.011477556,-71.98782,-0.014698148,-0.001121709,-0.011202969,543307.4,119984.89,0.0043055634,0.0068575866,8688.167,8766.885,7733.13,7644.991,0.2945261,0.0,0.0,0.0
81.25566,81.25566,0.999,0.0,0.0,298.1097,10676.0,100.0,0.0,0.01978998,0.0,8.0,1.0,0.0,4000000.0,110.0,1.0,0.0,0.0,10.0,0.0,0.0,-313.76056,27.14171,332.10245,-0.010252617,0.2726092,-0.5155873,303.55942,303.523,297.9961,297.97333,276.0,275.0,301.0,296.0,97.0,97.0,97.0,97.0,0.0,0.0,0.0,0.0,0.04366809,0.04412233,0.052683596,0.052691694,0.0,0.0,0.0,0.0,-3878.2454,-3729.101,-179.05081,90.363686,0.0,0.0,0.0,2.0,1.0,-2.6274414,0.015541583,0.003464222,97.0,97.0,97.0,97.0,21.302864,21.302864,24.666473,24.666473,0.018269822,0.018196385,-4.261225E-4,-4.3037927E-4,1093.8047,0.0,0.0,0.0,0.0,0.0,0.0,0.0,0.0,0.0,0.0,0.0,0.0,0.0,-40.718227,-0.09607441,-72.10564,-0.038691696,-0.0030643647,0.019328011,544011.7,119984.9,0.011000919,0.014187741,6684.1636,6791.198,5617.845,5651.7812,0.30268764,0.0,0.0,0.0
85.3988,85.3988,1.049,0.0,0.0,298.61414,10691.0,100.0,0.0,0.0630959,0.0,8.0,1.0,0.0,4000000.0,110.0,1.0,0.0,0.0,10.0,0.0,0.0,-315.79825,27.131418,328.4939,-0.021253623,0.28041527,-0.2743512,303.98056,303.94754,298.49802,298.47824,275.0,274.0,300.0,295.0,97.0,97.0,97.0,97.0,0.0,0.0,0.0,0.0,0.040658902,0.041016042,0.052820303,0.052666776,0.0,0.0,0.0,0.0,1035.4937,1216.8105,596.7781,728.83655,0.0,0.0,0.0,2.0,1.0,-2.6275463,0.015839642,0.0058122873,97.0,97.0,97.0,97.0,21.302864,21.302864,24.666473,24.666473,0.018014265,0.017959828,-4.3237093E-4,-4.274481E-4,1095.8665,0.0,0.0,0.0,0.0,0.0,0.0,0.0,0.0,0.0,0.0,0.0,0.0,0.0,-40.782806,-0.28046188,-72.22961,-0.031919707,-0.0031179385,0.008643094,544272.4,119984.9,0.01246867,0.018134847,7023.254,7084.568,6395.498,6324.498,0.30669498,0.0,0.0,0.0
89.54878,89.54878,1.099,0.0,0.0,299.10013,10701.0,100.0,0.0,0.14385445,0.0,8.0,1.0,0.0,4000000.0,110.0,1.0,0.0,0.0,10.0,0.0,0.0,-317.83887,27.11463,324.87912,-0.040372,0.26916292,-0.14933015,304.27408,304.26288,298.99426,298.9548,274.0,273.0,299.0,294.0,97.0,97.0,97.0,97.0,0.0,0.0,0.0,0.0,0.041348066,0.041279152,0.052847963,0.05290915,0.0,0.0,0.0,0.0,450.70493,442.89972,121.77228,-27.6938,0.0,0.0,0.0,2.0,1.0,-2.627782,0.015911598,0.0069555044,97.0,97.0,97.0,97.0,21.302864,21.302864,24.666473,24.666473,0.017270302,0.017351499,-4.3075928E-4,-4.2219262E-4,1097.2716,0.0,0.0,0.0,0.0,0.0,0.0,0.0,0.0,0.0,0.0,0.0,0.0,0.0,-40.836243,-0.376002,-72.354034,-0.019838758,-0.0065947953,0.01934015,544461.0,119984.9,0.016288335,0.0198163,7458.7334,7427.169,6245.6025,6280.718,0.3054762,0.0,0.0,0.0
93.70521,93.70521,1.149,0.0,0.0,299.57208,10724.0,100.0,0.0,0.088070646,0.0,8.0,1.0,0.0,4000000.0,110.0,1.0,0.0,0.0,10.0,0.0,0.0,-319.8819,27.089312,321.2583,-0.047710925,0.27546382,-0.19795586,304.88647,304.91757,299.46454,299.42245,273.0,272.0,298.0,293.0,97.0,97.0,97.0,97.0,0.0,0.0,0.0,0.0,0.03954136,0.039000746,0.052885223,0.052973688,0.0,0.0,0.0,0.0,2848.7068,2674.6448,1469.9978,1349.8884,0.0,0.0,0.0,2.0,1.0,-2.628113,0.014888026,0.009151459,97.0,97.0,97.0,97.0,21.302864,21.302864,24.666473,24.666473,0.01783098,0.018069265,-4.2953898E-4,-4.3320423E-4,1100.4124,0.0,0.0,0.0,0.0,0.0,0.0,0.0,0.0,0.0,0.0,0.0,0.0,0.0,-40.883694,-0.5783223,-72.476456,1.3712794E-4,-0.0065919165,0.027203914,544848.4,119984.89,0.013911931,0.021670198,7168.822,7010.543,6695.066,6722.927,0.30567265,0.0,0.0,0.0
97.86832,97.86832,1.199,0.0,0.0,300.03766,10724.0,100.0,0.0,0.044328712,0.0,8.0,1.0,0.0,4000000.0,110.0,1.0,0.0,0.0,10.0,0.0,0.0,-321.92725,27.06154,317.63113,-0.043494083,0.256379,0.19530469,304.90707,304.92328,299.9157,299.88525,271.0,271.0,297.0,292.0,97.0,97.0,97.0,97.0,0.0,0.0,0.0,0.0,0.04561599,0.044786565,0.054047633,0.054080922,0.0,0.0,0.0,0.0,-3573.0645,-2846.4805,-1859.8434,-1559.7579,0.0,0.0,0.0,2.0,1.0,-2.628448,0.0139966095,0.0074841976,97.0,97.0,97.0,97.0,21.302864,21.302864,24.666473,24.666473,0.016272007,0.01641011,-4.27549E-4,-4.3511266E-4,1100.44,0.0,0.0,0.0,0.0,0.0,0.0,0.0,0.0,0.0,0.0,0.0,0.0,0.0,-40.926353,-0.51219606,-72.60137,0.04588111,-0.0053428607,-0.010179154,544862.06,119984.89,0.01224279,0.016671253,8182.051,8055.7964,7027.464,7050.0327,0.30633068,0.0,0.0,0.0
102.03775,102.03775,1.249,0.0,0.0,300.49268,10737.0,100.0,0.0,-0.024461225,0.0,8.0,1.0,0.0,4000000.0,110.0,1.0,0.0,0.0,10.0,0.0,0.0,-323.97473,27.038942,313.9979,-0.026150696,0.25749096,0.31630972,305.2725,305.2887,300.35153,300.34683,270.0,269.0,296.0,291.0,97.0,97.0,97.0,97.0,0.0,0.0,0.0,0.0,0.04767795,0.047097083,0.054750223,0.05481475,0.0,0.0,0.0,0.0,-34.184757,-104.4049,496.57074,425.04956,0.0,0.0,0.0,2.0,1.0,-2.6286044,0.013260277,0.0049339533,97.0,97.0,97.0,97.0,21.302864,21.302864,24.666473,24.666473,0.01600457,0.016075546,-4.3368273E-4,-4.4074914E-4,1102.2305,0.0,0.0,0.0,0.0,0.0,0.0,0.0,0.0,0.0,0.0,0.0,0.0,0.0,-40.973038,-0.38587716,-72.72093,0.076146975,-0.0014815526,-0.026474709,545087.8,119984.9,0.00554402,0.0119387675,8432.889,8341.322,7737.383,7759.4375,0.3024664,0.0,0.0,0.0
106.21374,106.21374,1.299,0.0,0.0,300.97656,10739.0,100.0,0.0,0.11549719,0.0,8.0,1.0,0.0,4000000.0,110.0,1.0,0.0,0.0,10.0,0.0,0.0,-326.02484,27.025896,310.35858,-0.03134518,0.2772741,0.9391488,305.30627,305.30627,300.84033,300.8269,269.0,268.0,295.0,290.0,97.0,97.0,97.0,97.0,0.0,0.0,0.0,0.0,0.05160525,0.051548466,0.05555868,0.05527617,0.0,0.0,0.0,0.0,2889.7043,469.53412,2737.1807,2010.2214,0.0,0.0,0.0,2.0,1.0,-2.628672,0.01329193,9.537935E-4,97.0,97.0,97.0,97.0,21.302864,21.302864,24.666473,24.666473,0.014357505,0.014445512,-4.5102465E-4,-4.4072318E-4,1102.484,0.0,0.0,0.0,0.0,0.0,0.0,0.0,0.0,0.0,0.0,0.0,0.0,0.0,-41.025562,-0.091390945,-72.84658,0.039516527,-0.0034485934,-0.033530343,545111.6,119984.91,0.0018543189,0.00165952,10117.402,9988.831,8334.41,8207.516,0.29354858,0.0,0.0,0.0
110.39625,110.39625,1.349,0.0,0.0,301.4112,10782.0,100.0,0.0,0.021634307,0.0,8.0,1.0,0.0,4000000.0,110.0,1.0,0.0,0.0,10.0,0.0,0.0,-328.0774,27.028502,306.7132,-0.019434191,0.2302414,-0.22999844,306.5744,306.55127,301.29828,301.2811,268.0,267.0,294.0,289.0,97.0,97.0,97.0,97.0,0.0,0.0,0.0,0.0,0.04628677,0.04643382,0.05386414,0.053915218,0.0,0.0,0.0,0.0,-2270.1816,-2781.1155,-855.34283,-1162.2413,0.0,0.0,0.0,2.0,1.0,-2.6288261,0.0138567975,0.002174139,97.0,97.0,97.0,97.0,21.302864,21.302864,24.666473,24.666473,0.016952354,0.016920947,-4.1311767E-4,-4.15706E-4,1108.435,0.0,0.0,0.0,0.0,0.0,0.0,0.0,0.0,0.0,0.0,0.0,0.0,0.0,-41.07477,0.06273428,-72.95745,-0.04734645,-0.002079189,0.025804514,545868.4,119984.9,0.007475206,0.010440837,7470.783,7519.0894,6336.781,6352.4453,0.30041027,0.0,0.0,0.0
114.5847,114.5847,1.399,0.0,0.0,301.86185,10806.0,100.0,0.0,0.1075811,0.0,8.0,1.0,0.0,4000000.0,110.0,1.0,0.0,0.0,10.0,0.0,0.0,-330.13232,27.02619,303.0623,-0.043360963,0.26258117,-0.3935927,307.23932,307.22937,301.76138,301.70917,267.0,266.0,293.0,288.0,97.0,97.0,97.0,97.0,0.0,0.0,0.0,0.0,0.041833464,0.041666266,0.0530515,0.052929122,0.0,0.0,0.0,0.0,2012.4078,2287.924,778.92676,951.16486,0.0,0.0,0.0,2.0,1.0,-2.6291268,0.013595594,0.004295826,97.0,97.0,97.0,97.0,21.302864,21.302864,24.666473,24.666473,0.01780712,0.01793259,-4.24465E-4,-4.2648084E-4,1111.737,0.0,0.0,0.0,0.0,0.0,0.0,0.0,0.0,0.0,0.0,0.0,0.0,0.0,-41.12015,-0.14157705,-73.075455,-0.022684123,-0.008407566,0.017785324,546278.5,119984.91,0.009891687,0.016416376,7076.8877,7019.289,6313.515,6256.168,0.30463028,0.0,0.0,0.0
118.779625,118.779625,1.449,0.0,0.0,302.32874,10811.0,100.0,0.0,0.09169773,0.0,8.0,1.0,0.0,4000000.0,110.0,1.0,0.0,0.0,10.0,0.0,0.0,-332.18954,27.015627,299.40527,-0.049891226,0.2644639,-0.14637807,307.38528,307.3967,302.21436,302.1779,266.0,265.0,291.0,287.0,97.0,97.0,97.0,97.0,0.0,0.0,0.0,0.0,0.04224891,0.04185894,0.05341426,0.05343939,0.0,0.0,0.0,0.0,2081.85,2046.485,-108.951324,-243.42383,0.0,0.0,0.0,2.0,1.0,-2.6294823,0.013333597,0.004654646,97.0,97.0,97.0,97.0,21.302864,21.302864,24.666473,24.666473,0.01677915,0.016915658,-4.3073285E-4,-4.3191545E-4,1112.4548,0.0,0.0,0.0,0.0,0.0,0.0,0.0,0.0,0.0,0.0,0.0,0.0,0.0,-41.165276,-0.25407958,-73.19856,0.009878526,-0.0061400295,0.0059256954,546378.44,119984.9,0.007913318,0.014171447,7737.0444,7641.2812,6702.32,6720.929,0.30183125,0.0,0.0,0.0
122.980896,122.980896,1.499,0.0,0.0,302.78226,10824.0,100.0,0.0,0.029625056,0.0,8.0,1.0,0.0,4000000.0,110.0,1.0,0.0,0.0,10.0,0.0,0.0,-334.24893,27.003033,295.74216,-0.040826328,0.2530084,-0.06720049,307.75183,307.7705,302.66522,302.64325,264.0,264.0,290.0,285.0,97.0,97.0,97.0,97.0,0.0,0.0,0.0,0.0,0.045343596,0.04483538,0.053550083,0.053504903,0.0,0.0,0.0,0.0,-2451.0159,-2878.828,-121.31629,-378.0171,0.0,0.0,0.0,2.0,1.0,-2.629727,0.012227258,0.0046960115,97.0,97.0,97.0,97.0,21.302864,21.302864,24.666473,24.666473,0.016384862,0.01651256,-4.253756E-4,-4.2819785E-4,1114.2574,0.0,0.0,0.0,0.0,0.0,0.0,0.0,0.0,0.0,0.0,0.0,0.0,0.0,-41.20779,-0.2610058,-73.31917,-0.0066961423,-0.003276256,0.026088916,546606.5,119984.9,0.008890421,0.0122155445,7988.0234,7871.6436,6621.382,6565.325,0.29952717,0.0,0.0,0.0
127.18928,127.18928,1.549,0.0,0.0,303.2174,10842.0,100.0,0.0,0.07696709,0.0,8.0,1.0,0.0,4000000.0,110.0,1.0,0.0,0.0,10.0,0.0,0.0,-336.3105,26.988842,292.07318,-0.03781613,0.2404249,-0.08990679,308.27008,308.2684,303.1008,303.08182,263.0,262.0,289.0,284.0,97.0,97.0,97.0,97.0,0.0,0.0,0.0,0.0,0.04496648,0.0444508,0.053588256,0.053457808,0.0,0.0,0.0,0.0,-856.24146,-321.83823,-1198.7595,-1158.5935,0.0,0.0,0.0,2.0,1.0,-2.6298597,0.011932791,0.00581944,97.0,97.0,97.0,97.0,21.302864,21.302864,24.666473,24.666473,0.016637279,0.016696204,-4.2212597E-4,-4.17944E-4,1116.7449,0.0,0.0,0.0,0.0,0.0,0.0,0.0,0.0,0.0,0.0,0.0,0.0,0.0,-41.251247,-0.30085158,-73.43324,-0.019429833,-0.0031297132,0.010117835,546917.2,119984.9,0.01223578,0.015191858,7783.7163,7742.1987,6633.742,6574.7827,0.30516624,0.0,0.0,0.0
131.40378,131.40378,1.599,0.0,0.0,303.63116,10860.0,100.0,0.0,0.07876399,0.0,8.0,1.0,0.0,4000000.0,110.0,1.0,0.0,0.0,10.0,0.0,0.0,-338.37418,26.971922,288.39868,-0.03465341,0.2353918,-0.11339787,308.7823,308.76456,303.5123,303.48975,262.0,261.0,288.0,283.0,97.0,97.0,97.0,97.0,0.0,0.0,0.0,0.0,0.04338688,0.043327667,0.0537466,0.053497337,0.0,0.0,0.0,0.0,843.0182,674.9913,370.60077,415.6619,0.0,0.0,0.0,2.0,1.0,-2.6300244,0.012143204,0.0064377785,97.0,97.0,97.0,97.0,21.302864,21.302864,24.666473,24.666473,0.017018894,0.017033763,-4.2248992E-4,-4.1709252E-4,1119.2299,0.0,0.0,0.0,0.0,0.0,0.0,0.0,0.0,0.0,0.0,0.0,0.0,0.0,-41.294014,-0.3687215,-73.54073,0.0029621948,-0.004219286,-0.0107911145,547225.7,119984.9,0.013129529,0.018720232,7528.0225,7538.197,6888.8726,6771.9683,0.3083868,0.0,0.0,0.0
135.62404,135.62404,1.649,0.0,0.0,304.04654,10868.0,100.0,0.0,0.08330144,0.0,8.0,1.0,0.0,4000000.0,110.0,1.0,0.0,0.0,10.0,0.0,0.0,-340.43988,26.953415,284.71872,-0.042396955,0.23575859,-0.034504525,309.02194,308.98712,303.9298,303.8895,261.0,260.0,287.0,282.0,97.0,97.0,97.0,97.0,0.0,0.0,0.0,0.0,0.044502884,0.044514377,0.054140214,0.05373386,0.0,0.0,0.0,0.0,-1132.2944,-1384.7036,-1043.4193,-1565.2029,0.0,0.0,0.0,2.0,1.0,-2.6303458,0.012731545,0.0048743486,97.0,97.0,97.0,97.0,21.302864,21.302864,24.666473,24.666473,0.016419891,0.016451122,-4.292431E-4,-4.2729886E-4,1120.3499,0.0,0.0,0.0,0.0,0.0,0.0,0.0,0.0,0.0,0.0,0.0,0.0,0.0,-41.332497,-0.36961946,-73.65144,0.025015939,-0.0076214187,-0.03974565,547370.06,119984.89,0.010191537,0.014904347,7887.038,7871.6597,6943.281,6713.486,0.3048725,0.0,0.0,0.0
139.8502,139.8502,1.699,0.0,0.0,304.47614,10874.0,100.0,0.0,0.08199386,0.0,8.0,1.0,0.0,4000000.0,110.0,1.0,0.0,0.0,10.0,0.0,0.0,-342.50754,26.937115,281.03308,-0.048093624,0.24328901,0.29799318,309.16852,309.161,304.35648,304.3201,260.0,259.0,286.0,281.0,97.0,97.0,97.0,97.0,0.0,0.0,0.0,0.0,0.048501037,0.04934012,0.054474887,0.05437842,0.0,0.0,0.0,0.0,121.70562,-387.68643,-232.39996,-138.17395,0.0,0.0,0.0,2.0,1.0,-2.630694,0.014000935,0.0027736425,97.0,97.0,97.0,97.0,21.302864,21.302864,24.666473,24.666473,0.015419316,0.015507277,-4.320029E-4,-4.3548917E-4,1121.1787,0.0,0.0,0.0,0.0,0.0,0.0,0.0,0.0,0.0,0.0,0.0,0.0,0.0,-41.370728,-0.26577857,-73.76728,0.019994635,-0.006477541,-0.0326951,547472.75,119984.9,0.00729747,0.007812987,8816.049,8748.351,7349.8843,7337.1895,0.2998476,0.0,0.0,0.0
144.08234,144.08234,1.749,0.0,0.0,304.90424,10896.0,100.0,0.0,0.11903292,0.0,8.0,1.0,0.0,4000000.0,110.0,1.0,0.0,0.0,10.0,0.0,0.0,-344.577,26.925827,277.3416,-0.056923047,0.23716477,0.12934327,309.7844,309.78207,304.7935,304.75235,259.0,258.0,285.0,280.0,97.0,97.0,97.0,97.0,0.0,0.0,0.0,0.0,0.04786042,0.047714893,0.05454268,0.05424232,0.0,0.0,0.0,0.0,-63.756065,779.1413,448.2642,681.33466,0.0,0.0,0.0,2.0,1.0,-2.6310241,0.01381637,0.0032980442,97.0,97.0,97.0,97.0,21.302864,21.302864,24.666473,24.666473,0.015942978,0.016053513,-4.3237925E-4,-4.2746178E-4,1124.2186,0.0,0.0,0.0,0.0,0.0,0.0,0.0,0.0,0.0,0.0,0.0,0.0,0.0,-41.40534,-0.19416866,-73.88442,-0.0070543056,-0.0070668296,0.0017276634,547848.75,119984.89,0.003229189,0.0075983778,8282.564,8209.913,7482.638,7334.8623,0.29773712,0.0,0.0,0.0
148.32027,148.32027,1.799,0.0,0.0,305.20316,10909.0,100.0,0.0,0.072635405,0.0,8.0,1.0,0.0,4000000.0,110.0,1.0,0.0,0.0,10.0,0.0,0.0,-346.64798,26.917637,273.64438,-0.075137906,0.16574645,0.13502175,310.15402,310.14987,305.16592,305.14178,258.0,257.0,284.0,279.0,97.0,97.0,97.0,97.0,0.0,0.0,0.0,0.0,0.047559924,0.047458462,0.05412695,0.05386274,0.0,0.0,0.0,0.0,653.52014,404.1284,-1182.8138,-1143.4255,0.0,0.0,0.0,2.0,1.0,-2.631355,0.01413138,0.0024513006,97.0,97.0,97.0,97.0,21.302864,21.302864,24.666473,24.666473,0.015937243,0.016003916,-4.4815653E-4,-4.4320375E-4,1126.0253,0.0,0.0,0.0,0.0,0.0,0.0,0.0,0.0,0.0,0.0,0.0,0.0,0.0,-41.411667,-0.10411821,-73.976234,0.018164027,-3.7407788E-4,-0.01665281,548075.25,119984.9,0.0011446446,0.0044645765,8323.295,8271.791,6741.902,6626.8584,0.2939644,0.0,0.0,0.0
152.5627,152.5627,1.849,0.0,0.0,305.63324,10927.0,100.0,0.0,0.08351365,0.0,8.0,1.0,0.0,4000000.0,110.0,1.0,0.0,0.0,10.0,0.0,0.0,-348.71985,26.915777,269.94247,-0.025518067,0.22387615,-0.22479223,310.68692,310.67767,305.51776,305.5082,256.0,256.0,283.0,278.0,97.0,97.0,97.0,97.0,0.0,0.0,0.0,0.0,0.047162514,0.047298055,0.05339762,0.053531177,0.0,0.0,0.0,0.0,-2334.514,-3917.2456,-488.57776,-542.4767,0.0,0.0,0.0,2.0,1.0,-2.6313937,0.014929191,0.0029963255,97.0,97.0,97.0,97.0,21.302864,21.302864,24.666473,24.666473,0.01638347,0.016384576,-4.1549228E-4,-4.0884622E-4,1128.5458,0.0,0.0,0.0,0.0,0.0,0.0,0.0,0.0,0.0,0.0,0.0,0.0,0.0,-41.45865,-0.04863587,-74.08691,-0.056639932,-9.888557E-4,0.026400322,548397.25,119984.89,0.007501866,0.009394688,7850.6343,7852.6533,6156.722,6268.2593,0.29726124,0.0,0.0,0.0
156.81079,156.81079,1.899,0.0,0.0,306.03033,10951.0,100.0,0.0,-0.027120247,0.0,8.0,1.0,0.0,4000000.0,110.0,1.0,0.0,0.0,10.0,0.0,0.0,-350.79407,26.90796,266.2354,-0.011382006,0.22723706,-0.43908513,311.3738,311.38733,305.91174,305.90723,255.0,255.0,282.0,277.0,97.0,97.0,97.0,97.0,0.0,0.0,0.0,0.0,0.042866215,0.042649582,0.052783202,0.052924424,0.0,0.0,0.0,0.0,1393.5815,2021.0306,-2785.0715,-1696.0812,0.0,0.0,0.0,2.0,1.0,-2.6314402,0.014675387,0.005999446,97.0,97.0,97.0,97.0,21.302864,21.302864,24.666473,24.666473,0.017482847,0.017526213,-4.0418244E-4,-4.1504478E-4,1131.9015,0.0,0.0,0.0,0.0,0.0,0.0,0.0,0.0,0.0,0.0,0.0,0.0,0.0,-41.507294,-0.25133032,-74.18567,-0.044413567,5.240664E-4,0.030716311,548822.44,119984.89,0.014517232,0.017816069,7172.4644,7132.894,5934.1074,6041.228,0.30564022,0.0,0.0,0.0
161.06421,161.06421,1.949,0.0,0.0,306.4094,10969.0,100.0,0.0,0.07830735,0.0,8.0,1.0,0.0,4000000.0,110.0,1.0,0.0,0.0,10.0,0.0,0.0,-352.8706,26.88994,262.52356,-0.026666284,0.2109693,-0.31682906,311.8669,311.88022,306.29263,306.26883,254.0,253.0,281.0,276.0,97.0,97.0,97.0,97.0,0.0,0.0,0.0,0.0,0.04036022,0.03994872,0.05329552,0.053429086,0.0,0.0,0.0,0.0,301.98965,687.82556,684.07056,571.63226,0.0,0.0,0.0,2.0,1.0,-2.6315227,0.013974846,0.00812006,97.0,97.0,97.0,97.0,21.302864,21.302864,24.666473,24.666473,0.017902397,0.018006438,-4.1080403E-4,-4.0770957E-4,1134.3853,0.0,0.0,0.0,0.0,0.0,0.0,0.0,0.0,0.0,0.0,0.0,0.0,0.0,-41.54962,-0.44141623,-74.28176,0.013083159,-0.004133496,0.013302237,549124.1,119984.89,0.0144312885,0.023652686,6909.3545,6845.043,6845.984,6898.1143,0.3138075,0.0,0.0,0.0
165.32286,165.32286,1.999,0.0,0.0,306.80127,10963.0,100.0,0.0,0.13402063,0.0,8.0,1.0,0.0,4000000.0,110.0,1.0,0.0,0.0,10.0,0.0,0.0,-354.94922,26.866596,258.80685,-0.032338105,0.22110894,3.8016727E-4,311.7005,311.71997,306.67584,306.64594,253.0,252.0,280.0,275.0,97.0,97.0,97.0,97.0,0.0,0.0,0.0,0.0,0.043912843,0.044075917,0.053940263,0.054198842,0.0,0.0,0.0,0.0,-1241.9833,1258.1172,-1711.0344,-526.58466,0.0,0.0,0.0,2.0,1.0,-2.6317682,0.013207724,0.005691886,97.0,97.0,97.0,97.0,21.302864,21.302864,24.666473,24.666473,0.01611744,0.016212195,-4.302674E-4,-4.2237816E-4,1133.5726,0.0,0.0,0.0,0.0,0.0,0.0,0.0,0.0,0.0,0.0,0.0,0.0,0.0,-41.59115,-0.46897903,-74.38309,0.066001505,-0.0060083945,-0.008958185,549031.1,119984.9,0.010038053,0.015255997,8035.672,8036.997,6905.0327,7105.0684,0.31160355,0.0,0.0,0.0
169.58711,169.58711,2.049,0.0,0.0,307.20816,10965.0,100.0,0.0,-0.031416547,0.0,8.0,1.0,0.0,4000000.0,110.0,1.0,0.0,0.0,10.0,0.0,0.0,-357.02975,26.846241,255.08482,-0.023601495,0.23762485,0.4842493,311.75058,311.76614,307.08005,307.0542,252.0,251.0,279.0,274.0,97.0,97.0,97.0,97.0,0.0,0.0,0.0,0.0,0.050302695,0.050292917,0.055012796,0.054670423,0.0,0.0,0.0,0.0,-5316.017,-2504.19,-499.9905,542.70465,0.0,0.0,0.0,2.0,1.0,-2.6321115,0.012510771,0.002806425,97.0,97.0,97.0,97.0,21.302864,21.302864,24.666473,24.666473,0.014857883,0.014980065,-4.329799E-4,-4.4556079E-4,1133.8531,0.0,0.0,0.0,0.0,0.0,0.0,0.0,0.0,0.0,0.0,0.0,0.0,0.0,-41.630512,-0.315304,-74.49138,0.02766953,-0.004371768,-0.03492351,549066.8,119984.89,0.005213957,0.005423712,9260.351,9147.213,7773.357,7628.5967,0.29960918,0.0,0.0,0.0
173.85703,173.85703,2.099,0.0,0.0,307.60257,10985.0,100.0,0.0,0.0688772,0.0,8.0,1.0,0.0,4000000.0,110.0,1.0,0.0,0.0,10.0,0.0,0.0,-359.11237,26.835781,251.35745,-0.034409307,0.2179196,0.25965983,312.3353,312.30118,307.48322,307.4605,251.0,250.0,278.0,273.0,97.0,97.0,97.0,97.0,0.0,0.0,0.0,0.0,0.048658315,0.04883959,0.05501904,0.054555904,0.0,0.0,0.0,0.0,366.89938,491.36716,-876.519,-948.8313,0.0,0.0,0.0,2.0,1.0,-2.6322694,0.012732331,0.00260365,97.0,97.0,97.0,97.0,21.302864,21.302864,24.666473,24.666473,0.015328815,0.015286374,-4.3119548E-4,-4.2153275E-4,1136.625,0.0,0.0,0.0,0.0,0.0,0.0,0.0,0.0,0.0,0.0,0.0,0.0,0.0,-41.669064,-0.13602124,-74.59589,-0.014728073,-0.004163148,-0.0017985268,549406.94,119984.9,0.0043277773,0.005421681,8750.36,8847.698,7522.669,7272.0195,0.29626083,0.0,0.0,0.0
178.1323,178.1323,2.149,0.0,0.0,307.98044,11013.0,100.0,0.0,0.1393082,0.0,8.0,1.0,0.0,4000000.0,110.0,1.0,0.0,0.0,10.0,0.0,0.0,-361.19684,26.828733,247.62498,-0.04062265,0.21196659,-0.27522698,313.13254,313.09775,307.87537,307.844,250.0,249.0,277.0,272.0,97.0,97.0,97.0,97.0,0.0,0.0,0.0,0.0,0.04623522,0.04655207,0.0536393,0.053464286,0.0,0.0,0.0,0.0,-1443.2292,-1025.3146,-150.78036,751.51465,0.0,0.0,0.0,2.0,1.0,-2.6324658,0.013836805,0.004426837,97.0,97.0,97.0,97.0,21.302864,21.302864,24.666473,24.666473,0.016651245,0.016611367,-4.1356424E-4,-4.0473943E-4,1140.0702,0.0,0.0,0.0,0.0,0.0,0.0,0.0,0.0,0.0,0.0,0.0,0.0,0.0,-41.70646,-0.18656726,-74.695114,-0.054385144,-0.0049970606,0.011502723,549671.2,119984.89,0.010625263,0.011982706,7591.084,7671.7847,6403.939,6409.2305,0.3029089,0.0,0.0,0.0
182.41277,182.41277,2.199,0.0,0.0,308.35278,11030.0,100.0,0.0,0.09994004,0.0,8.0,1.0,0.0,4000000.0,110.0,1.0,0.0,0.0,10.0,0.0,0.0,-363.28305,26.814299,243.88757,-0.046383653,0.21653348,-0.28812584,313.6121,313.6177,308.24026,308.207,249.0,248.0,276.0,271.0,97.0,97.0,97.0,97.0,0.0,0.0,0.0,0.0,0.042810544,0.04257269,0.053399578,0.05369562,0.0,0.0,0.0,0.0,1895.745,2757.6323,900.6723,335.36993,0.0,0.0,0.0,2.0,1.0,-2.632704,0.013987766,0.006376505,97.0,97.0,97.0,97.0,21.302864,21.302864,24.666473,24.666473,0.017166484,0.017249815,-4.148453E-4,-4.1557942E-4,1141.8689,0.0,0.0,0.0,0.0,0.0,0.0,0.0,0.0,0.0,0.0,0.0,0.0,0.0,-41.740368,-0.36553782,-74.793976,0.0044398797,-0.0053753094,0.018350521,549689.9,119984.9,0.010565172,0.017224768,7334.298,7289.3154,6785.6807,6926.7144,0.30564117,0.0,0.0,0.0
186.69846,186.69846,2.249,0.0,0.0,308.7225,11027.0,100.0,0.0,0.08848487,0.0,8.0,1.0,0.0,4000000.0,110.0,1.0,0.0,0.0,10.0,0.0,0.0,-365.37082,26.796066,240.14503,-0.048190493,0.20047155,0.2011494,313.51212,313.5227,308.6048,308.5638,248.0,247.0,275.0,270.0,97.0,97.0,97.0,97.0,0.0,0.0,0.0,0.0,0.047868375,0.046719156,0.05474051,0.054529168,0.0,0.0,0.0,0.0,-1612.2354,-103.412926,-4457.3213,-1525.6,0.0,0.0,0.0,2.0,1.0,-2.6330578,0.012912495,0.004696369,97.0,97.0,97.0,97.0,21.302864,21.302864,24.666473,24.666473,0.015546446,0.015686838,-4.1674223E-4,-4.2045632E-4,1141.5515,0.0,0.0,0.0,0.0,0.0,0.0,0.0,0.0,0.0,0.0,0.0,0.0,0.0,-41.767494,-0.32467544,-74.89663,0.05063524,-0.0073949834,-0.01856289,549686.6,119984.89,0.010488313,0.012752605,8560.312,8425.62,7406.5195,7392.9604,0.30340672,0.0,0.0,0.0
190.98973,190.98973,2.299,0.0,0.0,309.07495,11040.0,100.0,0.0,-0.05528666,0.0,8.0,1.0,0.0,4000000.0,110.0,1.0,0.0,0.0,10.0,0.0,0.0,-367.46005,26.781828,236.39772,-0.024683401,0.19287854,0.1774026,313.86914,313.89444,308.9445,308.94907,247.0,246.0,274.0,269.0,97.0,97.0,97.0,97.0,0.0,0.0,0.0,0.0,0.048431594,0.048413478,0.054151896,0.054451056,0.0,0.0,0.0,0.0,-1101.4893,-3266.4475,1204.5397,813.7821,0.0,0.0,0.0,2.0,1.0,-2.6332016,0.012749781,0.0037056208,97.0,97.0,97.0,97.0,21.302864,21.302864,24.666473,24.666473,0.015522086,0.015591967,-4.0690554E-4,-4.1850706E-4,1142.9257,0.0,0.0,0.0,0.0,0.0,0.0,0.0,0.0,0.0,0.0,0.0,0.0,0.0,-41.800743,-0.24684417,-74.990486,0.005435615,0.0013345152,0.008784038,549700.25,119984.89,0.012226656,0.013315017,8591.402,8456.158,7164.9863,7309.1426,0.30626965,0.0,0.0,0.0
195.28601,195.28601,2.349,0.0,0.0,309.40338,11057.0,100.0,0.0,-0.018162454,0.0,8.0,1.0,0.0,4000000.0,110.0,1.0,0.0,0.0,10.0,0.0,0.0,-369.55103,26.771128,232.64601,-0.0047734454,0.18950485,-0.1294582,314.37714,314.3796,309.26212,309.2758,246.0,245.0,273.0,268.0,97.0,97.0,97.0,97.0,0.0,0.0,0.0,0.0,0.04705529,0.047252297,0.054030165,0.054389358,0.0,0.0,0.0,0.0,-3752.3162,-1937.5874,-3034.624,-1449.0364,0.0,0.0,0.0,2.0,1.0,-2.6331007,0.011797362,0.0025485754,97.0,97.0,97.0,97.0,21.302864,21.302864,24.666473,24.666473,0.016252087,0.0161538,-4.1527505E-4,-4.1420702E-4,1144.724,0.0,0.0,0.0,0.0,0.0,0.0,0.0,0.0,0.0,0.0,0.0,0.0,0.0,-41.839153,-0.21397573,-75.07362,0.047157884,0.0019810633,0.018155823,549718.7,119984.9,0.010787063,0.013337672,7761.7305,7919.8193,6625.3237,6873.202,0.31129742,0.0,0.0,0.0
199.58719,199.58719,2.399,0.0,0.0,309.766,11056.0,100.0,0.0,-0.06107237,0.0,8.0,1.0,0.0,4000000.0,110.0,1.0,0.0,0.0,10.0,0.0,0.0,-371.64423,26.762878,228.88994,0.008537911,0.20644942,0.46120217,314.33447,314.32193,309.61996,309.62967,244.0,244.0,272.0,267.0,97.0,97.0,97.0,97.0,0.0,0.0,0.0,0.0,0.049815357,0.049968425,0.05545979,0.05484642,0.0,0.0,0.0,0.0,-1204.8613,932.7516,-698.7287,323.31342,0.0,0.0,0.0,2.0,1.0,-2.6330547,0.011407255,2.0599365E-4,97.0,97.0,97.0,97.0,21.302864,21.302864,24.666473,24.666473,0.0148575455,0.014809255,-4.2940592E-4,-4.2818146E-4,1144.6176,0.0,0.0,0.0,0.0,0.0,0.0,0.0,0.0,0.0,0.0,0.0,0.0,0.0,-41.88667,-0.07847754,-75.16271,0.031274036,8.4962934E-4,-0.059819758,549717.25,119984.9,0.0058542057,0.006758757,9181.984,9232.734,8109.857,7821.0244,0.3043003,0.0,0.0,0.0
203.8918,203.8918,2.449,0.0,0.0,309.43784,11063.0,100.0,0.0,0.020560805,0.0,8.0,1.0,0.0,4000000.0,110.0,1.0,0.0,0.0,10.0,0.0,0.0,-373.73865,26.763882,225.13063,-0.16079484,-0.3685704,0.94100887,314.57822,314.517,309.6409,309.63297,243.0,243.0,271.0,266.0,97.0,97.0,97.0,97.0,0.0,0.0,0.0,0.0,0.048760768,0.048899703,0.054258075,0.053481262,0.0,0.0,0.0,0.0,744.0313,117.614815,-4842.9023,-5609.45,0.0,0.0,0.0,2.0,1.0,-2.6330822,0.0121321585,-0.0017384291,97.0,97.0,97.0,97.0,21.302864,21.302864,24.666473,24.666473,0.015579474,0.015436612,-4.9621036E-4,-4.6961044E-4,1145.3589,0.0,0.0,0.0,0.0,0.0,0.0,0.0,0.0,0.0,0.0,0.0,0.0,0.0,-41.791023,0.29855382,-75.111084,-0.010950596,2.191847E-5,-0.025563076,549725.25,119984.89,0.0033015213,0.0026419263,8700.835,8874.436,6377.288,6013.9565,0.29266453,0.0,0.0,0.0
208.19379,208.19379,2.499,0.0,0.0,309.82962,11093.0,100.0,0.0,0.12581664,0.0,8.0,1.0,0.0,4000000.0,110.0,1.0,0.0,0.0,10.0,0.0,0.0,-375.83023,26.772394,221.37273,0.015368767,0.20363665,-0.72983843,315.4567,315.36923,309.7418,309.69812,242.0,242.0,270.0,265.0,97.0,97.0,97.0,97.0,0.0,0.0,0.0,0.0,0.042249143,0.04342299,0.05207986,0.052173045,0.0,0.0,0.0,0.0,-1484.3746,-2541.1782,1488.1564,1325.3732,0.0,0.0,0.0,2.0,1.0,-2.6332293,0.014464487,0.0026876926,97.0,97.0,97.0,97.0,21.302864,21.302864,24.666473,24.666473,0.018037256,0.01787723,-3.9921596E-4,-3.9204088E-4,1148.5311,0.0,0.0,0.0,0.0,0.0,0.0,0.0,0.0,0.0,0.0,0.0,0.0,0.0,-41.86186,0.016574774,-75.1968,-0.11759865,-0.006215892,0.032737143,549757.0,119984.91,0.011728761,0.014612566,6535.8867,6744.632,5622.7417,5726.9775,0.29717827,0.0,0.0,0.0
212.5008,212.5008,2.549,0.0,0.0,310.18057,11106.0,100.0,0.0,0.007715067,0.0,8.0,1.0,0.0,4000000.0,110.0,1.0,0.0,0.0,10.0,0.0,0.0,-377.92484,26.764614,217.61076,-0.004543826,0.20086987,-0.60886115,315.79803,315.7667,310.06967,310.04913,241.0,241.0,269.0,264.0,97.0,97.0,97.0,97.0,0.0,0.0,0.0,0.0,0.038141318,0.03874492,0.052593347,0.052887112,0.0,0.0,0.0,0.0,2075.9224,2674.484,-133.39964,-296.1427,0.0,0.0,0.0,2.0,1.0,-2.633434,0.015282621,0.0071077347,97.0,97.0,97.0,97.0,21.302864,21.302864,24.666473,24.666473,0.0182129,0.018144885,-3.9841732E-4,-4.0402924E-4,1149.9061,0.0,0.0,0.0,0.0,0.0,0.0,0.0,0.0,0.0,0.0,0.0,0.0,0.0,-41.915714,-0.30142435,-75.277794,-0.041608315,-0.0024927673,0.025991663,549770.9,119984.914,0.013286545,0.022316152,6566.657,6644.25,6243.218,6388.1016,0.3076067,0.0,0.0,0.0
216.81264,216.81264,2.599,0.0,0.0,310.5284,11100.0,100.0,0.0,-0.0033504046,0.0,8.0,1.0,0.0,4000000.0,110.0,1.0,0.0,0.0,10.0,0.0,0.0,-380.02173,26.74522,213.84454,-0.014933281,0.1886801,-0.07860121,315.6052,315.581,310.3991,310.3853,240.0,239.0,268.0,263.0,97.0,97.0,97.0,97.0,0.0,0.0,0.0,0.0,0.041770007,0.041068688,0.05423539,0.054077122,0.0,0.0,0.0,0.0,1871.0549,1660.1128,-3138.9485,-824.4171,0.0,0.0,0.0,2.0,1.0,-2.6335852,0.014633361,0.007058382,97.0,97.0,97.0,97.0,21.302864,21.302864,24.666473,24.666473,0.016473897,0.016436107,-4.099817E-4,-4.126823E-4,1149.2709,0.0,0.0,0.0,0.0,0.0,0.0,0.0,0.0,0.0,0.0,0.0,0.0,0.0,-41.956448,-0.41949153,-75.36514,0.046234816,-0.0028956584,-0.013019369,549764.2,119984.91,0.01186946,0.019241394,7726.939,7764.849,7304.5874,7274.7236,0.3069706,0.0,0.0,0.0
221.12918,221.12918,2.649,0.0,0.0,310.86462,11102.0,100.0,0.0,-0.047635052,0.0,8.0,1.0,0.0,4000000.0,110.0,1.0,0.0,0.0,10.0,0.0,0.0,-382.12064,26.724394,210.07408,-0.005626291,0.19011508,0.10900943,315.64038,315.66653,310.72565,310.73608,239.0,238.0,267.0,262.0,97.0,97.0,97.0,97.0,0.0,0.0,0.0,0.0,0.047836766,0.04740531,0.054020625,0.05433992,0.0,0.0,0.0,0.0,-921.1239,-1391.168,58.364864,-71.68204,0.0,0.0,0.0,2.0,1.0,-2.6336098,0.014279854,0.0046156645,97.0,97.0,97.0,97.0,21.302864,21.302864,24.666473,24.666473,0.015452215,0.0155035835,-4.0792857E-4,-4.170619E-4,1149.4833,0.0,0.0,0.0,0.0,0.0,0.0,0.0,0.0,0.0,0.0,0.0,0.0,0.0,-41.997826,-0.39855662,-75.44911,0.035971023,0.0017602306,-0.0034064278,549766.7,119984.9,0.012476791,0.013088527,8577.236,8494.465,6988.541,7160.6616,0.30449963,0.0,0.0,0.0
225.4503,225.4503,2.699,0.0,0.0,311.18594,11121.0,100.0,0.0,-0.08591898,0.0,8.0,1.0,0.0,4000000.0,110.0,1.0,0.0,0.0,10.0,0.0,0.0,-384.2217,26.706451,206.29956,0.018400662,0.17429656,-0.22146624,316.20425,316.20172,311.04593,311.07404,238.0,237.0,266.0,261.0,97.0,97.0,97.0,97.0,0.0,0.0,0.0,0.0,0.046941463,0.047272887,0.05366302,0.053936828,0.0,0.0,0.0,0.0,-7199.0215,-7080.3867,-3210.0808,-2196.1118,0.0,0.0,0.0,2.0,1.0,-2.6334307,0.013636581,0.0043147802,97.0,97.0,97.0,97.0,21.302864,21.302864,24.666473,24.666473,0.01623147,0.0161088,-4.061425E-4,-4.0906394E-4,1151.4932,0.0,0.0,0.0,0.0,0.0,0.0,0.0,0.0,0.0,0.0,0.0,0.0,0.0,-42.044712,-0.36480936,-75.52534,-0.0046238797,0.005132326,0.025484633,549787.06,119984.91,0.011967235,0.01342044,7661.3413,7796.8564,6297.9746,6471.549,0.30613327,0.0,0.0,0.0
229.776,229.776,2.749,0.0,0.0,311.5189,11121.0,100.0,0.0,-0.059989385,0.0,8.0,1.0,0.0,4000000.0,110.0,1.0,0.0,0.0,10.0,0.0,0.0,-386.32535,26.689089,202.52126,0.024985708,0.18732883,0.33744845,316.18872,316.18103,311.3666,311.38757,237.0,236.0,265.0,260.0,97.0,97.0,97.0,97.0,0.0,0.0,0.0,0.0,0.04871836,0.04876658,0.055266827,0.05515852,0.0,0.0,0.0,0.0,2619.539,3748.5073,-621.07886,-76.013824,0.0,0.0,0.0,2.0,1.0,-2.6332407,0.013268939,0.0030127764,97.0,97.0,97.0,97.0,21.302864,21.302864,24.666473,24.666473,0.015140234,0.015065,-4.2417686E-4,-4.218098E-4,1151.4924,0.0,0.0,0.0,0.0,0.0,0.0,0.0,0.0,0.0,0.0,0.0,0.0,0.0,-42.097504,-0.2871055,-75.60213,0.052481085,0.0023501813,-0.04529166,549786.75,119984.9,0.0065415488,0.008860541,8862.761,8928.809,8111.482,8066.113,0.30286503,0.0,0.0,0.0
234.10643,234.10643,2.799,0.0,0.0,311.6954,11129.0,100.0,0.0,-0.030875197,0.0,8.0,1.0,0.0,4000000.0,110.0,1.0,0.0,0.0,10.0,0.0,0.0,-388.43155,26.679623,198.73895,0.013964586,0.1936889,0.46942547,316.41428,316.375,311.73227,311.72507,236.0,235.0,264.0,260.0,97.0,97.0,97.0,97.0,0.0,0.0,0.0,0.0,0.049606808,0.049816363,0.055452462,0.055264637,0.0,0.0,0.0,0.0,-462.976,-62.093147,-394.848,-562.8212,0.0,0.0,0.0,2.0,1.0,-2.6332524,0.013623903,0.0010228157,97.0,97.0,97.0,97.0,21.302864,21.302864,24.666473,24.666473,0.014599916,0.014497591,-4.2705488E-4,-4.2767805E-4,1152.3375,0.0,0.0,0.0,0.0,0.0,0.0,0.0,0.0,0.0,0.0,0.0,0.0,0.0,-42.11167,-0.013802648,-75.65091,0.033001237,-5.674269E-4,-0.023312654,549794.75,119984.91,3.9648847E-4,0.0032420927,9286.201,9445.467,7979.96,7869.7393,0.2935009,0.0,0.0,0.0
238.43942,238.43942,2.849,0.0,0.0,312.0494,11150.0,100.0,0.0,-0.0089226635,0.0,8.0,1.0,0.0,4000000.0,110.0,1.0,0.0,0.0,10.0,0.0,0.0,-390.5387,26.68117,194.95424,0.020663433,0.19131406,-0.14405094,317.05054,317.0039,311.9218,311.92734,235.0,234.0,263.0,259.0,97.0,97.0,97.0,97.0,0.0,0.0,0.0,0.0,0.047277745,0.04759993,0.054195836,0.05414208,0.0,0.0,0.0,0.0,-564.7524,-597.52893,46.469303,374.10104,0.0,0.0,0.0,2.0,1.0,-2.6332142,0.0145640895,0.0014879704,97.0,97.0,97.0,97.0,21.302864,21.302864,24.666473,24.666473,0.01596824,0.015810687,-4.1117208E-4,-4.0813163E-4,1154.5607,0.0,0.0,0.0,0.0,0.0,0.0,0.0,0.0,0.0,0.0,0.0,0.0,0.0,-42.170074,0.022509774,-75.730934,-0.04104275,0.0012446682,0.001870187,549817.94,119984.91,0.0016565274,0.0053488985,7950.171,8127.382,6842.623,6853.035,0.29468346,0.0,0.0,0.0
242.77713,242.77713,2.899,0.0,0.0,312.3758,11165.0,100.0,0.0,-0.026506191,0.0,8.0,1.0,0.0,4000000.0,110.0,1.0,0.0,0.0,10.0,0.0,0.0,-392.6485,26.68389,191.16562,0.013868451,0.1774056,-0.29595965,317.4751,317.42166,312.25113,312.25363,234.0,233.0,262.0,258.0,97.0,97.0,97.0,97.0,0.0,0.0,0.0,0.0,0.046881653,0.04725234,0.05398853,0.05400468,0.0,0.0,0.0,0.0,-2599.3418,-1884.9087,-671.1289,-845.6602,0.0,0.0,0.0,2.0,1.0,-2.6331832,0.015541891,0.0022298098,97.0,97.0,97.0,97.0,21.302864,21.302864,24.666473,24.666473,0.016274778,0.016098915,-3.986635E-4,-3.9863176E-4,1156.147,0.0,0.0,0.0,0.0,0.0,0.0,0.0,0.0,0.0,0.0,0.0,0.0,0.0,-42.22049,0.01861832,-75.80663,-0.029349623,7.324273E-4,0.0014151679,549833.7,119984.9,0.0070565226,0.010546329,7707.8135,7890.0347,6566.299,6572.9785,0.3008442,0.0,0.0,0.0
247.11928,247.11928,2.949,0.0,0.0,312.7083,11177.0,100.0,0.0,0.016698657,0.0,8.0,1.0,0.0,4000000.0,110.0,1.0,0.0,0.0,10.0,0.0,0.0,-394.76074,26.679243,187.37326,-0.0037375912,0.20111762,-0.2898445,317.7906,317.7674,312.5871,312.5705,233.0,232.0,261.0,257.0,97.0,97.0,97.0,97.0,0.0,0.0,0.0,0.0,0.043812986,0.044207666,0.053704068,0.05361978,0.0,0.0,0.0,0.0,4764.689,4333.805,504.30887,316.43356,0.0,0.0,0.0,2.0,1.0,-2.6332517,0.015882915,0.003310442,97.0,97.0,97.0,97.0,21.302864,21.302864,24.666473,24.666473,0.016369078,0.0163558,-4.1320108E-4,-4.1259525E-4,1157.4158,0.0,0.0,0.0,0.0,0.0,0.0,0.0,0.0,0.0,0.0,0.0,0.0,0.0,-42.267216,-0.1751552,-75.88613,-0.0065866094,-0.002899061,-0.0059090024,549846.1,119984.91,0.008360803,0.01223426,7744.91,7773.3555,6874.752,6821.1885,0.3019743,0.0,0.0,0.0
251.46611,251.46611,2.999,0.0,0.0,313.03815,11184.0,100.0,0.0,-0.09350582,0.0,8.0,1.0,0.0,4000000.0,110.0,1.0,0.0,0.0,10.0,0.0,0.0,-396.87534,26.668165,183.57687,0.008460484,0.18040289,-0.1600161,317.98563,317.98776,312.9112,312.92557,232.0,231.0,260.0,256.0,97.0,97.0,97.0,97.0,0.0,0.0,0.0,0.0,0.0456488,0.04595974,0.053271644,0.05345899,0.0,0.0,0.0,0.0,-886.2822,-1275.1222,-183.98608,-90.779366,0.0,0.0,0.0,2.0,1.0,-2.633238,0.01633643,0.0042335987,97.0,97.0,97.0,97.0,21.302864,21.302864,24.666473,24.666473,0.015830142,0.015784247,-3.947981E-4,-4.055144E-4,1158.1572,0.0,0.0,0.0,0.0,0.0,0.0,0.0,0.0,0.0,0.0,0.0,0.0,0.0,-42.31567,-0.25986794,-75.963776,-0.044551093,0.0037114178,0.021710392,549854.0,119984.91,0.01407396,0.012960163,8090.5674,8120.236,6376.8555,6493.048,0.30427456,0.0,0.0,0.0
255.81438,255.81438,3.049,0.0,0.0,313.30627,11224.0,100.0,0.0,0.04187972,0.0,8.0,1.0,0.0,4000000.0,110.0,1.0,0.0,0.0,10.0,0.0,0.0,-398.9922,26.651226,179.777,0.0013585538,0.13570912,-0.97699493,319.14053,319.1424,313.18988,313.19888,231.0,230.0,259.0,255.0,97.0,97.0,97.0,97.0,0.0,0.0,0.0,0.0,0.04135406,0.041474916,0.05197246,0.05244954,0.0,0.0,0.0,0.0,-9306.058,-8656.199,-4596.2866,-4108.822,0.0,0.0,0.0,2.0,1.0,-2.63303,0.015709868,0.007483244,97.0,97.0,97.0,97.0,21.302864,21.302864,24.666473,24.666473,0.018650768,0.018597081,-3.7715188E-4,-3.687956E-4,1162.3894,0.0,0.0,0.0,0.0,0.0,0.0,0.0,0.0,0.0,0.0,0.0,0.0,0.0,-42.35652,-0.49122888,-76.02514,-0.047612354,0.0025096335,0.064469784,549896.56,119984.91,0.01829014,0.0229936,5841.8555,5902.269,4868.013,5122.1084,0.3130846,0.0,0.0,0.0
260.16626,260.16626,3.099,0.0,0.0,313.627,11203.0,100.0,0.0,-0.19308916,0.0,8.0,1.0,0.0,4000000.0,110.0,1.0,0.0,0.0,10.0,0.0,0.0,-401.1114,26.621363,175.9738,0.03518612,0.1698907,0.13252708,318.50818,318.52197,313.4679,313.50266,230.0,229.0,258.0,254.0,97.0,97.0,97.0,97.0,0.0,0.0,0.0,0.0,0.04314097,0.042547643,0.05512469,0.054980353,0.0,0.0,0.0,0.0,7645.3677,7838.111,-1492.9174,1491.8446,0.0,0.0,0.0,2.0,1.0,-2.6328974,0.014493232,0.0074083805,97.0,97.0,97.0,97.0,21.302864,21.302864,24.666473,24.666473,0.015797205,0.015750447,-4.0777077E-4,-4.1952333E-4,1160.1667,0.0,0.0,0.0,0.0,0.0,0.0,0.0,0.0,0.0,0.0,0.0,0.0,0.0,-42.40965,-0.6036946,-76.09672,0.07181923,0.0050608763,-0.042019315,549873.9,119984.9,0.009537972,0.016826048,8248.325,8233.487,8127.425,8137.292,0.3071518,0.0,0.0,0.0
264.5209,264.5209,3.149,0.0,0.0,313.19897,11188.0,100.0,0.0,-0.2795574,0.0,8.0,1.0,0.0,4000000.0,110.0,1.0,0.0,0.0,10.0,0.0,0.0,-403.2321,26.596113,172.1683,-0.110354796,-0.40100548,1.2698646,318.0931,318.0836,313.41864,313.44083,229.0,228.0,257.0,253.0,97.0,97.0,97.0,97.0,0.0,0.0,0.0,0.0,0.051384296,0.051339597,0.054531105,0.05459867,0.0,0.0,0.0,0.0,-2686.7952,-4196.986,-4248.109,-4920.3105,0.0,0.0,0.0,2.0,1.0,-2.6327195,0.014400273,0.0019298792,97.0,97.0,97.0,97.0,21.302864,21.302864,24.666473,24.666473,0.014632248,0.014567225,-4.851293E-4,-5.1973097E-4,1158.5806,0.0,0.0,0.0,0.0,0.0,0.0,0.0,0.0,0.0,0.0,0.0,0.0,0.0,-42.31226,-0.16360709,-76.017075,0.026265841,-6.5935566E-4,-0.04120084,549858.3,119984.9,0.0016416275,9.1830146E-4,9528.676,9531.421,6778.699,6783.8203,0.2928276,0.0,0.0,0.0
268.87076,268.87076,3.199,0.0,0.0,313.27853,11207.0,100.0,0.0,-0.12325855,0.0,8.0,1.0,0.0,4000000.0,110.0,1.0,0.0,0.0,10.0,0.0,0.0,-405.34955,26.58935,168.36647,0.03557728,0.02241792,-0.27689743,318.66113,318.63483,313.2681,313.27792,228.0,227.0,256.0,252.0,97.0,97.0,97.0,97.0,0.0,0.0,0.0,0.0,0.045644876,0.046345945,0.052795444,0.053403333,0.0,0.0,0.0,0.0,-4.9218745,-23.925016,743.92395,-200.52199,0.0,0.0,0.0,2.0,1.0,-2.632526,0.01492765,0.004214406,97.0,97.0,97.0,97.0,21.302864,21.302864,24.666473,24.666473,0.016737634,0.016609455,-3.9931634E-4,-4.134259E-4,1160.5907,0.0,0.0,0.0,0.0,0.0,0.0,0.0,0.0,0.0,0.0,0.0,0.0,0.0,-42.348442,-0.13265511,-76.022285,-0.02012294,5.4323213E-4,0.03337218,549878.5,119984.9,0.0054208334,0.008389081,7367.5483,7495.2324,5988.124,6243.1973,0.29318428,0.0,0.0,0.0
273.2225,273.2225,3.249,0.0,0.0,313.61075,11215.0,100.0,0.0,-0.05571741,0.0,8.0,1.0,0.0,4000000.0,110.0,1.0,0.0,0.0,10.0,0.0,0.0,-407.469,26.578161,164.56357,0.04831593,0.1782295,-0.49972904,318.87204,318.86935,313.4858,313.49524,227.0,226.0,255.0,251.0,97.0,97.0,97.0,97.0,0.0,0.0,0.0,0.0,0.04376313,0.043922577,0.052889906,0.053255036,0.0,0.0,0.0,0.0,-504.34912,-273.22333,-3.2320688,200.26707,0.0,0.0,0.0,2.0,1.0,-2.6324425,0.014066776,0.006093502,97.0,97.0,97.0,97.0,21.302864,21.302864,24.666473,24.666473,0.016801775,0.016775582,-3.958E-4,-3.9767395E-4,1161.4369,0.0,0.0,0.0,0.0,0.0,0.0,0.0,0.0,0.0,0.0,0.0,0.0,0.0,-42.42044,-0.33017895,-76.087204,-0.035656445,0.0022914961,0.033954315,549886.9,119984.91,0.009746209,0.014587492,7339.658,7354.453,6200.2344,6361.3164,0.29868603,0.0,0.0,0.0
277.5786,277.5786,3.299,0.0,0.0,313.9253,11218.0,100.0,0.0,0.025189223,0.0,8.0,1.0,0.0,4000000.0,110.0,1.0,0.0,0.0,10.0,0.0,0.0,-409.59152,26.55689,160.7574,0.018338181,0.174062,-0.17862457,318.95264,318.95078,313.80417,313.79233,226.0,225.0,254.0,250.0,97.0,97.0,97.0,97.0,0.0,0.0,0.0,0.0,0.043580562,0.043493476,0.053724967,0.053954683,0.0,0.0,0.0,0.0,2306.0022,2289.3323,-1990.3597,-1365.2844,0.0,0.0,0.0,2.0,1.0,-2.6324492,0.013431607,0.007602453,97.0,97.0,97.0,97.0,21.302864,21.302864,24.666473,24.666473,0.016081313,0.016109217,-4.0440232E-4,-4.0270961E-4,1161.7545,0.0,0.0,0.0,0.0,0.0,0.0,0.0,0.0,0.0,0.0,0.0,0.0,0.0,-42.475334,-0.4768532,-76.15586,1.6904855E-4,-0.0019627148,0.016207166,549890.1,119984.91,0.011526343,0.015653789,7889.832,7881.4604,6934.478,7046.742,0.30486012,0.0,0.0,0.0
281.9388,281.9388,3.349,0.0,0.0,314.21457,11226.0,100.0,0.0,-0.05882288,0.0,8.0,1.0,0.0,4000000.0,110.0,1.0,0.0,0.0,10.0,0.0,0.0,-411.71652,26.531322,156.94789,0.0158327,0.16168801,-0.06953261,319.17355,319.16357,314.0845,314.08612,225.0,224.0,254.0,249.0,97.0,97.0,97.0,97.0,0.0,0.0,0.0,0.0,0.04505472,0.045030143,0.054109383,0.05416978,0.0,0.0,0.0,0.0,315.5485,600.33185,54.663387,61.020252,0.0,0.0,0.0,2.0,1.0,-2.6325054,0.013022607,0.0074944496,97.0,97.0,97.0,97.0,21.302864,21.302864,24.666473,24.666473,0.015857872,0.015829504,-3.9862396E-4,-4.042365E-4,1162.6002,0.0,0.0,0.0,0.0,0.0,0.0,0.0,0.0,0.0,0.0,0.0,0.0,0.0,-42.522045,-0.5329129,-76.22144,0.012549127,2.8575628E-4,-0.004959864,549898.3,119984.914,0.013096764,0.016478607,8057.65,8083.0127,7140.429,7154.077,0.3066082,0.0,0.0,0.0
286.30295,286.30295,3.399,0.0,0.0,314.4902,11240.0,100.0,0.0,-0.096123226,0.0,8.0,1.0,0.0,4000000.0,110.0,1.0,0.0,0.0,10.0,0.0,0.0,-413.8438,26.504292,153.13518,0.01925999,0.15401895,-0.38688573,319.5852,319.58493,314.35242,314.37292,224.0,223.0,253.0,248.0,97.0,97.0,97.0,97.0,0.0,0.0,0.0,0.0,0.04572489,0.04583519,0.05370828,0.053555597,0.0,0.0,0.0,0.0,-5836.1772,-6696.9116,-3020.9448,-3502.4685,0.0,0.0,0.0,2.0,1.0,-2.6324067,0.013433408,0.0066928864,97.0,97.0,97.0,97.0,21.302864,21.302864,24.666473,24.666473,0.016306095,0.016279778,-3.9651545E-4,-4.021456E-4,1164.0828,0.0,0.0,0.0,0.0,0.0,0.0,0.0,0.0,0.0,0.0,0.0,0.0,0.0,-42.56761,-0.5861656,-76.28331,-0.012690694,0.003532551,-0.021185722,549913.75,119984.9,0.012995298,0.015117002,7521.6074,7494.3745,6199.216,6106.1836,0.30610085,0.0,0.0,0.0
290.6711,290.6711,3.449,0.0,0.0,314.78998,11236.0,100.0,0.0,-0.14362153,0.0,8.0,1.0,0.0,4000000.0,110.0,1.0,0.0,0.0,10.0,0.0,0.0,-415.9735,26.475328,149.31918,0.033680037,0.16257674,0.34137714,319.43903,319.44995,314.63147,314.6647,223.0,222.0,252.0,247.0,97.0,97.0,97.0,97.0,0.0,0.0,0.0,0.0,0.04878152,0.04906819,0.05506407,0.055589695,0.0,0.0,0.0,0.0,3016.8542,2438.2886,161.84462,-383.85107,0.0,0.0,0.0,2.0,1.0,-2.6321957,0.013917586,0.005412221,97.0,97.0,97.0,97.0,21.302864,21.302864,24.666473,24.666473,0.014936804,0.014863021,-4.1021383E-4,-4.2329254E-4,1163.6583,0.0,0.0,0.0,0.0,0.0,0.0,0.0,0.0,0.0,0.0,0.0,0.0,0.0,-42.619022,-0.5212708,-76.35045,0.06657543,0.0052805245,-0.024818784,549908.94,119984.9,0.006286363,0.0087728575,8923.104,8965.186,8170.031,8424.861,0.30058956,0.0,0.0,0.0
295.04346,295.04346,3.499,0.0,0.0,315.07822,11236.0,100.0,0.0,-0.16893251,0.0,8.0,1.0,0.0,4000000.0,110.0,1.0,0.0,0.0,10.0,0.0,0.0,-418.1059,26.458765,145.49988,0.050477438,0.14859134,0.6725459,319.4269,319.45764,314.9163,314.96744,222.0,221.0,251.0,247.0,97.0,97.0,97.0,97.0,0.0,0.0,0.0,0.0,0.050773375,0.05077532,0.0559278,0.05624949,0.0,0.0,0.0,0.0,-1597.9528,-1251.76,-1232.6492,-821.73486,0.0,0.0,0.0,2.0,1.0,-2.631869,0.013443135,0.0025168657,97.0,97.0,97.0,97.0,21.302864,21.302864,24.666473,24.666473,0.013857926,0.013811369,-4.1282203E-4,-4.2179652E-4,1163.6589,0.0,0.0,0.0,0.0,0.0,0.0,0.0,0.0,0.0,0.0,0.0,0.0,0.0,-42.67247,-0.16299069,-76.41392,0.0238502,0.008668582,-0.010657327,549909.2,119984.92,0.0030040636,0.0045659863,10040.981,10043.785,8209.286,8370.904,0.29592037,0.0,0.0,0.0
299.41956,299.41956,3.549,0.0,0.0,315.33847,11261.0,100.0,0.0,-0.16257356,0.0,8.0,1.0,0.0,4000000.0,110.0,1.0,0.0,0.0,10.0,0.0,0.0,-420.24112,26.454994,141.67787,0.06816503,0.14830801,0.043051302,320.15292,320.1739,315.1754,315.24374,221.0,220.0,250.0,246.0,97.0,97.0,97.0,97.0,0.0,0.0,0.0,0.0,0.048187107,0.048272833,0.054938372,0.055359393,0.0,0.0,0.0,0.0,-52.37022,-210.23161,633.9265,424.8887,0.0,0.0,0.0,2.0,1.0,-2.6313238,0.013133359,0.0025418997,97.0,97.0,97.0,97.0,21.302864,21.302864,24.666473,24.666473,0.0153276855,0.015203778,-4.0437974E-4,-4.042169E-4,1166.3042,0.0,0.0,0.0,0.0,0.0,0.0,0.0,0.0,0.0,0.0,0.0,0.0,0.0,-42.73459,-0.043633513,-76.46218,-0.0010382626,0.011620101,0.010968687,549935.7,119984.9,0.0041538756,0.008403517,8451.174,8539.194,7445.6226,7628.7393,0.2990837,0.0,0.0,0.0
303.79932,303.79932,3.599,0.0,0.0,315.61273,11266.0,100.0,0.0,-0.011737124,0.0,8.0,1.0,0.0,4000000.0,110.0,1.0,0.0,0.0,10.0,0.0,0.0,-422.37946,26.45515,137.8534,0.053535476,0.16241428,0.07500959,320.31387,320.3119,315.46405,315.4884,220.0,219.0,249.0,245.0,97.0,97.0,97.0,97.0,0.0,0.0,0.0,0.0,0.048964564,0.04888794,0.05492483,0.055092964,0.0,0.0,0.0,0.0,707.4728,860.2782,-753.80786,-802.2084,0.0,0.0,0.0,2.0,1.0,-2.630969,0.0122275725,3.207922E-4,97.0,97.0,97.0,97.0,21.302864,21.302864,24.666473,24.666473,0.014986937,0.014934804,-4.1552086E-4,-4.0256087E-4,1166.8342,0.0,0.0,0.0,0.0,0.0,0.0,0.0,0.0,0.0,0.0,0.0,0.0,0.0,-42.796078,0.027483849,-76.51509,0.04285863,0.0028704258,-0.011690251,549941.44,119984.9,0.0050907345,0.0074193003,8799.303,8858.82,7315.384,7351.744,0.30114746,0.0,0.0,0.0
