LapDistance [m],TotalDistance [m],LapTime [s],Sector1Time [s],Sector2Time [s],Speed [km/h],EngineRevs [rpm],ThrottlePercentage [%],BrakePercentage [%],Steer [%],Clutch [%],Gear [int],DRS [0/1],CanUseDRS [0/1],KERSLevel [J],EngineTemperature [C],RacePosition [int],Sector [int],InPits [int],FuelRemaining [kg],CurrentFlag [int],CurrentLapInvalid [int],X [m],Y [m],Z [m],GForceLatitudinal [G],GForceLongitudinal [G],GForceVertical [G],WheelSpeedRearLeft [km/h],WheelSpeedRearRight [km/h],WheelSpeedFrontLeft [km/h],WheelSpeedFrontRight [km/h],BrakeTemperatureRearLeft [C],BrakeTemperatureRearRight [C],BrakeTemperatureFrontLeft [C],BrakeTemperatureFrontRight [C],TyreTemperatureRearLeft [C],TyreTemperatureRearRight [C],TyreTemperatureFrontLeft [C],TyreTemperatureFrontRight [C],TyreWearRearLeft [%],TyreWearRearRight [%],TyreWearFrontLeft [%],TyreWearFrontRight [%],SuspensionPositionRearLeft [m],SuspensionPositionRearRight [m],SuspensionPositionFrontLeft [m],SuspensionPositionFrontRight [m],SuspensionVelocityRearLeft [m/s],SuspensionVelocityRearRight [m/s],SuspensionVelocityFrontLeft [m/s],SuspensionVelocityFrontRight [m/s],SuspensionAccelerationRearLeft [m/s^2],SuspensionAccelerationRearRight [m/s^2],SuspensionAccelerationFrontLeft [m/s^2],SuspensionAccelerationFrontRight [m/s^2],MGUKHarvested [J],MGUHHarvested [J],ERSSpent [J],ERSMode [int],FuelMixMode [int],Yaw [rad],Roll [rad],Pitch [rad],TyreCarcassTemperatureRearLeft [C],TyreCarcassTemperatureRearRight [C],TyreCarcassTemperatureFrontLeft [C],TyreCarcassTemperatureFrontRight [C],TyrePressureRearLeft [PSI],TyrePressureRearRight [PSI],TyrePressureFrontLeft [PSI],TyrePressureFrontRight [PSI],WheelSlipRearLeft [%],WheelSlipRearRight [%],WheelSlipFrontLeft [%],WheelSlipFrontRight [%],Torque [Nm],Handbrake [%],RearLeftInside [C],RearLeftMiddle [C],RearLeftOutside [C],RearRightInside [C],RearRightMiddle [C],RearRightOutside [C],FrontLeftInside [C],FrontLeftMiddle [C],FrontLeftOutside [C],FrontRightInside [C],FrontRightMiddle [C],FrontRightOutside [C],WoldSpeedX [km/h],WoldSpeedY [km/h],WoldSpeedZ [km/h],LocalAngularVelocityX [rad/s],LocalAngularVelocityY [rad/s],LocalAngularVelocityZ [rad/s],IcePower [W],MgukPower [W],FrontRideHeight [m],RearRideHeight [m],LoadRearLeft [N],LoadRearRight [N],LoadFrontLeft [N],LoadFrontRight [N],Extra1 [m],Extra2 [],Extra3 [],Extra4 []
4.065159,4.065159,0.05,0.0,0.0,304.3069,10966.0,100.0,0.0,-0.013660275,0.0,8.0,1.0,0.0,4000000.0,110.0,1.0,0.0,0.0,10.0,0.0,0.0,-115.14481,3.1085281,464.02792,0.05258902,0.27584475,-0.31124362,310.21057,310.20157,304.15652,304.18912,280.0,282.0,317.0,324.0,89.0,89.0,89.0,89.0,0.0,0.0,0.0,0.0,0.044398494,0.044453315,0.051685248,0.051846914,0.0,0.0,0.0,0.0,-2114.747,-1630.1389,789.54834,364.47192,0.0,0.0,0.0,2.0,1.0,-2.333323,-0.02632188,0.0061695576,89.0,89.0,89.0,89.0,21.842827,21.842827,24.816736,24.816736,0.019397877,0.019291399,-4.607409E-4,-4.515513E-4,1133.9857,0.0,0.0,0.0,0.0,0.0,0.0,0.0,0.0,0.0,0.0,0.0,0.0,0.0,-61.10923,-0.33812264,-58.40219,-0.040376015,0.00351484,0.044936046,549080.94,119984.9,0.016459275,0.017636813,6600.3335,6664.392,5537.5225,5592.25,0.3127346,0.0,0.0,0.0
8.29284,8.29284,0.1,0.0,0.0,304.78476,10995.0,100.0,0.0,0.028358135,0.0,8.0,1.0,0.0,4000000.0,110.0,1.0,0.0,0.0,10.0,0.0,0.0,-118.203186,3.0867558,461.1058,0.04427612,0.2635262,-0.67179996,311.03348,311.01843,304.63712,304.65817,279.0,281.0,316.0,323.0,89.0,89.0,89.0,89.0,0.0,0.0,0.0,0.0,0.04007686,0.040317927,0.051040083,0.05113599,0.0,0.0,0.0,0.0,-2993.6128,-2868.6355,-2961.239,-2299.1086,0.0,0.0,0.0,2.0,1.0,-2.3331647,-0.026340714,0.008230448,89.0,89.0,89.0,89.0,21.842827,21.842827,24.816736,24.816736,0.020595321,0.020487953,-4.6265015E-4,-4.4913028E-4,1138.0249,0.0,0.0,0.0,0.0,0.0,0.0,0.0,0.0,0.0,0.0,0.0,0.0,0.0,-61.217834,-0.555826,-58.479015,-0.027700592,0.0018399926,0.030193117,549583.3,119984.9,0.01909793,0.023870492,5852.118,5923.208,4660.2993,4712.0723,0.31672955,0.0,0.0,0.0
12.527333,12.527333,0.15,0.0,0.0,305.2946,10990.0,100.0,0.0,0.13025759,0.0,8.0,1.0,0.0,4000000.0,110.0,1.0,0.0,0.0,10.0,0.0,0.0,-121.26696,3.0553129,458.17944,0.013244465,0.28342128,0.06721053,310.86566,310.85107,305.15796,305.1316,278.0,279.0,315.0,322.0,89.0,89.0,89.0,89.0,0.0,0.0,0.0,0.0,0.04174036,0.041762922,0.052803796,0.052705187,0.0,0.0,0.0,0.0,4163.847,4240.5586,-181.1698,110.94955,0.0,0.0,0.0,2.0,1.0,-2.3332334,-0.02640055,0.008328557,89.0,89.0,89.0,89.0,21.842827,21.842827,24.816736,24.816736,0.018369736,0.018414186,-4.7763594E-4,-4.6590145E-4,1137.3105,0.0,0.0,0.0,0.0,0.0,0.0,0.0,0.0,0.0,0.0,0.0,0.0,0.0,-61.326027,-0.6380211,-58.56995,0.030938454,-0.0038377142,-0.033621244,549488.2,119984.9,0.0135930125,0.019397534,7368.709,7361.1265,6772.363,6732.383,0.31170464,0.0,0.0,0.0
16.768688,16.768688,0.183,0.0,0.0,305.78748,10996.0,100.0,0.0,0.13520433,0.0,8.0,1.0,0.0,4000000.0,110.0,1.0,0.0,0.0,10.0,0.0,0.0,-124.33593,3.02594,455.2485,-0.018137753,0.27982765,0.24485147,311.05078,311.0373,305.663,305.6088,276.0,278.0,314.0,321.0,89.0,89.0,89.0,89.0,0.0,0.0,0.0,0.0,0.048803996,0.048556983,0.053342994,0.053137213,107.1719,92.82991,6.0926375,2.342686,-2102.7441,-2597.9873,-178.19254,-258.7527,0.0,0.0,0.0,2.0,1.0,-2.3335428,-0.026531298,0.0058004856,89.0,89.0,89.0,89.0,21.842827,21.842827,24.816736,24.816736,0.017201126,0.017335905,-4.749323E-4,-4.7368914E-4,1138.1769,0.0,0.0,0.0,0.0,0.0,0.0,0.0,0.0,0.0,0.0,0.0,0.0,0.0,-61.424995,-0.5339265,-58.665596,0.033490013,-0.008077977,-0.026102591,549606.75,119984.9,0.009922,0.011296081,8111.2925,8042.787,6704.1025,6602.7393,0.30684376,0.0,0.0,0.0
21.016907,21.016907,0.25,0.0,0.0,306.28073,11011.0,100.0,0.0,0.13749379,0.0,8.0,1.0,0.0,4000000.0,110.0,1.0,0.0,0.0,10.0,0.0,0.0,-127.40962,3.0033207,452.3125,-0.04183177,0.27509558,0.3078897,311.4676,311.45285,306.16174,306.1029,275.0,277.0,312.0,319.0,89.0,89.0,89.0,89.0,0.0,0.0,0.0,0.0,0.04908571,0.049010985,0.05367917,0.053454712,0.0,0.0,0.0,0.0,-505.27448,-667.4408,-285.56134,-140.33316,0.0,0.0,0.0,2.0,1.0,-2.3340027,-0.026436137,0.0045598745,89.0,89.0,89.0,89.0,21.842827,21.842827,24.816736,24.816736,0.016873775,0.016986275,-4.746684E-4,-4.7426845E-4,1139.8601,0.0,0.0,0.0,0.0,0.0,0.0,0.0,0.0,0.0,0.0,0.0,0.0,0.0,-61.51578,-0.3797989,-58.77012,0.010697277,-0.00947119,-0.01041542,549669.7,119984.89,0.0061820038,0.0079295235,8360.945,8279.146,6925.3354,6835.1016,0.3032055,0.0,0.0,0.0
25.271887,25.271887,0.3,0.0,0.0,306.75342,11031.0,100.0,0.0,-0.0563116,0.0,8.0,1.0,0.0,4000000.0,110.0,1.0,0.0,0.0,10.0,0.0,0.0,-130.48775,2.9899175,449.3713,-0.030246727,0.26186582,0.17247197,311.99704,312.05545,306.6161,306.60266,274.0,276.0,311.0,318.0,89.0,89.0,89.0,89.0,0.0,0.0,0.0,0.0,0.048919212,0.048520137,0.053451113,0.053534128,0.0,0.0,0.0,0.0,-2121.6675,-1794.1965,-635.6835,-690.9101,0.0,0.0,0.0,2.0,1.0,-2.3342698,-0.027027521,0.0036399364,89.0,89.0,89.0,89.0,21.842827,21.842827,24.816736,24.816736,0.017038545,0.017238703,-4.5546747E-4,-4.7310718E-4,1141.9745,0.0,0.0,0.0,0.0,0.0,0.0,0.0,0.0,0.0,0.0,0.0,0.0,0.0,-61.6025,-0.20636928,-58.870285,0.011101089,-0.001268196,0.011417623,549690.9,119984.89,0.008212254,0.009223673,8190.47,7968.7256,6480.806,6517.4453,0.30475903,0.0,0.0,0.0
29.533157,29.533157,0.35,0.0,0.0,307.2198,11060.0,100.0,0.0,-0.08290124,0.0,8.0,1.0,0.0,4000000.0,110.0,1.0,0.0,0.0,10.0,0.0,0.0,-133.57005,2.9780877,446.42532,-0.0087546855,0.2773466,-0.24908453,312.81537,312.8672,307.06763,307.0899,273.0,274.0,310.0,317.0,89.0,89.0,89.0,89.0,0.0,0.0,0.0,0.0,0.046298727,0.045720518,0.052264832,0.052215043,0.0,0.0,0.0,0.0,1499.7971,1886.0887,-24.34101,746.6465,0.0,0.0,0.0,2.0,1.0,-2.3341866,-0.027710505,0.004228711,89.0,89.0,89.0,89.0,21.842827,21.842827,24.816736,24.816736,0.018305758,0.018407026,-4.5985915E-4,-4.7049602E-4,1145.04,0.0,0.0,0.0,0.0,0.0,0.0,0.0,0.0,0.0,0.0,0.0,0.0,0.0,-61.68779,-0.28904584,-58.968197,-0.0117027275,0.0036755307,0.026565688,549721.3,119984.9,0.011932446,0.01245259,7301.4795,7189.228,5679.3594,5685.459,0.30692387,0.0,0.0,0.0
33.80104,33.80104,0.4,0.0,0.0,307.6887,11080.0,100.0,0.0,-0.07594366,0.0,8.0,1.0,0.0,4000000.0,110.0,1.0,0.0,0.0,10.0,0.0,0.0,-136.65692,2.9609227,443.4745,0.012646347,0.26240662,-0.18929525,313.37485,313.46884,307.52826,307.57056,272.0,273.0,309.0,316.0,89.0,89.0,89.0,89.0,0.0,0.0,0.0,0.0,0.044720765,0.043961175,0.05218813,0.0522985,0.0,0.0,0.0,0.0,-8.945159,92.71041,426.27,139.36757,0.0,0.0,0.0,2.0,1.0,-2.3339198,-0.028399324,0.0061324835,89.0,89.0,89.0,89.0,21.842827,21.842827,24.816736,24.816736,0.018603353,0.018759474,-4.5753122E-4,-4.605269E-4,1147.1562,0.0,0.0,0.0,0.0,0.0,0.0,0.0,0.0,0.0,0.0,0.0,0.0,0.0,-61.781715,-0.38909432,-59.057873,-0.011529836,0.006647317,0.031109342,549743.1,119984.9,0.014046644,0.016445557,7100.1455,6944.01,6020.082,6069.0254,0.30954552,0.0,0.0,0.0
38.07523,38.07523,0.45,0.0,0.0,308.13983,11101.0,100.0,0.0,0.02565502,0.0,8.0,1.0,0.0,4000000.0,110.0,1.0,0.0,0.0,10.0,0.0,0.0,-139.74854,2.9387517,440.51944,0.020775832,0.25016025,-0.49319273,314.02243,314.02664,307.99313,308.01547,270.0,272.0,308.0,315.0,89.0,89.0,89.0,89.0,0.0,0.0,0.0,0.0,0.042847257,0.04282454,0.05171708,0.051356036,0.0,0.0,0.0,0.0,-2591.389,-3056.3901,-2449.393,-2290.9548,0.0,0.0,0.0,2.0,1.0,-2.333663,-0.0282819,0.007343173,89.0,89.0,89.0,89.0,21.842827,21.842827,24.816736,24.816736,0.01913574,0.019078705,-4.5554043E-4,-4.4489934E-4,1149.3776,0.0,0.0,0.0,0.0,0.0,0.0,0.0,0.0,0.0,0.0,0.0,0.0,0.0,-61.876392,-0.52571034,-59.13913,-0.041167,0.002016578,0.02506396,549765.7,119984.9,0.0171806,0.019286081,6560.911,6608.234,5030.227,4879.99,0.31253433,0.0,0.0,0.0
42.355625,42.355625,0.5,0.0,0.0,308.59598,11109.0,100.0,0.0,0.09102653,0.0,8.0,1.0,0.0,4000000.0,110.0,1.0,0.0,0.0,10.0,0.0,0.0,-142.8449,2.9092605,437.56027,0.013611563,0.25639057,-0.007582086,314.27,314.22092,308.45154,308.44547,269.0,271.0,307.0,314.0,89.0,89.0,89.0,89.0,0.0,0.0,0.0,0.0,0.042628862,0.042375416,0.052841987,0.05292056,0.0,0.0,0.0,0.0,1716.1039,2887.2097,301.09152,-204.2903,0.0,0.0,0.0,2.0,1.0,-2.3336356,-0.028221995,0.008371115,89.0,89.0,89.0,89.0,21.842827,21.842827,24.816736,24.816736,0.018504724,0.018409368,-4.701457E-4,-4.5519974E-4,1150.2238,0.0,0.0,0.0,0.0,0.0,0.0,0.0,0.0,0.0,0.0,0.0,0.0,0.0,-61.971645,-0.60881495,-59.222057,0.02375602,-8.199586E-4,-0.018010968,549774.25,119984.91,0.013195806,0.019236157,7156.6006,7225.6436,6783.6787,6786.474,0.31054688,0.0,0.0,0.0
46.6423,46.6423,0.55,0.0,0.0,309.0478,11112.0,100.0,0.0,0.03593748,0.0,8.0,1.0,0.0,4000000.0,110.0,1.0,0.0,0.0,10.0,0.0,0.0,-145.94598,2.8805885,434.59695,0.0018878803,0.25619787,0.19573592,314.3337,314.29495,308.9077,308.8844,268.0,270.0,306.0,312.0,89.0,89.0,89.0,89.0,0.0,0.0,0.0,0.0,0.04812363,0.048399735,0.053695448,0.053041007,0.0,0.0,0.0,0.0,-744.125,-1395.1372,213.14168,-378.0171,0.0,0.0,0.0,2.0,1.0,-2.3337395,-0.027944827,0.0058227777,89.0,89.0,89.0,89.0,21.842827,21.842827,24.816736,24.816736,0.017140755,0.017130215,-4.6844519E-4,-4.6355286E-4,1150.5404,0.0,0.0,0.0,0.0,0.0,0.0,0.0,0.0,0.0,0.0,0.0,0.0,0.0,-62.06555,-0.53286,-59.306187,0.016217835,-0.0028857002,-0.05629766,549777.1,119984.9,0.010086724,0.011689815,8043.49,8059.683,6925.31,6544.7383,0.30582237,0.0,0.0,0.0
50.93821,50.93821,0.6,0.0,0.0,309.50247,11125.0,100.0,0.0,0.013726282,0.0,8.0,1.0,0.0,4000000.0,110.0,1.0,0.0,0.0,10.0,0.0,0.0,-149.05173,2.8574953,431.6293,-0.009939268,0.24966192,0.3088478,314.67404,314.66983,309.36765,309.34488,267.0,269.0,304.0,311.0,89.0,89.0,89.0,89.0,0.0,0.0,0.0,0.0,0.049345814,0.04910195,0.053601008,0.053607836,0.0,0.0,0.0,0.0,-1251.3575,-1101.9854,13.035535,-36.27685,0.0,0.0,0.0,2.0,1.0,-2.3339152,-0.027255725,0.0045855045,89.0,89.0,89.0,89.0,21.842827,21.842827,24.816736,24.816736,0.01667538,0.016715055,-4.6207703E-4,-4.687884E-4,1151.9149,0.0,0.0,0.0,0.0,0.0,0.0,0.0,0.0,0.0,0.0,0.0,0.0,0.0,-62.157146,-0.39144817,-59.39425,0.0031052756,-0.0032310204,-0.00993772,549790.7,119984.91,0.0073162555,0.00852793,8400.187,8352.178,6913.792,6953.2236,0.30312824,0.0,0.0,0.0
55.24266,55.24266,0.65,0.0,0.0,309.93668,11144.0,100.0,0.0,-0.03745185,0.0,8.0,1.0,0.0,4000000.0,110.0,1.0,0.0,0.0,10.0,0.0,0.0,-152.16191,2.8419456,428.65738,-0.0066344067,0.24399605,0.118973225,315.19232,315.22177,309.78952,309.79712,266.0,267.0,303.0,310.0,89.0,89.0,89.0,89.0,0.0,0.0,0.0,0.0,0.048690405,0.04862177,0.053459078,0.053376082,0.0,0.0,0.0,0.0,-742.89136,-1166.5865,-764.40265,-802.11444,0.0,0.0,0.0,2.0,1.0,-2.3339224,-0.02731175,0.00396955,89.0,89.0,89.0,89.0,21.842827,21.842827,24.816736,24.816736,0.01696107,0.017011426,-4.5556625E-4,-4.611128E-4,1153.9243,0.0,0.0,0.0,0.0,0.0,0.0,0.0,0.0,0.0,0.0,0.0,0.0,0.0,-62.2445,-0.26723963,-59.478104,0.0012950602,0.0016063345,0.0060545374,549810.75,119984.91,0.0090117715,0.009370978,8120.828,8050.952,6493.7456,6449.8003,0.3034029,0.0,0.0,0.0
59.553078,59.553078,0.683,0.0,0.0,310.36038,11172.0,100.0,0.0,-0.038822573,0.0,8.0,1.0,0.0,4000000.0,110.0,1.0,0.0,0.0,10.0,0.0,0.0,-155.27637,2.8273602,425.6813,0.0061042756,0.24303263,-0.20257139,315.97632,316.04752,310.20883,310.2339,265.0,266.0,302.0,309.0,89.0,89.0,89.0,89.0,0.0,0.0,0.0,0.0,0.046552878,0.046256643,0.052485842,0.05266727,-47.091095,-54.726448,-11.269971,-2.9115376,190.8792,-128.86664,794.0142,656.04144,0.0,0.0,0.0,2.0,1.0,-2.333793,-0.027565364,0.0050959587,89.0,89.0,89.0,89.0,21.842827,21.842827,24.816736,24.816736,0.018151684,0.018260567,-4.5037133E-4,-4.5462113E-4,1156.8867,0.0,0.0,0.0,0.0,0.0,0.0,0.0,0.0,0.0,0.0,0.0,0.0,0.0,-62.328976,-0.33346847,-59.559727,-0.008366123,0.0039482894,0.027242064,549840.75,119984.9,0.01125355,0.013576818,7251.631,7144.708,6031.2256,6146.0586,0.30751228,0.0,0.0,0.0
63.869453,63.869453,0.749,0.0,0.0,310.79712,11184.0,100.0,0.0,-0.01117335,0.0,8.0,1.0,0.0,4000000.0,110.0,1.0,0.0,0.0,10.0,0.0,0.0,-158.39514,2.8082874,422.70114,0.014723189,0.24935725,-0.11832347,316.32935,316.36386,310.64578,310.66278,263.0,265.0,301.0,308.0,89.0,89.0,89.0,89.0,0.0,0.0,0.0,0.0,0.04538543,0.045148507,0.05265721,0.052679088,0.0,0.0,0.0,0.0,1183.5648,1455.7554,-86.74264,723.6197,0.0,0.0,0.0,2.0,1.0,-2.3336303,-0.028025417,0.005816698,89.0,89.0,89.0,89.0,21.842827,21.842827,24.816736,24.816736,0.017910458,0.017941324,-4.582659E-4,-4.5927102E-4,1158.1561,0.0,0.0,0.0,0.0,0.0,0.0,0.0,0.0,0.0,0.0,0.0,0.0,0.0,-62.418518,-0.41514185,-59.641117,0.0032896907,0.0029185486,0.012207303,549853.44,119984.91,0.010466808,0.013977848,7418.271,7403.529,6284.453,6324.2554,0.30777645,0.0,0.0,0.0
68.19189,68.19189,0.799,0.0,0.0,311.23352,11189.0,100.0,0.0,0.058239542,0.0,8.0,1.0,0.0,4000000.0,110.0,1.0,0.0,0.0,10.0,0.0,0.0,-161.5185,2.7874963,419.71704,0.009540133,0.2493192,0.17749406,316.46774,316.49136,311.08142,311.08667,262.0,264.0,300.0,307.0,89.0,89.0,89.0,89.0,0.0,0.0,0.0,0.0,0.047567327,0.04742593,0.053596526,0.053275563,0.0,0.0,0.0,0.0,3562.0938,4822.0747,814.0235,-495.53802,0.0,0.0,0.0,2.0,1.0,-2.3334894,-0.028066747,0.0048271418,89.0,89.0,89.0,89.0,21.842827,21.842827,24.816736,24.816736,0.016922712,0.016955476,-4.6970116E-4,-4.549181E-4,1158.685,0.0,0.0,0.0,0.0,0.0,0.0,0.0,0.0,0.0,0.0,0.0,0.0,0.0,-62.51134,-0.39287135,-59.71959,0.013364514,0.0013525496,-0.03914631,549858.75,119984.9,0.008093786,0.010069977,8210.754,8194.283,7064.84,6838.988,0.30191708,0.0,0.0,0.0
72.520386,72.520386,0.849,0.0,0.0,311.6615,11209.0,100.0,0.0,0.052696884,0.0,8.0,1.0,0.0,4000000.0,110.0,1.0,0.0,0.0,10.0,0.0,0.0,-164.64644,2.7692897,416.72897,0.0043388754,0.23350006,-0.017823616,317.04068,317.0509,311.5281,311.5177,261.0,263.0,299.0,306.0,89.0,89.0,89.0,89.0,0.0,0.0,0.0,0.0,0.048372462,0.048023228,0.05276674,0.05298847,0.0,0.0,0.0,0.0,-3219.9915,-3190.7554,360.40836,-383.1669,0.0,0.0,0.0,2.0,1.0,-2.333536,-0.028119855,0.0048755407,89.0,89.0,89.0,89.0,21.842827,21.842827,24.816736,24.816736,0.017190112,0.017283421,-4.5310656E-4,-4.5045672E-4,1160.8009,0.0,0.0,0.0,0.0,0.0,0.0,0.0,0.0,0.0,0.0,0.0,0.0,0.0,-62.600285,-0.35544196,-59.798824,-0.01207483,-0.0026468134,0.032641895,549879.94,119984.91,0.0097974995,0.010231989,7839.5586,7721.418,6202.2373,6287.7227,0.3041134,0.0,0.0,0.0
76.85466,76.85466,0.899,0.0,0.0,312.0676,11231.0,100.0,0.0,0.07272698,0.0,8.0,1.0,0.0,4000000.0,110.0,1.0,0.0,0.0,10.0,0.0,0.0,-167.77855,2.750096,413.73694,-0.0076114163,0.22942531,-0.1748997,317.68826,317.69327,311.9388,311.9184,260.0,262.0,298.0,304.0,89.0,89.0,89.0,89.0,0.0,0.0,0.0,0.0,0.046478976,0.046183754,0.052784003,0.052544124,0.0,0.0,0.0,0.0,-341.4182,-496.95966,99.8318,-85.361305,0.0,0.0,0.0,2.0,1.0,-2.3337052,-0.02832589,0.006210685,89.0,89.0,89.0,89.0,21.842827,21.842827,24.816736,24.816736,0.017985903,0.018073136,-4.4999964E-4,-4.4548736E-4,1163.1302,0.0,0.0,0.0,0.0,0.0,0.0,0.0,0.0,0.0,0.0,0.0,0.0,0.0,-62.678932,-0.41960257,-59.87939,-0.016973875,-0.0042089657,0.013269104,549904.06,119984.9,0.0123677645,0.014357028,7279.148,7221.4155,6242.642,6105.945,0.3076458,0.0,0.0,0.0
81.19458,81.19458,0.949,0.0,0.0,312.47397,11244.0,100.0,0.0,0.053036433,0.0,8.0,1.0,0.0,4000000.0,110.0,1.0,0.0,0.0,10.0,0.0,0.0,-170.9145,2.7267492,410.74078,-0.012255833,0.22823136,-0.09815027,318.07706,318.05737,312.34006,312.32294,259.0,260.0,297.0,303.0,89.0,89.0,89.0,89.0,0.0,0.0,0.0,0.0,0.04542103,0.04498261,0.052898373,0.052765913,0.0,0.0,0.0,0.0,388.22287,973.3332,524.86804,295.63303,0.0,0.0,0.0,2.0,1.0,-2.333883,-0.028472867,0.006850958,89.0,89.0,89.0,89.0,21.842827,21.842827,24.816736,24.816736,0.017932478,0.017961573,-4.512967E-4,-4.4847478E-4,1164.5066,0.0,0.0,0.0,0.0,0.0,0.0,0.0,0.0,0.0,0.0,0.0,0.0,0.0,-62.755238,-0.49667645,-59.962345,0.003790621,-0.0028336227,-0.0022301907,549918.25,119984.914,0.012106455,0.016077386,7345.9756,7306.6914,6514.357,6442.5586,0.30996704,0.0,0.0,0.0
85.540184,85.540184,0.999,0.0,0.0,312.88348,11250.0,100.0,0.0,-0.03965496,0.0,8.0,1.0,0.0,4000000.0,110.0,1.0,0.0,0.0,10.0,0.0,0.0,-174.05432,2.7015002,407.74048,-0.006334178,0.23197702,0.07407469,318.2078,318.20935,312.7385,312.73322,258.0,259.0,296.0,302.0,89.0,89.0,89.0,89.0,0.0,0.0,0.0,0.0,0.04710779,0.046981134,0.05342116,0.053023066,0.0,0.0,0.0,0.0,1144.8202,1049.508,-228.95335,180.55287,0.0,0.0,0.0,2.0,1.0,-2.3339632,-0.028417924,0.0057725906,89.0,89.0,89.0,89.0,21.842827,21.842827,24.816736,24.816736,0.017091488,0.017107492,-4.540154E-4,-4.607468E-4,1165.1398,0.0,0.0,0.0,0.0,0.0,0.0,0.0,0.0,0.0,0.0,0.0,0.0,0.0,-62.83367,-0.49569407,-60.044926,0.009974959,2.0203227E-4,-0.028162442,549923.8,119984.9,0.009895231,0.012017913,7941.7085,7914.6553,6764.7554,6584.8115,0.30758476,0.0,0.0,0.0
89.88966,89.88966,1.049,0.0,0.0,313.29633,11261.0,100.0,0.0,-0.07876634,0.0,8.0,1.0,0.0,4000000.0,110.0,1.0,0.0,0.0,10.0,0.0,0.0,-177.19815,2.6780438,404.7361,0.0013225451,0.23955554,0.1027624,318.53183,318.5135,313.145,313.1552,257.0,258.0,295.0,301.0,89.0,89.0,89.0,89.0,0.0,0.0,0.0,0.0,0.04878863,0.0489278,0.05342228,0.053025827,0.0,0.0,0.0,0.0,313.37582,-886.5235,1046.209,-509.48547,0.0,0.0,0.0,2.0,1.0,-2.3339005,-0.027872965,0.004662633,89.0,89.0,89.0,89.0,21.842827,21.842827,24.816736,24.816736,0.01678407,0.016715107,-4.5998787E-4,-4.642272E-4,1166.3043,0.0,0.0,0.0,0.0,0.0,0.0,0.0,0.0,0.0,0.0,0.0,0.0,0.0,-62.916336,-0.44843918,-60.12479,-0.0047431574,0.0020631342,-0.011629133,549935.75,119984.91,0.007975831,0.007886718,8165.5566,8212.659,6686.328,6423.3296,0.30231857,0.0,0.0,0.0
94.24216,94.24216,1.099,0.0,0.0,313.69794,11281.0,100.0,0.0,-0.070610575,0.0,8.0,1.0,0.0,4000000.0,110.0,1.0,0.0,0.0,10.0,0.0,0.0,-180.34625,2.6571424,401.72797,0.016176224,0.22011116,0.0063329516,319.10074,319.089,313.54346,313.57376,255.0,257.0,293.0,300.0,89.0,89.0,89.0,89.0,0.0,0.0,0.0,0.0,0.0479482,0.048140936,0.053336937,0.0530211,0.0,0.0,0.0,0.0,-354.0113,-963.63696,-81.51233,74.14966,0.0,0.0,0.0,2.0,1.0,-2.3337233,-0.026766812,0.0056762695,89.0,89.0,89.0,89.0,21.842827,21.842827,24.816736,24.816736,0.017238325,0.017096179,-4.4910924E-4,-4.4966818E-4,1168.4211,0.0,0.0,0.0,0.0,0.0,0.0,0.0,0.0,0.0,0.0,0.0,0.0,0.0,-63.002476,-0.4071429,-60.19641,-0.035063576,0.0044661434,0.0028739981,549957.1,119984.91,0.009106764,0.009872514,7727.579,7827.8843,6624.633,6507.9155,0.3037691,0.0,0.0,0.0
98.60011,98.60011,1.149,0.0,0.0,314.08594,11302.0,100.0,0.0,-0.08361387,0.0,8.0,1.0,0.0,4000000.0,110.0,1.0,0.0,0.0,10.0,0.0,0.0,-183.49858,2.6349363,398.71634,0.03186442,0.22134006,-0.290373,319.68326,319.69617,313.9309,313.9673,254.0,256.0,292.0,299.0,89.0,89.0,89.0,89.0,0.0,0.0,0.0,0.0,0.046130456,0.04665156,0.05216814,0.05265869,0.0,0.0,0.0,0.0,-467.97842,-337.6499,-1777.0437,301.0913,0.0,0.0,0.0,2.0,1.0,-2.3334758,-0.026050497,0.0067509413,89.0,89.0,89.0,89.0,21.842827,21.842827,24.816736,24.816736,0.017919559,0.017770102,-4.3983402E-4,-4.486296E-4,1170.6436,0.0,0.0,0.0,0.0,0.0,0.0,0.0,0.0,0.0,0.0,0.0,0.0,0.0,-63.08677,-0.49830103,-60.263527,-0.01163219,0.0058684917,0.038844205,549979.4,119984.9,0.012652538,0.013522473,7225.6533,7344.4937,5565.751,5934.6826,0.30731583,0.0,0.0,0.0
102.963394,102.963394,1.199,0.0,0.0,314.47397,11314.0,100.0,0.0,-0.14690094,0.0,8.0,1.0,0.0,4000000.0,110.0,1.0,0.0,0.0,10.0,0.0,0.0,-186.6552,2.6071656,395.70148,0.04672209,0.22377586,-0.13235955,320.02396,320.06046,314.30334,314.35715,253.0,255.0,291.0,298.0,89.0,89.0,89.0,89.0,0.0,0.0,0.0,0.0,0.045045555,0.045012273,0.05282805,0.052897982,0.0,0.0,0.0,0.0,1218.6615,1986.6583,-14.859466,145.9524,0.0,0.0,0.0,2.0,1.0,-2.3330915,-0.026944757,0.007845879,89.0,89.0,89.0,89.0,21.842827,21.842827,24.816736,24.816736,0.017867949,0.017796278,-4.4898788E-4,-4.5447884E-4,1171.9149,0.0,0.0,0.0,0.0,0.0,0.0,0.0,0.0,0.0,0.0,0.0,0.0,0.0,-63.175686,-0.59366494,-60.325623,0.011212877,0.009614702,0.0072402833,549992.7,119984.91,0.011558096,0.015247978,7359.4385,7373.3994,6503.876,6514.922,0.30774117,0.0,0.0,0.0
107.332054,107.332054,1.249,0.0,0.0,314.85513,11320.0,100.0,0.0,-0.15534115,0.0,8.0,1.0,0.0,4000000.0,110.0,1.0,0.0,0.0,10.0,0.0,0.0,-189.81665,2.5780942,392.6838,0.07019364,0.21273342,0.06905043,320.1801,320.20508,314.67328,314.7449,252.0,254.0,290.0,297.0,89.0,89.0,89.0,89.0,0.0,0.0,0.0,0.0,0.047744915,0.04752013,0.05322347,0.053488106,0.0,0.0,0.0,0.0,-898.6605,102.52761,-459.97195,-533.4377,0.0,0.0,0.0,2.0,1.0,-2.3324907,-0.027440973,0.0068460703,89.0,89.0,89.0,89.0,21.842827,21.842827,24.816736,24.816736,0.017065654,0.01693444,-4.4759022E-4,-4.5169986E-4,1172.549,0.0,0.0,0.0,0.0,0.0,0.0,0.0,0.0,0.0,0.0,0.0,0.0,0.0,-63.2743,-0.56668836,-60.37592,0.022700107,0.013132639,-0.014341148,549998.56,119984.91,0.010891248,0.012737359,7884.3086,7944.7593,6626.467,6771.65,0.3068943,0.0,0.0,0.0
111.70591,111.70591,1.299,0.0,0.0,315.23224,11332.0,100.0,0.0,-0.072927624,0.0,8.0,1.0,0.0,4000000.0,110.0,1.0,0.0,0.0,10.0,0.0,0.0,-192.98305,2.5504673,389.66376,0.07355981,0.21182275,0.11734083,320.50232,320.54208,315.06226,315.1166,251.0,253.0,289.0,296.0,89.0,89.0,89.0,89.0,0.0,0.0,0.0,0.0,0.048635457,0.048586156,0.053150896,0.053492565,0.0,0.0,0.0,0.0,-2380.5005,-1286.669,577.61365,924.1684,0.0,0.0,0.0,2.0,1.0,-2.331935,-0.02795934,0.006381154,89.0,89.0,89.0,89.0,21.842827,21.842827,24.816736,24.816736,0.01682732,0.016780531,-4.5203505E-4,-4.489688E-4,1173.8185,0.0,0.0,0.0,0.0,0.0,0.0,0.0,0.0,0.0,0.0,0.0,0.0,0.0,-63.374912,-0.5319018,-60.422527,0.007504955,0.009139194,0.008366587,550011.0,119984.9,0.010414677,0.011479092,8030.2437,8063.1514,6668.3726,6841.1636,0.30785942,0.0,0.0,0.0
116.08482,116.08482,1.333,0.0,0.0,315.60184,11340.0,100.0,0.0,-0.006137876,0.0,8.0,1.0,0.0,4000000.0,110.0,1.0,0.0,0.0,10.0,0.0,0.0,-196.15439,2.5257168,386.64148,0.06418569,0.21482062,0.18828633,320.76804,320.77362,315.4365,315.4639,250.0,251.0,288.0,294.0,89.0,89.0,89.0,89.0,0.0,0.0,0.0,0.0,0.04915042,0.04925702,0.05376162,0.054014944,38.145035,48.054676,-6.2819567,-6.253123,1534.894,1791.8896,-2056.9456,-1498.5767,0.0,0.0,0.0,2.0,1.0,-2.3315542,-0.028409926,0.004672408,89.0,89.0,89.0,89.0,21.842827,21.842827,24.816736,24.816736,0.01649974,0.01645294,-4.5930585E-4,-4.523364E-4,1174.6674,0.0,0.0,0.0,0.0,0.0,0.0,0.0,0.0,0.0,0.0,0.0,0.0,0.0,-63.473793,-0.45306915,-60.468227,0.041649047,0.0057688025,-0.03130709,550020.5,119984.91,0.00766158,0.008562376,8341.292,8375.523,6899.89,7023.823,0.30160522,0.0,0.0,0.0
120.46898,120.46898,1.399,0.0,0.0,315.97568,11357.0,100.0,0.0,-0.060140423,0.0,8.0,1.0,0.0,4000000.0,110.0,1.0,0.0,0.0,10.0,0.0,0.0,-199.33067,2.506299,383.61673,0.057288527,0.19782469,0.07813801,321.24155,321.25427,315.8331,315.84833,249.0,250.0,287.0,293.0,89.0,89.0,89.0,89.0,0.0,0.0,0.0,0.0,0.048845246,0.048799668,0.05312919,0.053357527,0.0,0.0,0.0,0.0,-4206.669,-2873.0076,-940.9054,366.25555,0.0,0.0,0.0,2.0,1.0,-2.3314192,-0.028595584,0.0050137043,89.0,89.0,89.0,89.0,21.842827,21.842827,24.816736,24.816736,0.016608004,0.016593764,-4.364565E-4,-4.444944E-4,1176.4667,0.0,0.0,0.0,0.0,0.0,0.0,0.0,0.0,0.0,0.0,0.0,0.0,0.0,-63.57075,-0.35156626,-60.517673,-0.034238797,0.0015379427,0.034130692,550038.4,119984.9,0.010083345,0.009671822,8112.4956,8112.6113,6365.631,6532.199,0.30391693,0.0,0.0,0.0
124.857956,124.857956,1.449,0.0,0.0,316.3174,11383.0,100.0,0.0,-0.052835815,0.0,8.0,1.0,0.0,4000000.0,110.0,1.0,0.0,0.0,10.0,0.0,0.0,-202.51144,2.4868388,380.58963,0.05051718,0.19944376,-0.15757117,321.98083,321.96658,316.15518,316.1894,248.0,249.0,286.0,292.0,89.0,89.0,89.0,89.0,0.0,0.0,0.0,0.0,0.04595176,0.045936637,0.05327025,0.053457342,0.0,0.0,0.0,0.0,-223.22684,577.0504,877.69916,577.0369,0.0,0.0,0.0,2.0,1.0,-2.3311987,-0.029160913,0.00638628,89.0,89.0,89.0,89.0,21.842827,21.842827,24.816736,24.816736,0.018053655,0.01791543,-4.4813313E-4,-4.4274877E-4,1178.9908,0.0,0.0,0.0,0.0,0.0,0.0,0.0,0.0,0.0,0.0,0.0,0.0,0.0,-63.656246,-0.42696172,-60.565044,0.023144048,0.006104058,-0.0012712069,549959.5,119984.91,0.008716365,0.014421478,7121.8857,7193.4277,6826.6597,6870.829,0.30871773,0.0,0.0,0.0
129.25194,129.25194,1.499,0.0,0.0,316.6946,11378.0,100.0,0.0,-0.03538651,0.0,8.0,1.0,0.0,4000000.0,110.0,1.0,0.0,0.0,10.0,0.0,0.0,-205.69662,2.4650187,377.55984,0.045862757,0.21043426,0.27880928,321.8426,321.79395,316.53696,316.54858,247.0,248.0,285.0,291.0,89.0,89.0,89.0,89.0,0.0,0.0,0.0,0.0,0.049580533,0.049732152,0.054085523,0.053621326,0.0,0.0,0.0,0.0,5728.165,7328.8804,825.9862,1786.3107,0.0,0.0,0.0,2.0,1.0,-2.330964,-0.029162383,0.00413239,89.0,89.0,89.0,89.0,21.842827,21.842827,24.816736,24.816736,0.01628713,0.01615197,-4.534176E-4,-4.5207233E-4,1178.6874,0.0,0.0,0.0,0.0,0.0,0.0,0.0,0.0,0.0,0.0,0.0,0.0,0.0,-63.746906,-0.40295213,-60.62193,0.017272031,0.0032722566,-0.057575695,550059.56,119984.91,0.0063978424,0.007180368,8579.941,8713.777,7352.779,7219.97,0.30159187,0.0,0.0,0.0
133.65106,133.65106,1.549,0.0,0.0,317.05676,11397.0,100.0,0.0,-0.02538716,0.0,8.0,1.0,0.0,4000000.0,110.0,1.0,0.0,0.0,10.0,0.0,0.0,-208.88644,2.4484305,374.52737,0.041663684,0.18685219,0.047896978,322.40842,322.349,316.911,316.92926,246.0,247.0,284.0,290.0,89.0,89.0,89.0,89.0,0.0,0.0,0.0,0.0,0.04846388,0.048592288,0.053536024,0.053393774,0.0,0.0,0.0,0.0,-5004.626,114.58419,416.7616,-377.34653,0.0,0.0,0.0,2.0,1.0,-2.330813,-0.028842388,0.0046331882,89.0,89.0,89.0,89.0,21.842827,21.842827,24.816736,24.816736,0.016827328,0.01656915,-4.444965E-4,-4.326107E-4,1179.8246,0.0,0.0,0.0,0.0,0.0,0.0,0.0,0.0,0.0,0.0,0.0,0.0,0.0,-63.836445,-0.2997974,-60.67435,-0.037308343,0.0013812246,0.017104188,549672.4,119984.91,0.007713907,0.009259555,7868.422,8093.4443,6758.415,6619.3667,0.30288696,0.0,0.0,0.0
138.05498,138.05498,1.599,0.0,0.0,317.40063,11415.0,100.0,0.0,-0.113486044,0.0,8.0,1.0,0.0,4000000.0,110.0,1.0,0.0,0.0,10.0,0.0,0.0,-212.08037,2.4313326,371.49228,0.042366967,0.20148808,-0.21684818,322.90283,322.89383,317.25125,317.2746,245.0,246.0,283.0,289.0,89.0,89.0,89.0,89.0,0.0,0.0,0.0,0.0,0.04637978,0.04711744,0.052983757,0.052543458,0.0,0.0,0.0,0.0,1392.7502,-103.66733,-243.3032,866.1388,0.0,0.0,0.0,2.0,1.0,-2.3307009,-0.027905894,0.00558424,89.0,89.0,89.0,89.0,21.842827,21.842827,24.816736,24.816736,0.017367115,0.017320234,-4.3656124E-4,-4.4307733E-4,1180.913,0.0,0.0,0.0,0.0,0.0,0.0,0.0,0.0,0.0,0.0,0.0,0.0,0.0,-63.917255,-0.3900712,-60.727467,-0.045190886,0.0032923408,-0.0063045695,549311.9,119984.91,0.0122591825,0.012518734,7524.5195,7534.462,6169.136,6005.9253,0.30738735,0.0,0.0,0.0
142.46353,142.46353,1.649,0.0,0.0,317.7368,11429.0,100.0,0.0,-0.045688108,0.0,8.0,1.0,0.0,4000000.0,110.0,1.0,0.0,0.0,10.0,0.0,0.0,-215.27829,2.40915,368.45453,0.032810584,0.19201058,-0.14931116,323.3005,323.26917,317.587,317.60724,243.0,245.0,282.0,288.0,89.0,89.0,89.0,89.0,0.0,0.0,0.0,0.0,0.04514799,0.046080712,0.052828558,0.05286365,0.0,0.0,0.0,0.0,1545.7167,1216.1938,229.82504,40.273357,0.0,0.0,0.0,2.0,1.0,-2.3305275,-0.026374072,0.006545663,89.0,89.0,89.0,89.0,21.842827,21.842827,24.816736,24.816736,0.017631155,0.01745142,-4.378958E-4,-4.3636016E-4,1181.781,0.0,0.0,0.0,0.0,0.0,0.0,0.0,0.0,0.0,0.0,0.0,0.0,0.0,-63.995148,-0.48457623,-60.78036,-0.012731417,0.0032219389,-0.0063036564,549042.25,119984.9,0.014589304,0.016438564,7344.8066,7487.373,6409.3105,6429.452,0.31088257,0.0,0.0,0.0
146.87674,146.87674,1.699,0.0,0.0,318.07968,11438.0,100.0,0.0,0.059745505,0.0,8.0,1.0,0.0,4000000.0,110.0,1.0,0.0,0.0,10.0,0.0,0.0,-218.47992,2.3802142,365.41394,0.010473579,0.19695398,-0.058119982,323.5211,323.58032,317.93588,317.93747,242.0,244.0,281.0,287.0,89.0,89.0,89.0,89.0,0.0,0.0,0.0,0.0,0.04537293,0.04476801,0.052723184,0.05320059,0.0,0.0,0.0,0.0,3133.4097,2038.2104,1637.4883,841.7977,0.0,0.0,0.0,2.0,1.0,-2.330447,-0.028128512,0.007376194,89.0,89.0,89.0,89.0,21.842827,21.842827,24.816736,24.816736,0.017219335,0.017412717,-4.492831E-4,-4.4286254E-4,1182.3085,0.0,0.0,0.0,0.0,0.0,0.0,0.0,0.0,0.0,0.0,0.0,0.0,0.0,-64.06714,-0.616673,-60.841675,0.04023004,5.047863E-4,0.034543987,548855.1,119984.9,0.011698877,0.014996417,7672.9805,7471.882,6712.0757,6886.6367,0.30909252,0.0,0.0,0.0
151.2947,151.2947,1.749,0.0,0.0,318.41803,11441.0,100.0,0.0,0.0330144,0.0,8.0,1.0,0.0,4000000.0,110.0,1.0,0.0,0.0,10.0,0.0,0.0,-221.68526,2.3505807,362.3703,0.011247814,0.19280437,0.16936839,323.57004,323.65536,318.272,318.26932,241.0,243.0,280.0,286.0,89.0,89.0,89.0,89.0,0.0,0.0,0.0,0.0,0.04961126,0.048998028,0.053659596,0.053675886,0.0,0.0,0.0,0.0,-5035.23,99.335625,-767.09827,160.99957,0.0,0.0,0.0,2.0,1.0,-2.3304071,-0.029706953,0.006045699,89.0,89.0,89.0,89.0,21.842827,21.842827,24.816736,24.816736,0.016259853,0.01650454,-4.4852577E-4,-4.507189E-4,1182.5151,0.0,0.0,0.0,0.0,0.0,0.0,0.0,0.0,0.0,0.0,0.0,0.0,0.0,-64.14119,-0.5592015,-60.90074,0.016682325,6.603652E-4,-0.020206945,548807.1,119984.9,0.00912203,0.010059972,8391.553,8132.865,6912.9844,6944.1733,0.30530167,0.0,0.0,0.0
155.7173,155.7173,1.799,0.0,0.0,318.75443,11448.0,100.0,0.0,0.09044374,0.0,8.0,1.0,0.0,4000000.0,110.0,1.0,0.0,0.0,10.0,0.0,0.0,-224.89427,2.3264287,359.3237,0.001932852,0.18996276,0.2768383,323.7931,323.8004,318.61142,318.60104,240.0,242.0,279.0,285.0,89.0,89.0,89.0,89.0,0.0,0.0,0.0,0.0,0.04976814,0.049639776,0.054130778,0.054125033,0.0,0.0,0.0,0.0,729.0377,650.288,-409.1575,-935.1118,0.0,0.0,0.0,2.0,1.0,-2.3303874,-0.030038724,0.004628539,89.0,89.0,89.0,89.0,21.842827,21.842827,24.816736,24.816736,0.015851073,0.015906442,-4.5872567E-4,-4.4782754E-4,1182.9546,0.0,0.0,0.0,0.0,0.0,0.0,0.0,0.0,0.0,0.0,0.0,0.0,0.0,-64.21462,-0.41704008,-60.96025,0.02299518,-0.0015187203,-0.0064487886,548675.4,119984.91,0.0058331485,0.0065155723,8750.737,8714.756,7173.749,7133.2188,0.29890537,0.0,0.0,0.0
160.14453,160.14453,1.849,0.0,0.0,319.08063,11464.0,100.0,0.0,0.0066217,0.0,8.0,1.0,0.0,4000000.0,110.0,1.0,0.0,0.0,10.0,0.0,0.0,-228.10681,2.308505,356.27408,3.8164854E-4,0.18089846,0.21970573,324.2666,324.25348,318.9467,318.92938,239.0,241.0,278.0,284.0,89.0,89.0,89.0,89.0,0.0,0.0,0.0,0.0,0.049016487,0.049081497,0.054182723,0.05392853,0.0,0.0,0.0,0.0,1232.0725,1552.8245,991.1297,1303.3925,0.0,0.0,0.0,2.0,1.0,-2.330557,-0.030063918,0.00478065,89.0,89.0,89.0,89.0,21.842827,21.842827,24.816736,24.816736,0.016217865,0.016218558,-4.435635E-4,-4.4502036E-4,1183.9166,0.0,0.0,0.0,0.0,0.0,0.0,0.0,0.0,0.0,0.0,0.0,0.0,0.0,-64.28238,-0.31267306,-61.021122,-0.0072266385,-0.0030124858,-4.852598E-4,548355.2,119984.91,0.0067082,0.00815064,8391.777,8408.063,7342.422,7232.357,0.30060387,0.0,0.0,0.0
164.57614,164.57614,1.899,0.0,0.0,319.3908,11485.0,100.0,0.0,0.038651288,0.0,8.0,1.0,0.0,4000000.0,110.0,1.0,0.0,0.0,10.0,0.0,0.0,-231.32253,2.2923937,353.2214,-0.0080795735,0.17626572,-0.2121701,324.89188,324.83087,319.26105,319.2448,238.0,240.0,277.0,283.0,89.0,89.0,89.0,89.0,0.0,0.0,0.0,0.0,0.04733922,0.047740586,0.053439043,0.05281277,0.0,0.0,0.0,0.0,109.447624,423.38663,-386.30515,702.5777,0.0,0.0,0.0,2.0,1.0,-2.3306973,-0.02904168,0.0051846504,89.0,89.0,89.0,89.0,21.842827,21.842827,24.816736,24.816736,0.017192803,0.017042816,-4.3368243E-4,-4.2826086E-4,1185.1882,0.0,0.0,0.0,0.0,0.0,0.0,0.0,0.0,0.0,0.0,0.0,0.0,0.0,-64.341835,-0.35975146,-61.083378,-0.03174471,-0.0034994548,-0.010241048,547940.44,119984.9,0.01003521,0.01182542,7486.834,7636.443,6427.823,6173.258,0.30560398,0.0,0.0,0.0
169.01213,169.01213,1.949,0.0,0.0,319.71512,11495.0,100.0,0.0,-0.009213314,0.0,8.0,1.0,0.0,4000000.0,110.0,1.0,0.0,0.0,10.0,0.0,0.0,-234.5412,2.2711222,350.16547,-0.0090065,0.18513557,-0.14153998,325.17145,325.15628,319.5734,319.5747,237.0,239.0,276.0,282.0,89.0,89.0,89.0,89.0,0.0,0.0,0.0,0.0,0.046365906,0.046666697,0.05319864,0.05288317,0.0,0.0,0.0,0.0,1139.9655,1216.9181,1089.2584,-189.75287,0.0,0.0,0.0,2.0,1.0,-2.3307579,-0.02782459,0.005834341,89.0,89.0,89.0,89.0,21.842827,21.842827,24.816736,24.816736,0.017129347,0.017096985,-4.38357E-4,-4.3830648E-4,1185.7609,0.0,0.0,0.0,0.0,0.0,0.0,0.0,0.0,0.0,0.0,0.0,0.0,0.0,-64.40252,-0.46742055,-61.149567,-0.018900624,1.01832615E-4,-0.013270311,547728.25,119984.9,0.009597336,0.012226206,7595.1055,7619.396,6678.98,6498.966,0.30527592,0.0,0.0,0.0
173.45264,173.45264,1.999,0.0,0.0,320.0418,11500.0,100.0,0.0,-0.030999808,0.0,8.0,1.0,0.0,4000000.0,110.0,1.0,0.0,0.0,10.0,0.0,0.0,-237.76299,2.2470508,347.10623,-0.003065519,0.18485212,-0.008953205,325.29477,325.30002,319.89633,319.8994,236.0,237.0,275.0,281.0,89.0,89.0,89.0,89.0,0.0,0.0,0.0,0.0,0.048110593,0.048711035,0.053554922,0.05314614,0.0,0.0,0.0,0.0,265.20352,-189.85999,-485.22495,41.842445,0.0,0.0,0.0,2.0,1.0,-2.3307455,-0.02645266,0.0054354668,89.0,89.0,89.0,89.0,21.842827,21.842827,24.816736,24.816736,0.016509082,0.01648632,-4.4172615E-4,-4.4488936E-4,1186.0671,0.0,0.0,0.0,0.0,0.0,0.0,0.0,0.0,0.0,0.0,0.0,0.0,0.0,-64.46569,-0.4860502,-61.214687,-0.01794406,7.8953686E-4,-0.02511029,547631.5,119984.9,0.008265907,0.008885068,8034.378,8079.017,6765.081,6609.8174,0.30361652,0.0,0.0,0.0
177.8976,177.8976,2.049,0.0,0.0,320.35962,11512.0,100.0,0.0,-0.014011268,0.0,8.0,1.0,0.0,4000000.0,110.0,1.0,0.0,0.0,10.0,0.0,0.0,-240.98799,2.223556,344.04388,-0.0017928183,0.17452556,4.6840904E-4,325.6373,325.6291,320.21445,320.22528,235.0,236.0,274.0,280.0,89.0,89.0,89.0,89.0,0.0,0.0,0.0,0.0,0.048427362,0.048540615,0.05354515,0.0533517,0.0,0.0,0.0,0.0,-426.25656,-313.77814,106.698265,-331.96356,0.0,0.0,0.0,2.0,1.0,-2.3306804,-0.025513666,0.0058392286,89.0,89.0,89.0,89.0,21.842827,21.842827,24.816736,24.816736,0.01650323,0.016440846,-4.382894E-4,-4.3675152E-4,1186.7979,0.0,0.0,0.0,0.0,0.0,0.0,0.0,0.0,0.0,0.0,0.0,0.0,0.0,-64.529884,-0.46434772,-61.27546,-0.019457757,0.0014125521,0.0027613733,547397.7,119984.9,0.008587263,0.009446423,8016.9023,8062.754,6785.8647,6683.5034,0.3035822,0.0,0.0,0.0
182.3468,182.3468,2.083,0.0,0.0,320.66318,11527.0,100.0,0.0,-0.049921878,0.0,8.0,1.0,0.0,4000000.0,110.0,1.0,0.0,0.0,10.0,0.0,0.0,-244.21611,2.199276,340.9786,0.0100217685,0.17251568,-0.14297973,326.06253,326.04858,320.51797,320.53226,234.0,235.0,273.0,278.0,89.0,89.0,89.0,89.0,0.0,0.0,0.0,0.0,0.04769339,0.04797351,0.053303815,0.052966017,-10.808631,-10.286942,-8.195936,-6.5251436,274.7923,-198.38956,-129.60432,274.4704,0.0,0.0,0.0,2.0,1.0,-2.3306007,-0.024842348,0.006590247,89.0,89.0,89.0,89.0,21.842827,21.842827,24.816736,24.816736,0.01688386,0.01679311,-4.3275155E-4,-4.3391983E-4,1187.7081,0.0,0.0,0.0,0.0,0.0,0.0,0.0,0.0,0.0,0.0,0.0,0.0,0.0,-64.5919,-0.51431054,-61.33221,-0.024114441,0.0019804584,0.0033020824,547104.7,119984.9,0.010572506,0.011532523,7688.4136,7764.711,6507.2793,6368.9014,0.30727482,0.0,0.0,0.0
186.80484,186.80484,2.149,0.0,0.0,320.9641,11536.0,100.0,0.0,-0.08724996,0.0,8.0,1.0,0.0,4000000.0,110.0,1.0,0.0,0.0,10.0,0.0,0.0,-247.44743,2.1722133,337.91064,0.023500532,0.17511067,-0.056472596,326.30206,326.29904,320.80515,320.83484,233.0,234.0,272.0,277.0,89.0,89.0,89.0,89.0,0.0,0.0,0.0,0.0,0.04739045,0.04782264,0.053478528,0.053389825,0.0,0.0,0.0,0.0,1995.0134,2401.341,-141.63405,-217.58075,0.0,0.0,0.0,2.0,1.0,-2.3303971,-0.023900004,0.006590247,89.0,89.0,89.0,89.0,21.842827,21.842827,24.816736,24.816736,0.016775101,0.016662143,-4.3634544E-4,-4.404506E-4,1188.2607,0.0,0.0,0.0,0.0,0.0,0.0,0.0,0.0,0.0,0.0,0.0,0.0,0.0,-64.658066,-0.55974644,-61.383533,9.4342977E-4,0.0056544617,-0.024245083,546932.25,119984.9,0.009609183,0.011752504,7828.23,7916.363,6802.5596,6772.673,0.30654716,0.0,0.0,0.0
191.27148,191.27148,2.199,0.0,0.0,321.2719,11541.0,100.0,0.0,-0.14584298,0.0,8.0,1.0,0.0,4000000.0,110.0,1.0,0.0,0.0,10.0,0.0,0.0,-250.6823,2.144589,334.84024,0.04372882,0.17475691,0.090692185,326.4342,326.45145,321.1016,321.1557,232.0,233.0,271.0,276.0,89.0,89.0,89.0,89.0,0.0,0.0,0.0,0.0,0.049065046,0.04906178,0.053589754,0.053543054,0.0,0.0,0.0,0.0,-2110.1338,-1620.6442,-10.40697,-202.17146,0.0,0.0,0.0,2.0,1.0,-2.3299913,-0.023421587,0.005874157,89.0,89.0,89.0,89.0,21.842827,21.842827,24.816736,24.816736,0.016213126,0.016099183,-4.395203E-4,-4.4405356E-4,1188.553,0.0,0.0,0.0,0.0,0.0,0.0,0.0,0.0,0.0,0.0,0.0,0.0,0.0,-64.73347,-0.5362049,-61.4285,-0.00450727,0.009480806,-0.008070447,546829.75,119984.91,0.008524973,0.00883684,8247.11,8334.14,6845.0215,6815.01,0.30467224,0.0,0.0,0.0
195.7425,195.7425,2.249,0.0,0.0,321.56512,11553.0,100.0,0.0,-0.13076048,0.0,8.0,1.0,0.0,4000000.0,110.0,1.0,0.0,0.0,10.0,0.0,0.0,-253.92104,2.1190124,331.7678,0.059021726,0.16294591,0.05035249,326.7835,326.80487,321.3934,321.45514,231.0,232.0,270.0,275.0,89.0,89.0,89.0,89.0,0.0,0.0,0.0,0.0,0.04861099,0.048741132,0.053604186,0.053796303,0.0,0.0,0.0,0.0,-94.22601,-338.36063,-63.19283,-228.95335,0.0,0.0,0.0,2.0,1.0,-2.3294888,-0.023099964,0.006166458,89.0,89.0,89.0,89.0,21.842827,21.842827,24.816736,24.816736,0.01633508,0.01621975,-4.3511676E-4,-4.375637E-4,1189.2579,0.0,0.0,0.0,0.0,0.0,0.0,0.0,0.0,0.0,0.0,0.0,0.0,0.0,-64.81147,-0.49612674,-61.46496,-0.004483834,0.010440008,0.0051948195,546585.75,119984.9,0.008503788,0.009500824,8106.474,8185.631,6865.845,6959.443,0.30502987,0.0,0.0,0.0
200.21756,200.21756,2.299,0.0,0.0,321.84598,11564.0,100.0,0.0,-0.11504531,0.0,8.0,1.0,0.0,4000000.0,110.0,1.0,0.0,0.0,10.0,0.0,0.0,-257.16367,2.095273,328.69376,0.069135234,0.1570772,0.0036180122,327.0901,327.11807,321.67673,321.73325,230.0,231.0,269.0,274.0,89.0,89.0,89.0,89.0,0.0,0.0,0.0,0.0,0.048503406,0.04853281,0.05353689,0.053779643,0.0,0.0,0.0,0.0,-172.30507,-154.34766,-301.6546,-184.38843,0.0,0.0,0.0,2.0,1.0,-2.3289876,-0.023276577,0.0059816837,89.0,89.0,89.0,89.0,21.842827,21.842827,24.816736,24.816736,0.016400743,0.01632447,-4.305701E-4,-4.3209136E-4,1189.9202,0.0,0.0,0.0,0.0,0.0,0.0,0.0,0.0,0.0,0.0,0.0,0.0,0.0,-64.89071,-0.468222,-61.49499,0.006540513,0.0097629735,4.26732E-5,546369.9,119984.9,0.0103541715,0.011240341,8041.5347,8083.865,6716.689,6838.1597,0.30688095,0.0,0.0,0.0
204.69672,204.69672,2.349,0.0,0.0,322.12097,11575.0,100.0,0.0,-0.07271788,0.0,8.0,1.0,0.0,4000000.0,110.0,1.0,0.0,0.0,10.0,0.0,0.0,-260.41034,2.0715213,325.6183,0.070188195,0.15557122,-0.0024154605,327.3932,327.4157,321.95468,322.0044,229.0,230.0,268.0,273.0,89.0,89.0,89.0,89.0,0.0,0.0,0.0,0.0,0.048353095,0.048353437,0.05338663,0.053701602,0.0,0.0,0.0,0.0,454.4064,333.8411,372.14304,224.40698,0.0,0.0,0.0,2.0,1.0,-2.328519,-0.02365694,0.00576818,89.0,89.0,89.0,89.0,21.842827,21.842827,24.816736,24.816736,0.016478654,0.016416237,-4.3334288E-4,-4.3088375E-4,1190.5953,0.0,0.0,0.0,0.0,0.0,0.0,0.0,0.0,0.0,0.0,0.0,0.0,0.0,-64.9702,-0.4783801,-61.522068,0.013121104,0.008534682,0.0014760313,546160.4,119984.9,0.010933921,0.01214617,7976.4,8005.2236,6758.253,6897.0293,0.30783272,0.0,0.0,0.0
209.17981,209.17981,2.399,0.0,0.0,322.40256,11582.0,100.0,0.0,-0.06754407,0.0,8.0,1.0,0.0,4000000.0,110.0,1.0,0.0,0.0,10.0,0.0,0.0,-263.6609,2.0467856,322.5414,0.06776647,0.16323277,0.09084321,327.5809,327.59937,322.2403,322.27325,228.0,229.0,267.0,272.0,89.0,89.0,89.0,89.0,0.0,0.0,0.0,0.0,0.049000986,0.048933156,0.053613015,0.05384265,0.0,0.0,0.0,0.0,1006.05634,1280.9425,303.73334,389.108,0.0,0.0,0.0,2.0,1.0,-2.3281705,-0.024389232,0.005118251,89.0,89.0,89.0,89.0,21.842827,21.842827,24.816736,24.816736,0.016193049,0.016162913,-4.396923E-4,-4.4036502E-4,1191.0277,0.0,0.0,0.0,0.0,0.0,0.0,0.0,0.0,0.0,0.0,0.0,0.0,0.0,-65.04963,-0.48693332,-61.551876,0.023085505,0.006155375,-0.008779776,546028.5,119984.89,0.00867865,0.009602636,8237.969,8249.396,7014.8154,7114.712,0.30543804,0.0,0.0,0.0
213.66704,213.66704,2.433,0.0,0.0,322.68146,11585.0,100.0,0.0,0.0057023275,0.0,8.0,1.0,0.0,4000000.0,110.0,1.0,0.0,0.0,10.0,0.0,0.0,-266.9155,2.025952,319.46304,0.053481247,0.15208477,0.3466255,327.6815,327.69156,322.52667,322.5477,227.0,228.0,266.0,271.0,89.0,89.0,89.0,89.0,0.0,0.0,0.0,0.0,0.050054315,0.050064623,0.054236524,0.05441609,-9.783804,-7.4815745,2.9792635,2.5805085,-3302.188,-3026.3225,-1064.5552,-1030.5581,0.0,0.0,0.0,2.0,1.0,-2.3278992,-0.024682125,0.0041434765,89.0,89.0,89.0,89.0,21.842827,21.842827,24.816736,24.816736,0.015540427,0.015519674,-4.4421875E-4,-4.3775287E-4,1191.1813,0.0,0.0,0.0,0.0,0.0,0.0,0.0,0.0,0.0,0.0,0.0,0.0,0.0,-65.1294,-0.33879885,-61.58127,0.009848861,0.0034900731,-0.00361903,545957.5,119984.9,0.007901529,0.007991493,8815.825,8839.067,7302.5796,7383.7773,0.30421257,0.0,0.0,0.0
218.15811,218.15811,2.499,0.0,0.0,322.93152,11602.0,100.0,0.0,-0.031945236,0.0,8.0,1.0,0.0,4000000.0,110.0,1.0,0.0,0.0,10.0,0.0,0.0,-270.17377,2.0112407,316.3832,0.04556453,0.13919374,0.014738958,328.1798,328.18494,322.78607,322.79803,226.0,227.0,265.0,270.0,89.0,89.0,89.0,89.0,0.0,0.0,0.0,0.0,0.04858169,0.048490766,0.0538581,0.053938907,0.0,0.0,0.0,0.0,62.187077,574.05963,-104.86095,107.95886,0.0,0.0,0.0,2.0,1.0,-2.3277867,-0.02507647,0.0041896105,89.0,89.0,89.0,89.0,21.842827,21.842827,24.816736,24.816736,0.016262233,0.016247284,-4.2576718E-4,-4.2672682E-4,1192.1844,0.0,0.0,0.0,0.0,0.0,0.0,0.0,0.0,0.0,0.0,0.0,0.0,0.0,-65.19733,-0.27944788,-61.61083,0.0026059814,0.002075485,0.0017512599,545616.6,119984.9,0.010094684,0.011496785,8076.849,8082.218,6900.3296,6938.202,0.30702782,0.0,0.0,0.0
222.65285,222.65285,2.549,0.0,0.0,323.18536,11614.0,100.0,0.0,0.04210208,0.0,8.0,1.0,0.0,4000000.0,110.0,1.0,0.0,0.0,10.0,0.0,0.0,-273.43524,1.9965999,313.30173,0.023534268,0.14635174,-0.116804175,328.51535,328.51712,323.04605,323.04053,225.0,226.0,264.0,269.0,89.0,89.0,89.0,89.0,0.0,0.0,0.0,0.0,0.048014678,0.047998074,0.05348166,0.053526938,0.0,0.0,0.0,0.0,-649.3895,-655.4647,-311.45807,-378.35236,0.0,0.0,0.0,2.0,1.0,-2.327755,-0.02529362,0.0036363602,89.0,89.0,89.0,89.0,21.842827,21.842827,24.816736,24.816736,0.016560255,0.016579863,-4.302798E-4,-4.2568805E-4,1192.9097,0.0,0.0,0.0,0.0,0.0,0.0,0.0,0.0,0.0,0.0,0.0,0.0,0.0,-65.25763,-0.3123191,-61.649517,0.015066389,-7.292265E-4,-0.0073953597,545384.44,119984.91,0.010261736,0.011841126,7791.297,7784.199,6625.9253,6638.644,0.3073082,0.0,0.0,0.0
227.15149,227.15149,2.599,0.0,0.0,323.457,11615.0,100.0,0.0,0.024651855,0.0,8.0,1.0,0.0,4000000.0,110.0,1.0,0.0,0.0,10.0,0.0,0.0,-276.6997,1.9814986,310.21802,0.009684466,0.15464674,0.20704591,328.5338,328.5304,323.31903,323.30246,224.0,225.0,263.0,268.0,89.0,89.0,89.0,89.0,0.0,0.0,0.0,0.0,0.049636308,0.049600307,0.054039713,0.053927206,0.0,0.0,0.0,0.0,-570.61304,-447.29858,-24.059427,78.50824,0.0,0.0,0.0,2.0,1.0,-2.3278446,-0.025416011,0.0025322437,89.0,89.0,89.0,89.0,21.842827,21.842827,24.816736,24.816736,0.015751312,0.015787106,-4.4089084E-4,-4.4134984E-4,1192.9766,0.0,0.0,0.0,0.0,0.0,0.0,0.0,0.0,0.0,0.0,0.0,0.0,0.0,-65.31768,-0.26687217,-61.696053,0.013743111,-0.002225554,-0.017242644,545368.06,119984.9,0.0076031415,0.008032653,8590.264,8558.877,7247.3984,7192.7266,0.30409718,0.0,0.0,0.0
231.65396,231.65396,2.649,0.0,0.0,323.7076,11623.0,100.0,0.0,-0.053484865,0.0,8.0,1.0,0.0,4000000.0,110.0,1.0,0.0,0.0,10.0,0.0,0.0,-279.96713,1.9729121,307.13214,0.010420423,0.13381779,0.23801479,328.7646,328.76767,323.565,323.56888,223.0,224.0,262.0,267.0,89.0,89.0,89.0,89.0,0.0,0.0,0.0,0.0,0.049650453,0.049676936,0.054338027,0.05425579,0.0,0.0,0.0,0.0,-1056.2539,-1229.7657,-629.76917,-613.91736,0.0,0.0,0.0,2.0,1.0,-2.3278744,-0.025128992,0.001957059,89.0,89.0,89.0,89.0,21.842827,21.842827,24.816736,24.816736,0.015616117,0.015605606,-4.2736705E-4,-4.342317E-4,1193.441,0.0,0.0,0.0,0.0,0.0,0.0,0.0,0.0,0.0,0.0,0.0,0.0,0.0,-65.37469,-0.10447039,-61.737556,-0.0045511923,0.0010027373,-0.0022712052,545204.9,119984.89,0.008611978,0.008816063,8669.804,8667.79,7227.993,7196.9834,0.3049097,0.0,0.0,0.0
236.16002,236.16002,2.699,0.0,0.0,323.938,11639.0,100.0,0.0,-0.08683842,0.0,8.0,1.0,0.0,4000000.0,110.0,1.0,0.0,0.0,10.0,0.0,0.0,-283.2372,1.9683934,304.04416,0.016254246,0.13044512,-0.04559434,329.2257,329.24014,323.7896,323.80835,222.0,223.0,261.0,266.0,89.0,89.0,89.0,89.0,0.0,0.0,0.0,0.0,0.048259642,0.048241492,0.053805046,0.05373013,0.0,0.0,0.0,0.0,545.61487,620.36804,192.46185,194.37965,0.0,0.0,0.0,2.0,1.0,-2.327771,-0.025008172,0.0019959211,89.0,89.0,89.0,89.0,21.842827,21.842827,24.816736,24.816736,0.016374415,0.016357236,-4.1763458E-4,-4.2534713E-4,1194.3794,0.0,0.0,0.0,0.0,0.0,0.0,0.0,0.0,0.0,0.0,0.0,0.0,0.0,-65.42502,-0.09419971,-61.77748,0.0011820425,0.0037311097,-0.0061828867,544883.5,119984.89,0.011067292,0.012541942,7944.6123,7935.414,6861.289,6825.9287,0.30799675,0.0,0.0,0.0
240.66953,240.66953,2.749,0.0,0.0,324.1852,11646.0,100.0,0.0,-0.07177605,0.0,8.0,1.0,0.0,4000000.0,110.0,1.0,0.0,0.0,10.0,0.0,0.0,-286.5099,1.9616337,300.95422,0.025992967,0.14407952,0.017199472,329.3996,329.4189,324.023,324.05774,221.0,222.0,260.0,265.0,89.0,89.0,89.0,89.0,0.0,0.0,0.0,0.0,0.048441462,0.04854196,0.053750273,0.05364316,0.0,0.0,0.0,0.0,2342.0776,2305.801,555.3379,584.72156,0.0,0.0,0.0,2.0,1.0,-2.3274922,-0.024888916,0.0013167858,89.0,89.0,89.0,89.0,21.842827,21.842827,24.816736,24.816736,0.016231168,0.016189605,-4.326837E-4,-4.3226746E-4,1194.8235,0.0,0.0,0.0,0.0,0.0,0.0,0.0,0.0,0.0,0.0,0.0,0.0,0.0,-65.48199,-0.1451204,-61.817085,0.01438847,0.0065942407,-0.023760818,544758.44,119984.9,0.009102788,0.01053793,8112.62,8130.7827,7065.745,7013.0107,0.30602837,0.0,0.0,0.0
245.18282,245.18282,2.799,0.0,0.0,324.43765,11644.0,100.0,0.0,-0.062148146,0.0,8.0,1.0,0.0,4000000.0,110.0,1.0,0.0,0.0,10.0,0.0,0.0,-289.78574,1.9577763,297.86246,0.03755397,0.13809414,0.423938,329.35873,329.35925,324.27444,324.31216,220.0,221.0,259.0,264.0,89.0,89.0,89.0,89.0,0.0,0.0,0.0,0.0,0.05043995,0.050600458,0.05451249,0.054412752,0.0,0.0,0.0,0.0,-4623.0547,-4180.316,-1179.5817,-936.7211,0.0,0.0,0.0,2.0,1.0,-2.3271377,-0.024302753,-2.5391579E-5,89.0,89.0,89.0,89.0,21.842827,21.842827,24.816736,24.816736,0.015249151,0.015150158,-4.410392E-4,-4.3787903E-4,1194.6816,0.0,0.0,0.0,0.0,0.0,0.0,0.0,0.0,0.0,0.0,0.0,0.0,0.0,-65.5477,0.01245219,-61.849785,-0.002740576,0.006580181,-0.019019399,544787.3,119984.9,0.0077102347,0.007470449,9011.433,9102.804,7497.457,7458.5913,0.3040104,0.0,0.0,0.0
249.69376,249.69376,2.849,0.0,0.0,324.65408,11661.0,100.0,0.0,-0.06409435,0.0,8.0,1.0,0.0,4000000.0,110.0,1.0,0.0,0.0,10.0,0.0,0.0,-293.0647,1.961607,294.7693,0.04031663,0.12093273,0.06897554,329.8334,329.81888,324.50122,324.528,219.0,220.0,258.0,263.0,89.0,89.0,89.0,89.0,0.0,0.0,0.0,0.0,0.048809867,0.048999067,0.05421712,0.054086853,0.0,0.0,0.0,0.0,277.54163,302.8751,-190.93301,-279.6605,0.0,0.0,0.0,2.0,1.0,-2.3268783,-0.023725016,-1.3232231E-4,89.0,89.0,89.0,89.0,21.842827,21.842827,24.816736,24.816736,0.015993182,0.015871927,-4.2291908E-4,-4.2173886E-4,1195.7218,0.0,0.0,0.0,0.0,0.0,0.0,0.0,0.0,0.0,0.0,0.0,0.0,0.0,-65.605774,0.10618496,-61.87575,-0.0068215467,0.004527984,-0.010213677,544466.75,119984.91,0.009519933,0.010773669,8222.132,8340.711,7100.441,7030.9976,0.30620193,0.0,0.0,0.0
254.2027,254.2027,2.883,0.0,0.0,324.87473,11672.0,100.0,0.0,-0.06297075,0.0,8.0,1.0,0.0,4000000.0,110.0,1.0,0.0,0.0,10.0,0.0,0.0,-296.3465,1.9666995,291.6748,0.040205818,0.12761521,-0.09799645,330.17694,330.15323,324.72116,324.7457,218.0,219.0,257.0,262.0,89.0,89.0,89.0,89.0,0.0,0.0,0.0,0.0,0.0480459,0.048301794,0.053815898,0.053586498,-16.782581,-15.112012,-9.670481,-11.238455,-454.19183,-431.5674,-254.09904,-235.55156,0.0,0.0,0.0,2.0,1.0,-2.3266544,-0.022894269,-6.7710876E-4,89.0,89.0,89.0,89.0,21.842827,21.842827,24.816736,24.816736,0.016426688,0.016284715,-4.2364822E-4,-4.215373E-4,1196.3336,0.0,0.0,0.0,0.0,0.0,0.0,0.0,0.0,0.0,0.0,0.0,0.0,0.0,-65.66361,0.08756075,-61.903778,-0.0032947408,0.0044182907,-0.026452081,544231.94,119984.9,0.009866019,0.011556722,7810.3765,7950.26,6820.672,6709.051,0.3070221,0.0,0.0,0.0
258.7148,258.7148,2.949,0.0,0.0,325.11407,11673.0,100.0,0.0,-0.048515264,0.0,8.0,1.0,0.0,4000000.0,110.0,1.0,0.0,0.0,10.0,0.0,0.0,-299.6313,1.9716241,288.5788,0.035934623,0.13689211,0.20843798,330.18597,330.15268,324.95807,324.97833,217.0,219.0,256.0,261.0,89.0,89.0,89.0,89.0,0.0,0.0,0.0,0.0,0.04956003,0.049833134,0.054228734,0.05399775,0.0,0.0,0.0,0.0,-409.57327,-517.1299,120.56533,78.78988,0.0,0.0,0.0,2.0,1.0,-2.3264468,-0.021877253,-0.0019001961,89.0,89.0,89.0,89.0,21.842827,21.842827,24.816736,24.816736,0.015706366,0.015551902,-4.3726846E-4,-4.3468588E-4,1196.4183,0.0,0.0,0.0,0.0,0.0,0.0,0.0,0.0,0.0,0.0,0.0,0.0,0.0,-65.725174,0.13384241,-61.935318,0.0029745502,0.0038891053,-0.031953588,544223.9,119984.9,0.0072517227,0.007899404,8535.62,8709.422,7354.297,7245.034,0.3038063,0.0,0.0,0.0
263.23016,263.23016,2.983,0.0,0.0,325.3424,11681.0,100.0,0.0,0.07861205,0.0,8.0,1.0,0.0,4000000.0,110.0,1.0,0.0,0.0,10.0,0.0,0.0,-302.91904,1.9820789,285.4811,0.010954034,0.12421864,0.23024818,330.40482,330.36896,325.2081,325.19373,216.0,218.0,255.0,261.0,89.0,89.0,89.0,89.0,0.0,0.0,0.0,0.0,0.0495397,0.04977314,0.054574165,0.05415903,-18.237455,-19.68987,1.3379751,-2.6873498,-823.6929,-655.81335,-460.54865,-324.7484,0.0,0.0,0.0,2.0,1.0,-2.326441,-0.021039419,-0.0024079084,89.0,89.0,89.0,89.0,21.842827,21.842827,24.816736,24.816736,0.015541141,0.015471731,-4.37558E-4,-4.242566E-4,1196.9048,0.0,0.0,0.0,0.0,0.0,0.0,0.0,0.0,0.0,0.0,0.0,0.0,0.0,-65.779106,0.26871487,-61.970123,-0.014743604,-0.0030674553,-0.013462059,544072.25,119984.9,0.006392277,0.0072461814,8610.828,8752.098,7423.6436,7229.0537,0.3028345,0.0,0.0,0.0
267.7467,267.7467,3.049,0.0,0.0,325.1294,11597.0,89.22865,11.332912,0.011541405,0.0,8.0,0.0,1.0,4000000.0,110.0,1.0,0.0,0.0,10.0,0.0,0.0,-306.2079,1.9964654,282.38284,4.9875677E-4,-0.36334297,-0.08526466,328.04004,328.00787,324.05927,324.02942,220.0,221.0,258.0,263.0,89.0,89.0,89.0,89.0,0.0,0.0,0.0,0.0,0.04839036,0.048584852,0.053934567,0.053648677,0.0,0.0,0.0,0.0,115.97865,136.59152,-109.76938,12.204036,0.0,0.0,0.0,2.0,1.0,-2.3266468,-0.019916236,-0.0021004677,89.0,89.0,89.0,89.0,21.842827,21.842827,24.816736,24.816736,0.009218388,0.009178598,-0.0034024096,-0.003430145,1191.9132,0.0,0.0,0.0,0.0,0.0,0.0,0.0,0.0,0.0,0.0,0.0,0.0,0.0,-65.737465,0.2813358,-61.927986,-0.023536129,-0.0038072478,-0.0039115483,545727.7,0.0,0.008052575,0.009821914,7971.1797,8060.7314,7058.4785,6943.0537,0.3047428,0.0,0.0,0.0
272.25043,272.25043,3.083,0.0,0.0,323.5777,11492.0,54.761578,22.329765,-0.019507106,0.0,8.0,0.0,1.0,4000000.0,110.0,1.0,0.0,0.0,10.0,0.0,0.0,-309.48737,2.008862,279.29324,-0.006867647,-1.0759857,-0.1275424,323.93448,323.92987,321.65512,321.6424,231.0,232.0,268.0,274.0,89.0,89.0,89.0,89.0,0.0,0.0,0.0,0.0,0.0483162,0.048397027,0.05393885,0.05382602,17.311422,16.0975,2.5599449,5.4229794,1536.0875,1479.1039,95.74144,-24.917706,0.0,0.0,0.0,2.0,1.0,-2.3267694,-0.01922856,-0.0017900467,89.0,89.0,89.0,89.0,21.842827,21.842827,24.816736,24.816736,0.0013416928,0.0013342568,-0.006012291,-0.0060340376,1185.594,0.0,0.0,0.0,0.0,0.0,0.0,0.0,0.0,0.0,0.0,0.0,0.0,0.0,-65.42098,0.21875553,-61.635586,-0.0021654777,-7.33173E-4,-0.0063989456,547794.1,0.0,0.007273302,0.010100216,8024.1714,8054.396,7474.029,7428.294,0.30443478,0.0,0.0,0.0
276.72443,276.72443,3.149,0.0,0.0,320.8972,11313.0,34.692913,36.388187,-0.014314842,0.0,8.0,0.0,1.0,4000000.0,110.0,1.0,0.0,0.0,10.0,0.0,0.0,-312.74512,2.019277,276.22385,-0.0044878125,-1.7537757,0.06849754,319.2165,319.22186,317.92307,317.92014,251.0,253.0,287.0,292.0,89.0,89.0,89.0,89.0,0.0,0.0,0.0,0.0,0.04968751,0.049656957,0.05432951,0.054207314,0.0,0.0,0.0,0.0,-930.7398,-691.2856,-10.152167,168.44272,0.0,0.0,0.0,2.0,1.0,-2.3267353,-0.019100834,-0.0020940304,89.0,89.0,89.0,89.0,21.842827,21.842827,24.816736,24.816736,-0.005031586,-0.0050430633,-0.009303323,-0.009337146,1171.8091,0.0,0.0,0.0,0.0,0.0,0.0,0.0,0.0,0.0,0.0,0.0,0.0,0.0,-64.87719,0.21606949,-61.12697,-0.0011812276,0.0014601765,-0.00313173,549991.6,0.0,0.0050979992,0.0072441273,8632.11,8608.669,8011.8525,7962.4375,0.3020048,0.0,0.0,0.0
281.15228,281.15228,3.199,0.0,0.0,317.04208,11098.0,11.337453,49.97898,0.10916224,0.0,8.0,0.0,1.0,4000000.0,110.0,1.0,0.0,0.0,10.0,0.0,0.0,-315.9692,2.031312,273.186,-0.01575017,-2.3713818,0.071570575,313.43564,313.4215,313.05603,313.02075,280.0,281.0,313.0,318.0,89.0,89.0,89.0,89.0,0.0,0.0,0.0,0.0,0.049793318,0.049735367,0.054592792,0.054454334,0.0,0.0,0.0,0.0,-302.83478,-96.93501,-349.54544,-343.64456,0.0,0.0,0.0,2.0,1.0,-2.326767,-0.019051397,-0.0018948317,89.0,89.0,89.0,89.0,21.842827,21.842827,24.816736,24.816736,-0.011177789,-0.011176819,-0.012649177,-0.012701256,1149.0585,0.0,0.0,0.0,0.0,0.0,0.0,0.0,0.0,0.0,0.0,0.0,0.0,0.0,-64.0943,0.26034677,-60.396126,-0.004930213,-0.0030582016,0.0047209547,549761.6,0.0,0.0040859273,0.0067337328,8703.414,8663.201,8332.248,8267.25,0.30117702,0.0,0.0,0.0
285.5203,285.5203,3.249,0.0,0.0,312.36703,10873.0,0.0,59.984432,0.26545665,0.0,8.0,0.0,1.0,4000000.0,110.0,1.0,0.0,0.0,10.0,0.0,0.0,-319.1494,2.0451272,270.18887,-0.04499674,-2.7936597,0.019667795,307.33765,307.29636,307.4964,307.3982,312.0,313.0,343.0,348.0,89.0,89.0,89.0,89.0,0.0,0.0,0.0,0.0,0.04911329,0.04899235,0.054432105,0.054210782,0.0,0.0,0.0,0.0,-94.69539,-97.6324,-287.0768,-382.14767,0.0,0.0,0.0,2.0,1.0,-2.327083,-0.019084224,-0.0015026331,89.0,89.0,89.0,89.0,21.842827,21.842827,24.816736,24.816736,-0.016000224,-0.015967581,-0.015735772,-0.015850734,1121.0481,0.0,0.0,0.0,0.0,0.0,0.0,0.0,0.0,0.0,0.0,0.0,0.0,0.0,-63.139286,0.28441894,-59.515907,-0.0040905764,-0.010293127,0.0076962337,547459.3,0.0,0.0046858373,0.008445854,8298.981,8211.382,8294.577,8185.6772,0.3022585,0.0,0.0,0.0
289.81796,289.81796,3.299,0.0,0.0,306.9522,10644.0,0.0,72.12427,0.5988404,0.0,8.0,0.0,1.0,4000000.0,110.0,1.0,0.0,0.0,10.0,0.0,0.0,-322.27753,2.0591078,267.239,-0.11548722,-3.2088022,-0.029784638,300.87375,300.7563,300.92444,300.67505,349.0,350.0,378.0,383.0,89.0,89.0,89.0,89.0,0.0,0.0,0.0,0.0,0.04855334,0.04822744,0.054069076,0.05364231,0.0,0.0,0.0,0.0,-46.844784,-59.893738,158.69289,78.78988,0.0,0.0,0.0,2.0,1.0,-2.3279486,-0.019341048,-0.0011461973,89.0,89.0,89.0,89.0,21.842827,21.842827,24.816736,24.816736,-0.019886095,-0.019848855,-0.019897588,-0.020209955,1089.4275,0.0,0.0,0.0,0.0,0.0,0.0,0.0,0.0,0.0,0.0,0.0,0.0,0.0,-62.016354,0.2732468,-58.514378,0.0011919788,-0.025201023,0.009795753,543463.6,0.0,0.00570011,0.010394432,7912.3857,7692.379,8270.258,8062.082,0.3037014,0.0,0.0,0.0
294.03488,294.03488,3.333,0.0,0.0,300.77783,10390.0,0.0,86.763596,0.91396666,0.0,8.0,0.0,1.0,4000000.0,110.0,1.0,0.0,0.0,10.0,0.0,0.0,-325.34467,2.074803,264.34232,-0.21371031,-3.6529388,0.08849317,293.63647,293.43823,293.2046,292.6773,388.0,389.0,418.0,423.0,89.0,89.0,89.0,89.0,0.0,0.0,0.0,0.0,0.048704132,0.048282422,0.054025818,0.053223718,-20.776836,-19.24619,-17.43257,-19.7158,-1142.004,-1316.4683,-454.44662,-393.8287,0.0,0.0,0.0,2.0,1.0,-2.3296947,-0.019203627,-0.0014779568,89.0,89.0,89.0,89.0,21.842827,21.842827,24.816736,24.816736,-0.02391019,-0.023815641,-0.02557464,-0.026410138,1047.9019,0.0,0.0,0.0,0.0,0.0,0.0,0.0,0.0,0.0,0.0,0.0,0.0,0.0,-60.712154,0.34033605,-57.39704,-0.0012437179,-0.04421145,0.0013508879,535527.9,0.0,0.009310336,0.013253982,7865.285,7515.1694,8394.559,8023.007,0.30705833,0.0,0.0,0.0
298.16156,298.16156,3.399,0.0,0.0,294.01187,10117.0,0.0,93.63409,1.0343051,0.0,8.0,0.0,1.0,4000000.0,110.0,1.0,0.0,0.0,10.0,0.0,0.0,-328.3424,2.0919895,261.50378,-0.30708623,-3.9125817,-0.009104814,285.94995,285.68362,285.74512,284.77454,428.0,429.0,460.0,464.0,89.0,89.0,89.0,89.0,0.0,0.0,0.0,0.0,0.047243074,0.04608399,0.053608514,0.05228154,0.0,0.0,0.0,0.0,-224.43373,-569.2183,506.0121,366.04095,0.0,0.0,0.0,2.0,1.0,-2.332291,-0.019470574,-9.971857E-4,89.0,89.0,89.0,89.0,21.842827,21.842827,24.816736,24.816736,-0.027760848,-0.027672319,-0.028719347,-0.030803857,994.7037,0.0,0.0,0.0,0.0,0.0,0.0,0.0,0.0,0.0,0.0,0.0,0.0,0.0,-59.257748,0.3427842,-56.19951,-0.0032180892,-0.05803095,0.01330623,522058.28,0.0,0.01334228,0.018865071,7176.042,6714.243,8350.382,7695.1084,0.3120041,0.0,0.0,0.0
302.1922,302.1922,3.449,0.0,0.0,286.89035,9841.0,0.0,99.74159,1.6568644,0.0,8.0,0.0,1.0,4000000.0,110.0,1.0,0.0,0.0,10.0,0.0,0.0,-331.2649,2.1056855,258.7256,-0.47021174,-4.154228,0.09953591,278.25897,277.84665,278.6709,276.99905,466.0,467.0,501.0,504.0,89.0,89.0,89.0,89.0,0.0,0.0,0.0,0.0,0.044122595,0.042012166,0.05400764,0.05162022,0.0,0.0,0.0,0.0,3281.3604,3313.9895,1195.0178,1176.2693,0.0,0.0,0.0,2.0,1.0,-2.3358688,-0.020743195,-3.619194E-4,89.0,89.0,89.0,89.0,21.842827,21.842827,24.816736,24.816736,-0.030811448,-0.030779755,-0.029598972,-0.033712182,933.93463,0.0,0.0,0.0,0.0,0.0,0.0,0.0,0.0,0.0,0.0,0.0,0.0,0.0,-57.689316,0.2693419,-54.978607,0.017707078,-0.08454886,-0.002258177,503911.47,0.0,0.010040593,0.02025594,7027.5386,6326.491,9079.3,7899.72,0.31103325,0.0,0.0,0.0
306.12137,306.12137,3.499,0.0,0.0,279.57697,9609.0,0.0,100.0,2.7402883,0.0,8.0,0.0,1.0,4000000.0,110.0,1.0,0.0,0.0,10.0,0.0,0.0,-334.10538,2.1242716,256.0086,-0.7280395,-4.085333,0.48839003,271.73767,271.18478,271.73602,269.3762,502.0,503.0,539.0,542.0,89.0,89.0,89.0,89.0,0.0,0.0,0.0,0.0,0.048372526,0.04491377,0.055444714,0.051904157,0.0,0.0,0.0,0.0,-3622.6445,-2957.7654,-3147.2903,-1904.4888,0.0,0.0,0.0,2.0,1.0,-2.3411713,-0.020490607,-0.0029023886,89.0,89.0,89.0,89.0,21.842827,21.842827,24.816736,24.816736,-0.029119028,-0.028702902,-0.029028347,-0.034388434,879.18066,0.0,0.0,0.0,0.0,0.0,0.0,0.0,0.0,0.0,0.0,0.0,0.0,0.0,-56.014553,0.48581663,-53.788944,0.03990252,-0.12906595,-0.05213243,485821.75,0.0,0.009025438,0.017198013,7776.174,6940.6245,9475.738,7843.312,0.30913448,0.0,0.0,0.0
309.9502,309.9502,3.549,0.0,0.0,272.39993,10249.0,0.0,100.0,4.5612464,0.0,8.0,0.0,1.0,4000000.0,110.0,1.0,0.0,0.0,10.0,0.0,0.0,-336.8603,2.1526895,253.34747,-1.0937282,-4.054965,0.21302897,264.23172,263.4257,264.61365,260.14523,534.0,535.0,573.0,575.0,89.0,89.0,89.0,89.0,0.0,0.0,0.0,0.0,0.047413345,0.043637134,0.055055723,0.050021946,0.0,0.0,0.0,0.0,-645.03107,-1706.9578,401.28525,258.00177,0.0,0.0,0.0,2.0,1.0,-2.34958,-0.01982157,-0.004505396,89.0,89.0,89.0,89.0,21.842827,21.842827,24.816736,24.816736,-0.031477444,-0.030617677,-0.030617988,-0.042255104,1020.22894,0.0,0.0,0.0,0.0,0.0,0.0,0.0,0.0,0.0,0.0,0.0,0.0,0.0,-54.26204,0.6260497,-52.732155,0.0029911988,-0.20707,-0.00923293,528558.6,0.0,0.011610143,0.01951853,7332.5547,6065.064,8979.359,6599.1562,0.3112898,0.0,0.0,0.0
