LapDistance [m],TotalDistance [m],LapTime [s],Sector1Time [s],Sector2Time [s],Speed [km/h],EngineRevs [rpm],ThrottlePercentage [%],BrakePercentage [%],Steer [%],Clutch [%],Gear [int],DRS [0/1],CanUseDRS [0/1],KERSLevel [J],EngineTemperature [C],RacePosition [int],Sector [int],InPits [int],FuelRemaining [kg],CurrentFlag [int],CurrentLapInvalid [int],X [m],Y [m],Z [m],GForceLatitudinal [G],GForceLongitudinal [G],GForceVertical [G],WheelSpeedRearLeft [km/h],WheelSpeedRearRight [km/h],WheelSpeedFrontLeft [km/h],WheelSpeedFrontRight [km/h],BrakeTemperatureRearLeft [C],BrakeTemperatureRearRight [C],BrakeTemperatureFrontLeft [C],BrakeTemperatureFrontRight [C],TyreTemperatureRearLeft [C],TyreTemperatureRearRight [C],TyreTemperatureFrontLeft [C],TyreTemperatureFrontRight [C],TyreWearRearLeft [%],TyreWearRearRight [%],TyreWearFrontLeft [%],TyreWearFrontRight [%],SuspensionPositionRearLeft [m],SuspensionPositionRearRight [m],SuspensionPositionFrontLeft [m],SuspensionPositionFrontRight [m],SuspensionVelocityRearLeft [m/s],SuspensionVelocityRearRight [m/s],SuspensionVelocityFrontLeft [m/s],SuspensionVelocityFrontRight [m/s],SuspensionAccelerationRearLeft [m/s^2],SuspensionAccelerationRearRight [m/s^2],SuspensionAccelerationFrontLeft [m/s^2],SuspensionAccelerationFrontRight [m/s^2],MGUKHarvested [J],MGUHHarvested [J],ERSSpent [J],ERSMode [int],FuelMixMode [int],Yaw [rad],Roll [rad],Pitch [rad],TyreCarcassTemperatureRearLeft [C],TyreCarcassTemperatureRearRight [C],TyreCarcassTemperatureFrontLeft [C],TyreCarcassTemperatureFrontRight [C],TyrePressureRearLeft [PSI],TyrePressureRearRight [PSI],TyrePressureFrontLeft [PSI],TyrePressureFrontRight [PSI],WheelSlipRearLeft [%],WheelSlipRearRight [%],WheelSlipFrontLeft [%],WheelSlipFrontRight [%],Torque [Nm],Handbrake [%],RearLeftInside [C],RearLeftMiddle [C],RearLeftOutside [C],RearRightInside [C],RearRightMiddle [C],RearRightOutside [C],FrontLeftInside [C],FrontLeftMiddle [C],FrontLeftOutside [C],FrontRightInside [C],FrontRightMiddle [C],FrontRightOutside [C],WoldSpeedX [km/h],WoldSpeedY [km/h],WoldSpeedZ [km/h],LocalAngularVelocityX [rad/s],LocalAngularVelocityY [rad/s],LocalAngularVelocityZ [rad/s],IcePower [W],MgukPower [W],FrontRideHeight [m],RearRideHeight [m],LoadRearLeft [N],LoadRearRight [N],LoadFrontLeft [N],LoadFrontRight [N],Extra1 [m],Extra2 [],Extra3 [],Extra4 []
4.691666,4.691666,0.05,0.0,0.0,304.67896,10925.0,100.0,0.0,0.089194566,0.0,8.0,1.0,0.0,4000000.0,110.0,1.0,0.0,0.0,10.0,0.0,0.0,-115.91046,3.0850165,463.9176,0.0041429102,0.2728306,-0.5356403,310.6309,310.6429,304.55756,304.52942,292.0,294.0,326.0,335.0,89.0,89.0,89.0,89.0,0.0,0.0,0.0,0.0,0.043908875,0.043784916,0.05237674,0.052374016,-97.254654,-109.58857,-8.395537,-18.540321,727.174,-239.05196,1177.7982,151.2363,0.0,0.0,0.0,2.0,1.0,-2.3396811,-0.027462196,0.0068485737,89.0,89.0,89.0,89.0,21.842827,21.842827,24.816736,24.816736,0.019496176,0.019634971,-4.5902398E-4,-4.5314265E-4,1128.2706,0.0,0.0,0.0,0.0,0.0,0.0,0.0,0.0,0.0,0.0,0.0,0.0,0.0,-60.83623,-0.36221492,-58.835144,-0.019035643,-0.0062228325,0.048423775,548363.9,119984.89,0.013477429,0.017645584,6542.7207,6458.8164,5799.87,5748.4404,0.30496502,0.0,0.0,0.0
8.924125,8.924125,0.1,0.0,0.0,305.17618,10929.0,100.0,0.0,0.20543267,0.0,8.0,1.0,0.0,4000000.0,110.0,1.0,0.0,0.0,10.0,0.0,0.0,-118.95458,3.0612454,460.97305,-0.03556268,0.28391206,-0.14337364,310.7505,310.73474,305.06784,304.99588,290.0,292.0,325.0,334.0,89.0,89.0,89.0,89.0,0.0,0.0,0.0,0.0,0.0434559,0.043045074,0.05295019,0.052724604,52.11442,51.192192,26.599018,29.20523,4283.836,4551.5337,1216.234,1700.9896,0.0,0.0,0.0,2.0,1.0,-2.3401747,-0.027981011,0.007850289,89.0,89.0,89.0,89.0,21.842827,21.842827,24.816736,24.816736,0.01828092,0.018446684,-4.701558E-4,-4.6213283E-4,1128.8279,0.0,0.0,0.0,0.0,0.0,0.0,0.0,0.0,0.0,0.0,0.0,0.0,0.0,-60.922775,-0.5363662,-58.943,0.010754228,-0.012271777,0.0013959878,548433.94,119984.9,0.01361133,0.018397912,7443.8936,7361.128,6611.37,6522.825,0.30603695,0.0,0.0,0.0
13.16341,13.16341,0.15,0.0,0.0,305.65393,10938.0,100.0,0.0,0.048317827,0.0,8.0,1.0,0.0,4000000.0,110.0,1.0,0.0,0.0,10.0,0.0,0.0,-122.0029,3.033729,458.0231,-0.040995993,0.27000874,0.039446577,310.99417,310.9822,305.5272,305.4818,289.0,291.0,324.0,333.0,89.0,89.0,89.0,89.0,0.0,0.0,0.0,0.0,0.04688908,0.04659377,0.053700265,0.053204823,70.61362,75.43109,14.482363,9.197517,332.55338,202.11821,-50.988804,53.469826,0.0,0.0,0.0,2.0,1.0,-2.340647,-0.028011397,0.006693721,89.0,89.0,89.0,89.0,21.842827,21.842827,24.816736,24.816736,0.01749658,0.01759802,-4.6717268E-4,-4.710368E-4,1130.0742,0.0,0.0,0.0,0.0,0.0,0.0,0.0,0.0,0.0,0.0,0.0,0.0,0.0,-61.005035,-0.5485409,-59.048725,0.01840385,-0.006522939,-0.031491693,548587.7,119984.9,0.011547947,0.014444113,7894.496,7820.9834,6883.831,6636.828,0.30399418,0.0,0.0,0.0
15.993239,15.993239,0.2,0.0,0.0,305.97202,10944.0,100.0,0.0,-0.051126555,0.0,8.0,1.0,0.0,4000000.0,110.0,1.0,0.0,0.0,10.0,0.0,0.0,-124.03743,3.016075,456.05362,-0.028918847,0.2705297,0.16047943,311.16745,311.16748,305.8269,305.81427,288.0,290.0,323.0,332.0,89.0,89.0,89.0,89.0,0.0,0.0,0.0,0.0,0.049280323,0.04925829,0.053884726,0.053613313,0.0,0.0,0.0,0.0,41.3594,142.45192,-29.28972,138.12033,0.0,0.0,0.0,2.0,1.0,-2.3407478,-0.027652523,0.0053631067,89.0,89.0,89.0,89.0,21.842827,21.842827,24.816736,24.816736,0.01705736,0.017072177,-4.652229E-4,-4.7841092E-4,1130.9252,0.0,0.0,0.0,0.0,0.0,0.0,0.0,0.0,0.0,0.0,0.0,0.0,0.0,-61.06232,-0.5072868,-59.11695,0.02298742,-2.620263E-4,-0.03609147,548699.8,119984.9,0.009732251,0.010764976,8247.713,8218.47,6983.238,6877.575,0.30264282,0.0,0.0,0.0
20.243748,20.243748,0.25,0.0,0.0,306.45218,10957.0,100.0,0.0,-0.09568058,0.0,8.0,1.0,0.0,4000000.0,110.0,1.0,0.0,0.0,10.0,0.0,0.0,-127.09297,2.9943862,453.09506,-0.009491086,0.26602834,0.30792433,311.50128,311.5275,306.2944,306.31363,287.0,289.0,322.0,331.0,89.0,89.0,89.0,89.0,0.0,0.0,0.0,0.0,0.049798574,0.04975661,0.054190047,0.054045405,0.0,0.0,0.0,0.0,-385.31265,916.68506,-294.77472,449.3504,0.0,0.0,0.0,2.0,1.0,-2.3406332,-0.027111353,0.00412333,89.0,89.0,89.0,89.0,21.842827,21.842827,24.816736,24.816736,0.01653802,0.016541835,-4.6839475E-4,-4.7953104E-4,1132.7125,0.0,0.0,0.0,0.0,0.0,0.0,0.0,0.0,0.0,0.0,0.0,0.0,0.0,-61.15415,-0.36456534,-59.214916,-0.002791646,0.0042207083,-0.020740753,548914.94,119984.9,0.0073932605,0.0076344186,8703.813,8660.365,7164.7515,7124.5693,0.30030346,0.0,0.0,0.0
25.921162,25.921162,0.3,0.0,0.0,307.07538,10986.0,100.0,0.0,-0.08739469,0.0,8.0,1.0,0.0,4000000.0,110.0,1.0,0.0,0.0,10.0,0.0,0.0,-131.17429,2.9733546,449.1434,0.021011487,0.26787424,0.042130973,312.33066,312.39066,306.90326,306.95157,285.0,287.0,320.0,329.0,89.0,89.0,89.0,89.0,0.0,0.0,0.0,0.0,0.04857383,0.048355084,0.053775553,0.05395908,-4.013255,-6.631538,1.464039,4.0519233,725.752,1188.9962,259.81213,125.03114,0.0,0.0,0.0,2.0,1.0,-2.3401487,-0.027168507,0.0039042234,89.0,89.0,89.0,89.0,21.842827,21.842827,24.816736,24.816736,0.017238202,0.017282085,-4.7003233E-4,-4.723829E-4,1136.777,0.0,0.0,0.0,0.0,0.0,0.0,0.0,0.0,0.0,0.0,0.0,0.0,0.0,-61.28489,-0.29920447,-59.32911,0.013537675,0.008838395,-0.0041532135,549430.4,119984.9,0.0059629595,0.0079913065,8050.2144,7956.9526,6893.9727,6979.418,0.2982874,0.0,0.0,0.0
30.187027,30.187027,0.35,0.0,0.0,307.55646,11003.0,100.0,0.0,-0.04164331,0.0,8.0,1.0,0.0,4000000.0,110.0,1.0,0.0,0.0,10.0,0.0,0.0,-134.24133,2.9583294,446.17474,0.033856742,0.27109692,-0.03599515,312.8195,312.86954,307.39697,307.43536,284.0,286.0,319.0,328.0,89.0,89.0,89.0,89.0,0.0,0.0,0.0,0.0,0.048785552,0.048569817,0.053089198,0.053330287,-7.3298063,-11.229514,-12.65779,-14.287232,-1338.8916,-1520.933,296.74615,139.07254,0.0,0.0,0.0,2.0,1.0,-2.339778,-0.027836246,0.0041228533,89.0,89.0,89.0,89.0,21.842827,21.842827,24.816736,24.816736,0.017149206,0.017194847,-4.7065617E-4,-4.672381E-4,1139.0144,0.0,0.0,0.0,0.0,0.0,0.0,0.0,0.0,0.0,0.0,0.0,0.0,0.0,-61.39085,-0.3074063,-59.411743,-0.013237625,0.0055264714,0.035786126,549661.25,119984.89,0.008537688,0.007748621,8075.5225,7986.7607,6260.2617,6365.003,0.29755306,0.0,0.0,0.0
34.45935,34.45935,0.4,0.0,0.0,308.0113,11030.0,100.0,0.0,-0.037376087,0.0,8.0,1.0,0.0,4000000.0,110.0,1.0,0.0,0.0,10.0,0.0,0.0,-137.31355,2.9405892,443.20218,0.039184958,0.25718898,-0.26192513,313.57092,313.62775,307.8543,307.88947,283.0,285.0,318.0,327.0,89.0,89.0,89.0,89.0,0.0,0.0,0.0,0.0,0.04696472,0.046836413,0.052870754,0.053103402,-32.001656,-42.09302,4.9272175,-7.809698,464.0087,-1021.04987,938.2366,-592.2585,0.0,0.0,0.0,2.0,1.0,-2.3395202,-0.029054388,0.0060179234,89.0,89.0,89.0,89.0,21.842827,21.842827,24.816736,24.816736,0.018116336,0.01821009,-4.614514E-4,-4.5608086E-4,1141.8677,0.0,0.0,0.0,0.0,0.0,0.0,0.0,0.0,0.0,0.0,0.0,0.0,0.0,-61.49351,-0.41119683,-59.486713,0.0032553915,0.0051153605,0.041714463,549689.3,119984.9,0.010586337,0.012677436,7359.202,7258.626,6294.003,6334.3486,0.29937744,0.0,0.0,0.0
38.73807,38.73807,0.45,0.0,0.0,308.47208,11039.0,100.0,0.0,-0.030804243,0.0,8.0,1.0,0.0,4000000.0,110.0,1.0,0.0,0.0,10.0,0.0,0.0,-140.39098,2.9170985,440.22583,0.044734344,0.2607911,-0.06107519,313.86447,313.84018,308.31958,308.33768,282.0,283.0,317.0,325.0,89.0,89.0,89.0,89.0,0.0,0.0,0.0,0.0,0.04697186,0.047038414,0.05335282,0.05310637,29.648912,51.875484,12.012943,16.332193,2282.1975,3571.6963,199.23447,1496.0421,0.0,0.0,0.0,2.0,1.0,-2.3393333,-0.029203262,0.0066461563,89.0,89.0,89.0,89.0,21.842827,21.842827,24.816736,24.816736,0.017571075,0.01744629,-4.6246647E-4,-4.609701E-4,1142.8196,0.0,0.0,0.0,0.0,0.0,0.0,0.0,0.0,0.0,0.0,0.0,0.0,0.0,-61.59773,-0.501321,-59.562374,-0.0135095995,0.0028914677,-0.0111964485,549699.0,119984.89,0.0115838805,0.013187376,7790.925,7892.2417,6695.3096,6640.4014,0.30187225,0.0,0.0,0.0
41.594086,41.594086,0.5,0.0,0.0,308.7665,11049.0,100.0,0.0,-0.040324826,0.0,8.0,1.0,0.0,4000000.0,110.0,1.0,0.0,0.0,10.0,0.0,0.0,-142.44551,2.9000351,438.23956,0.037453167,0.24869013,-0.050146643,314.1218,314.17606,308.61075,308.63403,281.0,283.0,316.0,325.0,89.0,89.0,89.0,89.0,0.0,0.0,0.0,0.0,0.047961097,0.04790945,0.05325085,0.05352172,0.0,0.0,0.0,0.0,291.07336,-2232.523,522.3199,-282.7048,0.0,0.0,0.0,2.0,1.0,-2.3392107,-0.029137664,0.0066221952,89.0,89.0,89.0,89.0,21.842827,21.842827,24.816736,24.816736,0.017422365,0.017537694,-4.5828498E-4,-4.6229034E-4,1143.8779,0.0,0.0,0.0,0.0,0.0,0.0,0.0,0.0,0.0,0.0,0.0,0.0,0.0,-61.665398,-0.51987237,-59.609894,0.007342647,0.0042997594,-1.8743868E-4,549710.1,119984.9,0.011408856,0.013066796,7840.4727,7708.3726,6572.3496,6722.3516,0.30271912,0.0,0.0,0.0
45.883106,45.883106,0.55,0.0,0.0,309.20886,11058.0,100.0,0.0,-0.114836834,0.0,8.0,1.0,0.0,4000000.0,110.0,1.0,0.0,0.0,10.0,0.0,0.0,-145.5315,2.8741367,435.25723,0.045599006,0.2532915,0.116479956,314.40756,314.40637,309.04276,309.07468,280.0,281.0,315.0,323.0,89.0,89.0,89.0,89.0,0.0,0.0,0.0,0.0,0.04896823,0.049328793,0.054037213,0.05369095,0.0,0.0,0.0,0.0,506.78986,375.18732,-118.96934,10.004624,0.0,0.0,0.0,2.0,1.0,-2.338961,-0.028957887,0.0055396557,89.0,89.0,89.0,89.0,21.842827,21.842827,24.816736,24.816736,0.01694958,0.016848713,-4.6873552E-4,-4.6864888E-4,1144.8302,0.0,0.0,0.0,0.0,0.0,0.0,0.0,0.0,0.0,0.0,0.0,0.0,0.0,-61.769154,-0.50018835,-59.67952,0.011740311,0.006097421,-0.033026792,549719.94,119984.89,0.008794496,0.010365355,8211.783,8322.68,7100.464,6894.351,0.3001089,0.0,0.0,0.0
50.180557,50.180557,0.6,0.0,0.0,309.6511,11069.0,100.0,0.0,-0.10438006,0.0,8.0,1.0,0.0,4000000.0,110.0,1.0,0.0,0.0,10.0,0.0,0.0,-148.62279,2.8519945,432.27142,0.049672805,0.24809405,0.28557262,314.70233,314.70947,309.48386,309.52277,278.0,280.0,314.0,322.0,89.0,89.0,89.0,89.0,0.0,0.0,0.0,0.0,0.049933225,0.04990253,0.054224573,0.05419392,0.0,0.0,0.0,0.0,-293.72867,229.95917,-578.0562,435.75162,0.0,0.0,0.0,2.0,1.0,-2.3386235,-0.027575964,0.0044008493,89.0,89.0,89.0,89.0,21.842827,21.842827,24.816736,24.816736,0.016375419,0.016306687,-4.6586298E-4,-4.7383356E-4,1145.9927,0.0,0.0,0.0,0.0,0.0,0.0,0.0,0.0,0.0,0.0,0.0,0.0,0.0,-61.876713,-0.38203728,-59.745857,-0.016772024,0.0071301335,-0.031448856,549731.3,119984.89,0.0070571513,0.007266524,8731.596,8763.123,7161.3257,7219.5537,0.29893494,0.0,0.0,0.0
55.92447,55.92447,0.65,0.0,0.0,310.22018,11095.0,100.0,0.0,-0.12130545,0.0,8.0,1.0,0.0,4000000.0,110.0,1.0,0.0,0.0,10.0,0.0,0.0,-152.75284,2.8305404,428.28552,0.059026584,0.24276248,0.013958575,315.4318,315.45297,310.0504,310.10153,277.0,279.0,312.0,321.0,89.0,89.0,89.0,89.0,0.0,0.0,0.0,0.0,0.04884242,0.048898105,0.053845555,0.053866386,-6.612315,-15.807599,-11.763497,-14.90794,416.9896,236.66472,-434.34344,-69.804436,0.0,0.0,0.0,2.0,1.0,-2.3380523,-0.027291304,0.004071355,89.0,89.0,89.0,89.0,21.842827,21.842827,24.816736,24.816736,0.016895654,0.016815837,-4.6044253E-4,-4.6190314E-4,1148.7418,0.0,0.0,0.0,0.0,0.0,0.0,0.0,0.0,0.0,0.0,0.0,0.0,0.0,-62.017807,-0.29869255,-59.827778,-0.001789069,0.008600762,0.004036236,549758.75,119984.9,0.007910129,0.008454666,8173.4365,8228.347,6735.283,6738.906,0.29829502,0.0,0.0,0.0
60.239212,60.239212,0.7,0.0,0.0,310.64267,11116.0,100.0,0.0,-0.083780706,0.0,8.0,1.0,0.0,4000000.0,110.0,1.0,0.0,0.0,10.0,0.0,0.0,-155.85652,2.8146503,425.29257,0.062892236,0.23672956,-0.12932612,316.02133,316.06436,310.47336,310.5278,275.0,277.0,311.0,319.0,89.0,89.0,89.0,89.0,0.0,0.0,0.0,0.0,0.048064005,0.04801235,0.05336202,0.05364982,-17.302483,-19.743292,-2.188012,0.49822026,198.99306,26.52706,463.1906,263.90253,0.0,0.0,0.0,2.0,1.0,-2.3376055,-0.027318548,0.0047397614,89.0,89.0,89.0,89.0,21.842827,21.842827,24.816736,24.816736,0.017405333,0.017388584,-4.564257E-4,-4.5369493E-4,1150.9629,0.0,0.0,0.0,0.0,0.0,0.0,0.0,0.0,0.0,0.0,0.0,0.0,0.0,-62.12326,-0.34435502,-59.88724,-0.0030264277,0.00891565,0.008391252,549781.06,119984.9,0.008958589,0.010730918,7751.8096,7734.6772,6588.8765,6726.1113,0.30105877,0.0,0.0,0.0
63.118965,63.118965,0.749,0.0,0.0,310.92728,11123.0,100.0,0.0,-0.11339708,0.0,8.0,1.0,0.0,4000000.0,110.0,1.0,0.0,0.0,10.0,0.0,0.0,-157.92859,2.8023956,423.29562,0.07210228,0.24306184,-0.074419305,316.2518,316.2461,310.7567,310.8078,275.0,276.0,310.0,319.0,89.0,89.0,89.0,89.0,0.0,0.0,0.0,0.0,0.04822695,0.048562158,0.053433344,0.05362088,0.0,0.0,0.0,0.0,1401.5881,1504.5312,158.57219,710.5573,0.0,0.0,0.0,2.0,1.0,-2.3373141,-0.027432902,0.0047551394,89.0,89.0,89.0,89.0,21.842827,21.842827,24.816736,24.816736,0.017273085,0.017099407,-4.6006E-4,-4.5978327E-4,1151.704,0.0,0.0,0.0,0.0,0.0,0.0,0.0,0.0,0.0,0.0,0.0,0.0,0.0,-62.195396,-0.3812438,-59.926098,0.0081453845,0.008775345,0.0013153846,549788.9,119984.92,0.0090225525,0.010276236,7880.1045,8010.292,6682.1445,6785.91,0.3013792,0.0,0.0,0.0
67.44356,67.44356,0.799,0.0,0.0,311.3522,11134.0,100.0,0.0,-0.09814249,0.0,8.0,1.0,0.0,4000000.0,110.0,1.0,0.0,0.0,10.0,0.0,0.0,-161.04124,2.7833176,420.29776,0.069650665,0.23894978,0.06257247,316.54974,316.567,311.18146,311.22772,273.0,275.0,309.0,318.0,89.0,89.0,89.0,89.0,0.0,0.0,0.0,0.0,0.049015217,0.04897126,0.053840127,0.053929165,0.0,0.0,0.0,0.0,-608.48584,977.7455,126.85506,-263.35266,0.0,0.0,0.0,2.0,1.0,-2.3368883,-0.02788292,0.0042608976,89.0,89.0,89.0,89.0,21.842827,21.842827,24.816736,24.816736,0.016819015,0.016757945,-4.6443386E-4,-4.6082E-4,1152.8676,0.0,0.0,0.0,0.0,0.0,0.0,0.0,0.0,0.0,0.0,0.0,0.0,0.0,-62.304283,-0.37249917,-59.983257,0.008472033,0.008072752,-0.014420133,549800.6,119984.9,0.007250518,0.0085692825,8231.5,8250.225,7006.9375,6999.9917,0.29753113,0.0,0.0,0.0
71.773964,71.773964,0.849,0.0,0.0,311.77356,11150.0,100.0,0.0,-0.12048874,0.0,8.0,1.0,0.0,4000000.0,110.0,1.0,0.0,0.0,10.0,0.0,0.0,-164.15936,2.7651591,417.29712,0.07106356,0.233363,0.06713817,316.97952,317.02628,311.60648,311.6585,272.0,274.0,308.0,316.0,89.0,89.0,89.0,89.0,0.0,0.0,0.0,0.0,0.04911631,0.048975863,0.053593345,0.053884692,0.0,0.0,0.0,0.0,-255.22554,-2603.8616,563.3577,90.47092,0.0,0.0,0.0,2.0,1.0,-2.3364854,-0.02776011,0.0045392513,89.0,89.0,89.0,89.0,21.842827,21.842827,24.816736,24.816736,0.016746124,0.016748765,-4.5615627E-4,-4.5940885E-4,1154.5591,0.0,0.0,0.0,0.0,0.0,0.0,0.0,0.0,0.0,0.0,0.0,0.0,0.0,-62.413765,-0.3500323,-60.038414,-0.010556028,0.0083871,0.017274076,549817.2,119984.91,0.008204952,0.008271788,8244.024,8193.646,6786.4507,6930.377,0.2985487,0.0,0.0,0.0
76.11004,76.11004,0.899,0.0,0.0,312.1741,11169.0,100.0,0.0,-0.157768,0.0,8.0,1.0,0.0,4000000.0,110.0,1.0,0.0,0.0,10.0,0.0,0.0,-167.28282,2.7466483,414.29382,0.076283656,0.224103,-0.12816012,317.55246,317.56308,312.00653,312.06155,271.0,273.0,307.0,315.0,89.0,89.0,89.0,89.0,0.0,0.0,0.0,0.0,0.048089396,0.04819097,0.053441208,0.053472105,0.0,0.0,0.0,0.0,355.82187,-195.77441,650.9184,-175.3762,0.0,0.0,0.0,2.0,1.0,-2.3360667,-0.027896991,0.005467534,89.0,89.0,89.0,89.0,21.842827,21.842827,24.816736,24.816736,0.017307937,0.017198829,-4.48843E-4,-4.5115483E-4,1156.5701,0.0,0.0,0.0,0.0,0.0,0.0,0.0,0.0,0.0,0.0,0.0,0.0,0.0,-62.51826,-0.39747226,-60.089973,-0.013037559,0.008921579,0.00942996,549837.9,119984.91,0.011228966,0.0116293505,7761.2183,7819.907,6607.5977,6560.5527,0.30176353,0.0,0.0,0.0
81.899956,81.899956,0.949,0.0,0.0,312.70547,11189.0,100.0,0.0,-0.22956742,0.0,8.0,1.0,0.0,4000000.0,110.0,1.0,0.0,0.0,10.0,0.0,0.0,-171.45561,2.7141585,410.28564,0.09882445,0.22715957,-0.10619014,318.12262,318.145,312.51828,312.60318,270.0,271.0,305.0,314.0,89.0,89.0,89.0,89.0,0.0,0.0,0.0,0.0,0.046985123,0.04714169,0.05333282,0.05354432,9.31777,6.1435995,32.092403,20.779743,932.01385,1841.6982,1030.5715,803.79095,0.0,0.0,0.0,2.0,1.0,-2.3352842,-0.028348917,0.0065672398,89.0,89.0,89.0,89.0,21.842827,21.842827,24.816736,24.816736,0.017555928,0.017370166,-4.5358264E-4,-4.5805651E-4,1158.6865,0.0,0.0,0.0,0.0,0.0,0.0,0.0,0.0,0.0,0.0,0.0,0.0,0.0,-62.662224,-0.5545411,-60.151936,0.007497996,0.014769233,-0.0014017539,549859.44,119984.9,0.01042423,0.013117661,7619.2026,7717.379,6886.2964,6948.8076,0.30258942,0.0,0.0,0.0
86.2489,86.2489,0.999,0.0,0.0,313.11597,11192.0,100.0,0.0,-0.17119828,0.0,8.0,1.0,0.0,4000000.0,110.0,1.0,0.0,0.0,10.0,0.0,0.0,-174.59184,2.6864219,407.27698,0.108531415,0.23706643,0.2583398,318.19016,318.1947,312.9139,313.00674,268.0,270.0,304.0,312.0,89.0,89.0,89.0,89.0,0.0,0.0,0.0,0.0,0.0498943,0.050087314,0.054353796,0.05446955,69.78325,58.456284,27.280298,18.675325,-12.713927,-960.633,102.71518,-402.15704,0.0,0.0,0.0,2.0,1.0,-2.3344433,-0.02832902,0.0050905943,89.0,89.0,89.0,89.0,21.842827,21.842827,24.816736,24.816736,0.016447067,0.016222086,-4.750053E-4,-4.680983E-4,1159.0026,0.0,0.0,0.0,0.0,0.0,0.0,0.0,0.0,0.0,0.0,0.0,0.0,0.0,-62.782375,-0.5167297,-60.191742,0.030134598,0.016712721,-0.039220836,549862.0,119984.914,0.0043873615,0.0063136816,8535.361,8710.119,7505.6133,7525.0234,0.29632473,0.0,0.0,0.0
90.60102,90.60102,1.049,0.0,0.0,313.52704,11205.0,100.0,0.0,-0.16038634,0.0,8.0,1.0,0.0,4000000.0,110.0,1.0,0.0,0.0,10.0,0.0,0.0,-177.73438,2.665255,404.26648,0.12059291,0.22282833,0.2930573,318.56934,318.5655,313.34174,313.4326,267.0,269.0,303.0,311.0,89.0,89.0,89.0,89.0,0.0,0.0,0.0,0.0,0.04996771,0.05033731,0.054195754,0.054331817,-37.41324,-37.096737,-9.03435,-7.2189417,-2781.4773,-2820.007,-144.79906,-100.82424,0.0,0.0,0.0,2.0,1.0,-2.333656,-0.027694881,0.004776716,89.0,89.0,89.0,89.0,21.842827,21.842827,24.816736,24.816736,0.016127242,0.015850382,-4.646629E-4,-4.5729047E-4,1160.3785,0.0,0.0,0.0,0.0,0.0,0.0,0.0,0.0,0.0,0.0,0.0,0.0,0.0,-62.910583,-0.34824413,-60.224182,-0.038889483,0.013761875,0.020701012,549876.06,119984.914,0.004664143,0.0041263825,8692.601,8962.551,7026.0425,7093.3955,0.29366684,0.0,0.0,0.0
94.95657,94.95657,1.099,0.0,0.0,313.8977,11233.0,100.0,0.0,-0.12169613,0.0,8.0,1.0,0.0,4000000.0,110.0,1.0,0.0,0.0,10.0,0.0,0.0,-180.88286,2.647556,401.2544,0.11053869,0.20773822,-0.2340488,319.3899,319.35104,313.72827,313.78525,266.0,268.0,302.0,310.0,89.0,89.0,89.0,89.0,0.0,0.0,0.0,0.0,0.04756321,0.047891106,0.05377747,0.05387775,-41.040253,-34.797413,-21.743773,-12.890919,-585.6468,497.61676,-1704.3156,-564.4306,0.0,0.0,0.0,2.0,1.0,-2.3331215,-0.026753627,0.006370783,89.0,89.0,89.0,89.0,21.842827,21.842827,24.816736,24.816736,0.017572206,0.017286405,-4.4431852E-4,-4.434211E-4,1163.341,0.0,0.0,0.0,0.0,0.0,0.0,0.0,0.0,0.0,0.0,0.0,0.0,0.0,-63.021446,-0.3899998,-60.256996,-0.02473285,0.009055612,-0.009367559,549905.75,119984.9,0.008430823,0.011015929,7453.461,7690.5557,6628.3223,6720.406,0.29871082,0.0,0.0,0.0
99.31727,99.31727,1.149,0.0,0.0,314.28503,11244.0,100.0,0.0,-0.073588684,0.0,8.0,1.0,0.0,4000000.0,110.0,1.0,0.0,0.0,10.0,0.0,0.0,-184.03676,2.6238093,398.24045,0.08722736,0.22229847,-0.20042518,319.67996,319.6988,314.12393,314.1629,265.0,267.0,301.0,309.0,89.0,89.0,89.0,89.0,0.0,0.0,0.0,0.0,0.047017623,0.047637206,0.0529733,0.053539734,19.32688,11.938065,3.5141406,12.383088,2290.2039,1238.4159,1780.6915,1504.491,0.0,0.0,0.0,2.0,1.0,-2.3327491,-0.026335794,0.006837964,89.0,89.0,89.0,89.0,21.842827,21.842827,24.816736,24.816736,0.017304681,0.017227964,-4.496891E-4,-4.5102165E-4,1164.5056,0.0,0.0,0.0,0.0,0.0,0.0,0.0,0.0,0.0,0.0,0.0,0.0,0.0,-63.12813,-0.53666353,-60.299953,0.0043431316,0.00643644,0.016342338,549917.75,119984.9,0.010742206,0.012227356,7732.1367,7791.949,6471.859,6731.3257,0.30145264,0.0,0.0,0.0
103.683235,103.683235,1.199,0.0,0.0,314.66385,11253.0,100.0,0.0,-0.07156395,0.0,8.0,1.0,0.0,4000000.0,110.0,1.0,0.0,0.0,10.0,0.0,0.0,-187.19586,2.595304,395.22424,0.07322132,0.21530691,-0.0524486,319.93115,319.95544,314.502,314.5356,264.0,265.0,300.0,308.0,89.0,89.0,89.0,89.0,0.0,0.0,0.0,0.0,0.04870995,0.04872212,0.053484563,0.05380965,38.246735,29.202103,8.645206,8.180066,1024.7245,289.92,-22.061174,150.12321,0.0,0.0,0.0,2.0,1.0,-2.3324492,-0.026966719,0.006770611,89.0,89.0,89.0,89.0,21.842827,21.842827,24.816736,24.816736,0.016864646,0.016848568,-4.5142093E-4,-4.5411222E-4,1165.4583,0.0,0.0,0.0,0.0,0.0,0.0,0.0,0.0,0.0,0.0,0.0,0.0,0.0,-63.229786,-0.5895941,-60.345383,0.019212697,0.0061269714,0.0042665545,549927.44,119984.9,0.010144884,0.011064445,8050.924,8062.632,6777.845,6929.611,0.30127048,0.0,0.0,0.0
106.59677,106.59677,1.249,0.0,0.0,314.91574,11257.0,100.0,0.0,-0.09204847,0.0,8.0,1.0,0.0,4000000.0,110.0,1.0,0.0,0.0,10.0,0.0,0.0,-189.30478,2.5759153,393.2122,0.07048156,0.21241227,0.10345419,320.0503,320.07217,314.7512,314.78656,263.0,265.0,299.0,307.0,89.0,89.0,89.0,89.0,0.0,0.0,0.0,0.0,0.049444254,0.049358487,0.053923152,0.054118652,0.0,0.0,0.0,0.0,-759.3601,72.90252,211.82738,-61.46278,0.0,0.0,0.0,2.0,1.0,-2.3322425,-0.027338998,0.006372452,89.0,89.0,89.0,89.0,21.842827,21.842827,24.816736,24.816736,0.016425762,0.016404578,-4.5534142E-4,-4.5792715E-4,1165.8821,0.0,0.0,0.0,0.0,0.0,0.0,0.0,0.0,0.0,0.0,0.0,0.0,0.0,-63.297165,-0.5685552,-60.376324,0.013002418,0.00653423,-0.0077794977,549932.0,119984.914,0.008809132,0.009536341,8439.8955,8429.775,7103.185,7162.9956,0.30083752,0.0,0.0,0.0
112.430725,112.430725,1.299,0.0,0.0,315.40533,11273.0,100.0,0.0,-0.09980275,0.0,8.0,1.0,0.0,4000000.0,110.0,1.0,0.0,0.0,10.0,0.0,0.0,-193.5292,2.5408149,389.18497,0.065697126,0.20663813,0.14861245,320.50922,320.52493,315.23996,315.2779,261.0,263.0,297.0,306.0,89.0,89.0,89.0,89.0,0.0,0.0,0.0,0.0,0.04948481,0.049576193,0.054165248,0.054463264,1.3064592,1.9405781,0.8015334,9.913668,34.546844,-225.5067,-45.26227,93.87731,0.0,0.0,0.0,2.0,1.0,-2.3318157,-0.027202835,0.0057092905,89.0,89.0,89.0,89.0,21.842827,21.842827,24.816736,24.816736,0.01627558,0.016214205,-4.535129E-4,-4.6020013E-4,1167.5756,0.0,0.0,0.0,0.0,0.0,0.0,0.0,0.0,0.0,0.0,0.0,0.0,0.0,-63.427334,-0.48568904,-60.4376,0.006106608,0.0069132345,-0.004090531,549949.1,119984.91,0.0071488163,0.00789429,8534.027,8571.608,7168.7026,7328.008,0.30387497,0.0,0.0,0.0
115.351036,115.351036,1.349,0.0,0.0,315.64484,11282.0,100.0,0.0,-0.09840416,0.0,8.0,1.0,0.0,4000000.0,110.0,1.0,0.0,0.0,10.0,0.0,0.0,-195.6446,2.5257194,387.16983,0.06382762,0.20206238,0.18930687,320.73904,320.77036,315.4744,315.51962,261.0,262.0,297.0,305.0,89.0,89.0,89.0,89.0,0.0,0.0,0.0,0.0,0.049589116,0.049564626,0.054410484,0.054719232,0.0,0.0,0.0,0.0,-1101.8647,-1077.108,20.197018,136.32327,0.0,0.0,0.0,2.0,1.0,-2.3315618,-0.02742998,0.0053778887,89.0,89.0,89.0,89.0,21.842827,21.842827,24.816736,24.816736,0.016241968,0.01620627,-4.5706576E-4,-4.5813166E-4,1168.5266,0.0,0.0,0.0,0.0,0.0,0.0,0.0,0.0,0.0,0.0,0.0,0.0,0.0,-63.491554,-0.42508575,-60.4671,0.018581405,0.00814899,-0.0044201366,549958.0,119984.9,0.0062371762,0.007895243,8553.925,8564.442,7373.4307,7507.913,0.30000687,0.0,0.0,0.0
119.735596,119.735596,1.399,0.0,0.0,316.0016,11296.0,100.0,0.0,-0.120001055,0.0,8.0,1.0,0.0,4000000.0,110.0,1.0,0.0,0.0,10.0,0.0,0.0,-198.82172,2.5055165,384.14532,0.066635884,0.20264754,0.02813987,321.1336,321.1825,315.83557,315.88666,259.0,261.0,296.0,304.0,89.0,89.0,89.0,89.0,0.0,0.0,0.0,0.0,0.04941726,0.04939955,0.053780053,0.054108843,0.0,0.0,0.0,0.0,1340.8763,-1206.7123,-174.15584,261.18008,0.0,0.0,0.0,2.0,1.0,-2.331146,-0.027501041,0.005044341,89.0,89.0,89.0,89.0,21.842827,21.842827,24.816736,24.816736,0.016295906,0.016303414,-4.4261912E-4,-4.527532E-4,1170.0087,0.0,0.0,0.0,0.0,0.0,0.0,0.0,0.0,0.0,0.0,0.0,0.0,0.0,-63.586823,-0.39608708,-60.510952,-0.0034395708,0.00874071,0.019363306,549973.06,119984.9,0.008940009,0.008435513,8485.452,8434.604,6672.7754,6886.642,0.30032825,0.0,0.0,0.0
125.58911,125.58911,1.449,0.0,0.0,316.46402,11316.0,100.0,0.0,-0.08382425,0.0,8.0,1.0,0.0,4000000.0,110.0,1.0,0.0,0.0,10.0,0.0,0.0,-203.06506,2.4773512,380.1093,0.062331088,0.20145339,-0.060731582,321.69788,321.73688,316.29248,316.33926,258.0,260.0,294.0,302.0,89.0,89.0,89.0,89.0,0.0,0.0,0.0,0.0,0.048784778,0.04861004,0.05391376,0.054226726,42.521057,14.58004,19.711329,-9.411424,4748.1396,898.5533,1502.2782,-1278.0054,0.0,0.0,0.0,2.0,1.0,-2.3305771,-0.029492633,0.005215645,89.0,89.0,89.0,89.0,21.842827,21.842827,24.816736,24.816736,0.016681373,0.016707985,-4.5383416E-4,-4.489398E-4,1172.1248,0.0,0.0,0.0,0.0,0.0,0.0,0.0,0.0,0.0,0.0,0.0,0.0,0.0,-63.70869,-0.4485034,-60.568836,0.055918895,0.008724221,0.014925143,549993.94,119984.9,0.007832763,0.009773508,8173.963,8091.3857,7079.306,7093.75,0.3024397,0.0,0.0,0.0
129.98497,129.98497,1.499,0.0,0.0,316.8281,11322.0,100.0,0.0,-0.040637843,0.0,8.0,1.0,0.0,4000000.0,110.0,1.0,0.0,0.0,10.0,0.0,0.0,-206.25307,2.4561017,377.07968,0.06896051,0.20571046,0.08645106,321.91174,321.88092,316.6694,316.69595,257.0,259.0,293.0,301.0,89.0,89.0,89.0,89.0,0.0,0.0,0.0,0.0,0.049552966,0.050075848,0.053979162,0.054165814,-22.301449,8.12307,-37.816685,8.541047,-2494.9368,-2176.277,-3490.2373,831.13605,0.0,0.0,0.0,2.0,1.0,-2.3302548,-0.029461185,0.0040570498,89.0,89.0,89.0,89.0,21.842827,21.842827,24.816736,24.816736,0.016149448,0.015946215,-4.5205516E-4,-4.5918446E-4,1172.761,0.0,0.0,0.0,0.0,0.0,0.0,0.0,0.0,0.0,0.0,0.0,0.0,0.0,-63.805534,-0.40007195,-60.61409,-0.0056773676,0.004744359,-0.0018307166,550000.9,119984.91,0.0064905942,0.005922824,8540.897,8743.175,6688.2295,7013.6113,0.2968006,0.0,0.0,0.0
134.3857,134.3857,1.549,0.0,0.0,317.17703,11339.0,100.0,0.0,-0.011718606,0.0,8.0,1.0,0.0,4000000.0,110.0,1.0,0.0,0.0,10.0,0.0,0.0,-209.44574,2.4376369,374.0478,0.050409235,0.19227621,0.0068979287,322.40118,322.3833,317.02576,317.04233,256.0,257.0,292.0,300.0,89.0,89.0,89.0,89.0,0.0,0.0,0.0,0.0,0.04878383,0.049094975,0.05424831,0.054302715,-53.83506,-10.067,3.0945985,-7.9125156,-2539.5554,1088.2122,-878.90607,-753.5129,0.0,0.0,0.0,2.0,1.0,-2.3300745,-0.029868271,0.0048366785,89.0,89.0,89.0,89.0,21.842827,21.842827,24.816736,24.816736,0.016530538,0.01639394,-4.5209564E-4,-4.4746127E-4,1174.5612,0.0,0.0,0.0,0.0,0.0,0.0,0.0,0.0,0.0,0.0,0.0,0.0,0.0,-63.89492,-0.35532802,-60.661003,-0.003386325,0.002323787,0.010486856,550019.25,119984.9,0.0060769827,0.0073646107,8121.2236,8319.77,7147.7026,7135.698,0.29610443,0.0,0.0,0.0
137.32224,137.32224,1.599,0.0,0.0,317.407,11350.0,100.0,0.0,0.030859318,0.0,8.0,1.0,0.0,4000000.0,110.0,1.0,0.0,0.0,10.0,0.0,0.0,-211.57657,2.4252794,372.02512,0.03637833,0.1942035,-0.13873951,322.7072,322.68323,317.26724,317.26797,255.0,257.0,291.0,299.0,89.0,89.0,89.0,89.0,0.0,0.0,0.0,0.0,0.04859757,0.048664182,0.054000773,0.053615898,0.0,0.0,0.0,0.0,-399.59546,-518.60504,-143.37747,-15.047263,0.0,0.0,0.0,2.0,1.0,-2.3300524,-0.029838927,0.0053374767,89.0,89.0,89.0,89.0,21.842827,21.842827,24.816736,24.816736,0.016686372,0.016635781,-4.4896998E-4,-4.385118E-4,1175.7247,0.0,0.0,0.0,0.0,0.0,0.0,0.0,0.0,0.0,0.0,0.0,0.0,0.0,-63.94886,-0.39013997,-60.696747,-0.025862772,-0.001136931,0.006256488,550030.56,119984.9,0.00842451,0.008759983,8009.1113,8080.3213,6790.56,6578.0625,0.2980547,0.0,0.0,0.0
141.73085,141.73085,1.649,0.0,0.0,317.7447,11366.0,100.0,0.0,-0.0059907744,0.0,8.0,1.0,0.0,4000000.0,110.0,1.0,0.0,0.0,10.0,0.0,0.0,-214.776,2.4027147,368.9888,0.032556318,0.19347394,-0.25511745,323.1899,323.12143,317.6053,317.60226,254.0,255.0,290.0,298.0,89.0,89.0,89.0,89.0,0.0,0.0,0.0,0.0,0.0477402,0.04794692,0.05363344,0.0533896,0.0,0.0,0.0,0.0,-474.40222,2680.0627,-845.1103,2503.5198,0.0,0.0,0.0,2.0,1.0,-2.3301177,-0.027700689,0.006303191,89.0,89.0,89.0,89.0,21.842827,21.842827,24.816736,24.816736,0.01720857,0.016977653,-4.4146593E-4,-4.4461788E-4,1177.4188,0.0,0.0,0.0,0.0,0.0,0.0,0.0,0.0,0.0,0.0,0.0,0.0,0.0,-64.02459,-0.51191735,-60.75231,-0.048947986,-9.6876326E-4,-0.032944772,550047.7,119984.91,0.009369356,0.011107579,7611.8496,7837.99,6668.3936,6701.8994,0.30115318,0.0,0.0,0.0
146.14415,146.14415,1.699,0.0,0.0,318.09003,11370.0,100.0,0.0,-0.042428445,0.0,8.0,1.0,0.0,4000000.0,110.0,1.0,0.0,0.0,10.0,0.0,0.0,-217.9792,2.3755834,365.94962,0.0146707,0.19466257,0.03387166,323.24466,323.26816,317.9418,317.94904,253.0,254.0,289.0,297.0,89.0,89.0,89.0,89.0,0.0,0.0,0.0,0.0,0.04960239,0.04924039,0.05377847,0.054127485,0.0,0.0,0.0,0.0,-894.74457,-2086.7314,399.19308,-86.76944,0.0,0.0,0.0,2.0,1.0,-2.3300905,-0.027331067,0.006236911,89.0,89.0,89.0,89.0,21.842827,21.842827,24.816736,24.816736,0.016299613,0.016326733,-4.4723053E-4,-4.5498429E-4,1177.8419,0.0,0.0,0.0,0.0,0.0,0.0,0.0,0.0,0.0,0.0,0.0,0.0,0.0,-64.09908,-0.5465568,-60.812874,0.02066975,0.0018452752,0.016441818,550051.75,119984.9,0.0085055595,0.009204854,8405.058,8359.822,6996.086,7151.152,0.30121326,0.0,0.0,0.0
152.03577,152.03577,1.749,0.0,0.0,318.52554,11384.0,100.0,0.0,-0.026944824,0.0,8.0,1.0,0.0,4000000.0,110.0,1.0,0.0,0.0,10.0,0.0,0.0,-222.2558,2.3405674,361.89276,0.021275155,0.18174729,0.10037717,323.65472,323.68875,318.37024,318.38577,251.0,253.0,288.0,296.0,89.0,89.0,89.0,89.0,0.0,0.0,0.0,0.0,0.049396366,0.049357172,0.054465864,0.05453945,-21.71181,7.037222,13.108849,10.189487,-2264.039,159.09521,-267.63083,619.29517,0.0,0.0,0.0,2.0,1.0,-2.3299115,-0.028769026,0.0059666634,89.0,89.0,89.0,89.0,21.842827,21.842827,24.816736,24.816736,0.01619915,0.016216205,-4.5001187E-4,-4.5279786E-4,1179.0187,0.0,0.0,0.0,0.0,0.0,0.0,0.0,0.0,0.0,0.0,0.0,0.0,0.0,-64.19475,-0.4998654,-60.888206,0.01987555,0.0034512118,-0.0032742033,549924.2,119984.91,0.005955832,0.008436668,8435.275,8425.143,7414.2656,7463.9766,0.30117702,0.0,0.0,0.0
156.45975,156.45975,1.799,0.0,0.0,318.85565,11389.0,100.0,0.0,-0.027370162,0.0,8.0,1.0,0.0,4000000.0,110.0,1.0,0.0,0.0,10.0,0.0,0.0,-225.46753,2.3184407,358.84692,0.024312079,0.18946248,0.31876037,323.77835,323.7955,318.6964,318.71127,250.0,252.0,287.0,295.0,89.0,89.0,89.0,89.0,0.0,0.0,0.0,0.0,0.05063535,0.05072227,0.055030655,0.054860525,10.072142,35.568325,-3.646016,-14.333277,-2439.643,-221.71141,-1922.7279,-2322.283,0.0,0.0,0.0,2.0,1.0,-2.3297145,-0.02916942,0.004151702,89.0,89.0,89.0,89.0,21.842827,21.842827,24.816736,24.816736,0.015526048,0.015510008,-4.5927774E-4,-4.5652434E-4,1179.3556,0.0,0.0,0.0,0.0,0.0,0.0,0.0,0.0,0.0,0.0,0.0,0.0,0.0,-64.27139,-0.37219316,-60.941563,0.01667767,0.0034476507,-0.030359417,549839.8,119984.9,0.0043523656,0.004725603,9103.479,9106.898,7553.777,7446.624,0.2946434,0.0,0.0,0.0
160.88826,160.88826,1.849,0.0,0.0,319.1702,11412.0,100.0,0.0,0.048898194,0.0,8.0,1.0,0.0,4000000.0,110.0,1.0,0.0,0.0,10.0,0.0,0.0,-228.68304,2.3017547,355.79846,0.014043368,0.16819642,-0.115140915,324.44144,324.4779,319.0317,319.03882,249.0,251.0,286.0,293.0,89.0,89.0,89.0,89.0,0.0,0.0,0.0,0.0,0.048931226,0.0485046,0.05403505,0.054046355,-69.537605,-81.73495,-4.540756,-14.5934515,-2871.6934,-1950.0461,1061.1488,58.539215,0.0,0.0,0.0,2.0,1.0,-2.3296385,-0.029426837,0.0053116083,89.0,89.0,89.0,89.0,21.842827,21.842827,24.816736,24.816736,0.01644171,0.016560504,-4.3997428E-4,-4.3165893E-4,1180.7495,0.0,0.0,0.0,0.0,0.0,0.0,0.0,0.0,0.0,0.0,0.0,0.0,0.0,-64.34197,-0.337387,-60.994312,-0.0330795,-4.332907E-4,0.031643033,549380.25,119984.9,0.007353522,0.008668053,8103.968,7962.674,6915.081,6872.9873,0.29891205,0.0,0.0,0.0
165.32094,165.32094,1.899,0.0,0.0,319.4823,11424.0,100.0,0.0,0.015854213,0.0,8.0,1.0,0.0,4000000.0,110.0,1.0,0.0,0.0,10.0,0.0,0.0,-231.90182,2.2813668,352.7473,0.010760933,0.18664972,-0.24792007,324.7823,324.82025,319.33984,319.33466,248.0,250.0,285.0,292.0,89.0,89.0,89.0,89.0,0.0,0.0,0.0,0.0,0.047686134,0.048318367,0.053937934,0.053645816,25.254337,24.874357,-13.407021,-1.8916278,2824.7546,1198.1962,-302.11057,277.4745,0.0,0.0,0.0,2.0,1.0,-2.3296814,-0.028524816,0.005620718,89.0,89.0,89.0,89.0,21.842827,21.842827,24.816736,24.816736,0.016738264,0.016809687,-4.437413E-4,-4.430138E-4,1181.4792,0.0,0.0,0.0,0.0,0.0,0.0,0.0,0.0,0.0,0.0,0.0,0.0,0.0,-64.407036,-0.46823484,-61.05084,-0.0044035036,-5.3584005E-4,-0.020230122,549142.3,119984.9,0.007633791,0.00961196,7923.741,7905.3276,6809.1816,6712.451,0.29981995,0.0,0.0,0.0
168.27856,168.27856,1.949,0.0,0.0,319.70505,11427.0,100.0,0.0,0.021912389,0.0,8.0,1.0,0.0,4000000.0,110.0,1.0,0.0,0.0,10.0,0.0,0.0,-234.04956,2.2650313,350.71155,0.004653096,0.19006434,-0.027974572,324.88806,324.8726,319.56323,319.5545,247.0,249.0,284.0,292.0,89.0,89.0,89.0,89.0,0.0,0.0,0.0,0.0,0.049221303,0.04930155,0.054066133,0.053894807,0.0,0.0,0.0,0.0,-2998.3337,498.98468,1394.9766,-155.35356,0.0,0.0,0.0,2.0,1.0,-2.3297079,-0.028138075,0.00537169,89.0,89.0,89.0,89.0,21.842827,21.842827,24.816736,24.816736,0.016299633,0.016249282,-4.547778E-4,-4.4836203E-4,1181.6656,0.0,0.0,0.0,0.0,0.0,0.0,0.0,0.0,0.0,0.0,0.0,0.0,0.0,-64.45285,-0.4974979,-61.092216,-0.005039717,-0.0015411515,-0.012582567,549084.75,119984.91,0.0056464532,0.0070834034,8273.124,8367.216,7161.556,7021.072,0.29761124,0.0,0.0,0.0
172.7188,172.7188,1.999,0.0,0.0,320.02866,11433.0,100.0,0.0,-0.012615484,0.0,8.0,1.0,0.0,4000000.0,110.0,1.0,0.0,0.0,10.0,0.0,0.0,-237.27405,2.242151,347.65536,0.0081781,0.1790159,0.21798891,325.08658,325.00684,319.88422,319.88422,246.0,248.0,283.0,291.0,89.0,89.0,89.0,89.0,0.0,0.0,0.0,0.0,0.050023887,0.050481737,0.055022568,0.054268405,0.0,0.0,0.0,0.0,-3667.0886,-3766.8135,-4359.514,-539.9018,0.0,0.0,0.0,2.0,1.0,-2.3297265,-0.026707051,0.0050435066,89.0,89.0,89.0,89.0,21.842827,21.842827,24.816736,24.816736,0.015810348,0.015559779,-4.5287958E-4,-4.4772937E-4,1182.0309,0.0,0.0,0.0,0.0,0.0,0.0,0.0,0.0,0.0,0.0,0.0,0.0,0.0,-64.52247,-0.40576598,-61.150112,-0.030585416,-4.8164907E-4,-0.023442179,548966.25,119984.9,0.005045405,0.005508957,8709.122,8984.657,7435.7295,7210.574,0.29626942,0.0,0.0,0.0
178.6457,178.6457,2.049,0.0,0.0,320.4245,11457.0,100.0,0.0,-0.054919515,0.0,8.0,1.0,0.0,4000000.0,110.0,1.0,0.0,0.0,10.0,0.0,0.0,-241.57828,2.2144783,343.576,5.069524E-4,0.16970254,-0.22133718,325.73795,325.77255,320.2777,320.28726,245.0,246.0,281.0,289.0,89.0,89.0,89.0,89.0,0.0,0.0,0.0,0.0,0.048281904,0.04812715,0.05393479,0.05407455,3.7356462,-15.723107,-4.383623,-8.343457,2731.4136,1302.6414,821.53375,-429.40817,0.0,0.0,0.0,2.0,1.0,-2.3297353,-0.025700606,0.006180048,89.0,89.0,89.0,89.0,21.842827,21.842827,24.816736,24.816736,0.016653398,0.016711969,-4.330981E-4,-4.4148308E-4,1183.4631,0.0,0.0,0.0,0.0,0.0,0.0,0.0,0.0,0.0,0.0,0.0,0.0,0.0,-64.600204,-0.46834478,-61.227486,0.008550043,0.002182473,0.008506526,548480.06,119984.9,0.007857219,0.009744818,7952.2124,7859.582,6894.855,6929.792,0.30020905,0.0,0.0,0.0
183.0957,183.0957,2.099,0.0,0.0,320.7339,11465.0,100.0,0.0,-0.0122436425,0.0,8.0,1.0,0.0,4000000.0,110.0,1.0,0.0,0.0,10.0,0.0,0.0,-244.80988,2.188192,340.51306,0.0040813982,0.17540736,-0.09998669,325.95355,325.9554,320.59036,320.5976,244.0,245.0,280.0,288.0,89.0,89.0,89.0,89.0,0.0,0.0,0.0,0.0,0.048874497,0.049120404,0.053884756,0.053518403,16.266256,14.273598,9.229928,9.231492,141.99617,-1164.6016,1424.8966,1535.6719,0.0,0.0,0.0,2.0,1.0,-2.3296735,-0.02543923,0.006548643,89.0,89.0,89.0,89.0,21.842827,21.842827,24.816736,24.816736,0.016337955,0.016290583,-4.431309E-4,-4.4038333E-4,1183.986,0.0,0.0,0.0,0.0,0.0,0.0,0.0,0.0,0.0,0.0,0.0,0.0,0.0,-64.66127,-0.56197435,-61.287205,-0.018823443,6.472375E-4,0.0071582184,548339.44,119984.91,0.009089485,0.00940347,8184.543,8240.998,6977.8604,6798.7197,0.3027954,0.0,0.0,0.0
186.06795,186.06795,2.149,0.0,0.0,320.92902,11471.0,100.0,0.0,-0.010886173,0.0,8.0,1.0,0.0,4000000.0,110.0,1.0,0.0,0.0,10.0,0.0,0.0,-246.96597,2.1689873,338.46948,0.0054948255,0.16789676,-0.10073813,326.144,326.13864,320.78036,320.7864,243.0,245.0,280.0,287.0,89.0,89.0,89.0,89.0,0.0,0.0,0.0,0.0,0.048742812,0.048761353,0.054362196,0.053880993,0.0,0.0,0.0,0.0,88.39219,2065.864,-552.9373,-938.42426,0.0,0.0,0.0,2.0,1.0,-2.3296368,-0.024578422,0.0065830946,89.0,89.0,89.0,89.0,21.842827,21.842827,24.816736,24.816736,0.016348837,0.01632558,-4.4559097E-4,-4.4181477E-4,1184.324,0.0,0.0,0.0,0.0,0.0,0.0,0.0,0.0,0.0,0.0,0.0,0.0,0.0,-64.70149,-0.5897679,-61.323303,-0.02055845,0.0010119542,-0.037761856,548209.1,119984.9,0.007592038,0.0093992995,8187.1865,8193.577,7256.4814,6999.031,0.30084705,0.0,0.0,0.0
190.53404,190.53404,2.199,0.0,0.0,321.2334,11475.0,100.0,0.0,-7.1339878E-6,0.0,8.0,1.0,0.0,4000000.0,110.0,1.0,0.0,0.0,10.0,0.0,0.0,-250.20273,2.140377,335.40186,0.0047184825,0.17156981,0.19532944,326.24896,326.22308,321.08618,321.08755,242.0,243.0,279.0,286.0,89.0,89.0,89.0,89.0,0.0,0.0,0.0,0.0,0.050133903,0.050237097,0.05457311,0.05456268,0.0,0.0,0.0,0.0,-928.4867,-1694.5121,85.80388,-416.85547,0.0,0.0,0.0,2.0,1.0,-2.3295844,-0.023459828,0.005862713,89.0,89.0,89.0,89.0,21.842827,21.842827,24.816736,24.816736,0.015668018,0.015570413,-4.5100032E-4,-4.509127E-4,1184.5857,0.0,0.0,0.0,0.0,0.0,0.0,0.0,0.0,0.0,0.0,0.0,0.0,0.0,-64.765686,-0.5358214,-61.378986,0.0037120143,4.1458546E-4,-0.003733149,548139.1,119984.9,0.0057896506,0.006026586,8818.656,8921.17,7437.506,7433.9077,0.29802132,0.0,0.0,0.0
196.49544,196.49544,2.249,0.0,0.0,321.60403,11493.0,100.0,0.0,0.01618097,0.0,8.0,1.0,0.0,4000000.0,110.0,1.0,0.0,0.0,10.0,0.0,0.0,-254.52322,2.1085882,331.30762,0.0034150854,0.15259121,-0.030347291,326.76324,326.7767,321.46045,321.465,240.0,242.0,277.0,285.0,89.0,89.0,89.0,89.0,0.0,0.0,0.0,0.0,0.049174283,0.04913032,0.054481518,0.054412246,-23.822485,-23.677645,-9.910538,-7.7252083,208.35399,182.7658,-119.68013,-67.189316,0.0,0.0,0.0,2.0,1.0,-2.3295372,-0.023438454,0.0061484575,89.0,89.0,89.0,89.0,21.842827,21.842827,24.816736,24.816736,0.016060006,0.016084934,-4.370637E-4,-4.3454292E-4,1185.6488,0.0,0.0,0.0,0.0,0.0,0.0,0.0,0.0,0.0,0.0,0.0,0.0,0.0,-64.84395,-0.46153343,-61.44667,-0.004454037,6.285646E-4,0.0023327922,547771.8,119984.9,0.008260133,0.009228277,8379.824,8346.055,7178.956,7155.9136,0.30086517,0.0,0.0,0.0
200.9711,200.9711,2.299,0.0,0.0,321.87576,11503.0,100.0,0.0,-0.022027472,0.0,8.0,1.0,0.0,4000000.0,110.0,1.0,0.0,0.0,10.0,0.0,0.0,-257.7669,2.0843327,328.234,0.00982672,0.15491079,-0.06635102,327.0423,327.0645,321.7269,321.73813,239.0,241.0,276.0,284.0,89.0,89.0,89.0,89.0,0.0,0.0,0.0,0.0,0.049126666,0.049013004,0.054153215,0.05421988,13.141258,9.672715,-2.5635211,-0.7937103,858.8164,708.7468,273.11594,188.11671,0.0,0.0,0.0,2.0,1.0,-2.3294566,-0.023544597,0.005913377,89.0,89.0,89.0,89.0,21.842827,21.842827,24.816736,24.816736,0.016128806,0.016160388,-4.3496056E-4,-4.3716325E-4,1186.2537,0.0,0.0,0.0,0.0,0.0,0.0,0.0,0.0,0.0,0.0,0.0,0.0,0.0,-64.901024,-0.50337625,-61.495857,0.011980376,0.0024023282,-0.0036875382,547574.8,119984.9,0.009561529,0.010382213,8339.195,8285.347,7064.5723,7099.459,0.30212116,0.0,0.0,0.0
203.95714,203.95714,2.349,0.0,0.0,322.06223,11509.0,100.0,0.0,-0.010985745,0.0,8.0,1.0,0.0,4000000.0,110.0,1.0,0.0,0.0,10.0,0.0,0.0,-259.93097,2.0665634,326.18353,0.010008261,0.16019028,-0.07694115,327.2054,327.2417,321.91187,321.92407,239.0,240.0,276.0,283.0,89.0,89.0,89.0,89.0,0.0,0.0,0.0,0.0,0.04917559,0.049004875,0.05400892,0.054136787,0.0,0.0,0.0,0.0,2618.2783,2196.729,1714.6288,1289.0829,0.0,0.0,0.0,2.0,1.0,-2.3293803,-0.02399432,0.0057446957,89.0,89.0,89.0,89.0,21.842827,21.842827,24.816736,24.816736,0.016064912,0.01613279,-4.3999823E-4,-4.404723E-4,1186.615,0.0,0.0,0.0,0.0,0.0,0.0,0.0,0.0,0.0,0.0,0.0,0.0,0.0,-64.94001,-0.5474353,-61.529644,0.017749663,0.0024527765,0.00536347,547456.06,119984.91,0.008182056,0.009053513,8405.372,8314.237,7103.037,7150.4824,0.30088615,0.0,0.0,0.0
209.93468,209.93468,2.399,0.0,0.0,322.4277,11515.0,100.0,0.0,0.030326523,0.0,8.0,1.0,0.0,4000000.0,110.0,1.0,0.0,0.0,10.0,0.0,0.0,-264.2633,2.0350137,322.07938,0.011866696,0.14413114,0.2729007,327.35858,327.3799,322.2789,322.2869,237.0,239.0,274.0,282.0,89.0,89.0,89.0,89.0,0.0,0.0,0.0,0.0,0.050526302,0.050343767,0.05502864,0.055006843,-18.272324,-23.05068,1.6196071,0.4110485,-1347.4343,-1198.0756,-629.6217,-407.57504,0.0,0.0,0.0,2.0,1.0,-2.3292031,-0.024753744,0.004807353,89.0,89.0,89.0,89.0,21.842827,21.842827,24.816736,24.816736,0.015302776,0.0153514845,-4.4593643E-4,-4.3989648E-4,1187.0048,0.0,0.0,0.0,0.0,0.0,0.0,0.0,0.0,0.0,0.0,0.0,0.0,0.0,-65.02346,-0.3806855,-61.590427,0.00752767,0.0013130401,-2.762098E-4,547350.5,119984.89,0.006557486,0.0070284307,9097.647,9028.952,7658.1655,7650.085,0.2991724,0.0,0.0,0.0
214.42224,214.42224,2.449,0.0,0.0,322.67596,11529.0,100.0,0.0,0.019933006,0.0,8.0,1.0,0.0,4000000.0,110.0,1.0,0.0,0.0,10.0,0.0,0.0,-267.51593,2.0176425,318.99872,0.008902058,0.14175445,0.02427905,327.77002,327.77914,322.5349,322.53,236.0,238.0,273.0,281.0,89.0,89.0,89.0,89.0,0.0,0.0,0.0,0.0,0.049513843,0.049434103,0.054650337,0.054675885,-12.194662,-11.716558,-9.730383,-9.55671,595.732,444.8712,-94.923355,-151.63867,0.0,0.0,0.0,2.0,1.0,-2.329202,-0.024950951,0.0044355392,89.0,89.0,89.0,89.0,21.842827,21.842827,24.816736,24.816736,0.015811076,0.015851885,-4.3502252E-4,-4.3499895E-4,1187.8434,0.0,0.0,0.0,0.0,0.0,0.0,0.0,0.0,0.0,0.0,0.0,0.0,0.0,-65.077545,-0.3344242,-61.633877,0.0107942615,-4.973126E-4,-0.003972964,547072.06,119984.9,0.008175672,0.009226014,8582.378,8527.191,7290.6807,7302.968,0.30081367,0.0,0.0,0.0
217.41599,217.41599,2.499,0.0,0.0,322.84515,11537.0,100.0,0.0,0.009705969,0.0,8.0,1.0,0.0,4000000.0,110.0,1.0,0.0,0.0,10.0,0.0,0.0,-269.68582,2.006276,316.9437,0.006967917,0.14424944,-0.123491496,328.0087,328.0246,322.70312,322.7016,236.0,237.0,273.0,280.0,89.0,89.0,89.0,89.0,0.0,0.0,0.0,0.0,0.049066085,0.048982855,0.054256927,0.054286193,0.0,0.0,0.0,0.0,-1238.322,-1161.1818,-443.75803,-369.16577,0.0,0.0,0.0,2.0,1.0,-2.3292067,-0.025150217,0.0041332245,89.0,89.0,89.0,89.0,21.842827,21.842827,24.816736,24.816736,0.01604973,0.016095776,-4.3329663E-4,-4.3363235E-4,1188.3052,0.0,0.0,0.0,0.0,0.0,0.0,0.0,0.0,0.0,0.0,0.0,0.0,0.0,-65.11312,-0.3553037,-61.664547,0.010066246,3.25183E-5,1.03672966E-4,546905.25,119984.9,0.008379943,0.009393446,8277.387,8226.437,6950.3555,6968.7607,0.30119228,0.0,0.0,0.0
221.9098,221.9098,2.549,0.0,0.0,323.11008,11541.0,100.0,0.0,-0.0584024,0.0,8.0,1.0,0.0,4000000.0,110.0,1.0,0.0,0.0,10.0,0.0,0.0,-272.94296,1.9886464,313.8592,0.012303971,0.15173644,0.16898313,328.10117,328.12006,322.95813,322.96634,235.0,236.0,272.0,279.0,89.0,89.0,89.0,89.0,0.0,0.0,0.0,0.0,0.05019117,0.050104413,0.054733433,0.0546853,0.0,0.0,0.0,0.0,-265.55212,-61.32877,11.989516,93.394485,0.0,0.0,0.0,2.0,1.0,-2.3291614,-0.025414664,0.0033527613,89.0,89.0,89.0,89.0,21.842827,21.842827,24.816736,24.816736,0.015536934,0.015567538,-4.4252368E-4,-4.4961803E-4,1188.5668,0.0,0.0,0.0,0.0,0.0,0.0,0.0,0.0,0.0,0.0,0.0,0.0,0.0,-65.17002,-0.3256229,-61.71165,0.013967404,0.0022775086,-0.014049738,546836.06,119984.9,0.006113274,0.0067791245,8869.634,8811.76,7584.12,7560.5405,0.29875088,0.0,0.0,0.0
226.4074,226.4074,2.599,0.0,0.0,323.3592,11548.0,100.0,0.0,-0.049773302,0.0,8.0,1.0,0.0,4000000.0,110.0,1.0,0.0,0.0,10.0,0.0,0.0,-276.203,1.9766603,310.77252,0.016988385,0.13360518,0.23386039,328.30878,328.32098,323.20615,323.2243,234.0,235.0,271.0,278.0,89.0,89.0,89.0,89.0,0.0,0.0,0.0,0.0,0.050330706,0.050342947,0.055091374,0.055025354,0.0,0.0,0.0,0.0,-920.0244,-898.0169,-468.0052,-471.06287,0.0,0.0,0.0,2.0,1.0,-2.329014,-0.025328986,0.002645731,89.0,89.0,89.0,89.0,21.842827,21.842827,24.816736,24.816736,0.015329239,0.015310127,-4.37451E-4,-4.39604E-4,1188.9779,0.0,0.0,0.0,0.0,0.0,0.0,0.0,0.0,0.0,0.0,0.0,0.0,0.0,-65.22777,-0.1762382,-61.751915,0.0015662834,0.0033820348,-0.0058864322,546693.6,119984.9,0.006529737,0.007100858,9012.753,9014.303,7643.118,7610.6904,0.29909992,0.0,0.0,0.0
232.40964,232.40964,2.649,0.0,0.0,323.6713,11564.0,100.0,0.0,-0.04097971,0.0,8.0,1.0,0.0,4000000.0,110.0,1.0,0.0,0.0,10.0,0.0,0.0,-280.55405,1.9664649,306.65402,0.023698527,0.13421515,-0.01951683,328.77512,328.7851,323.51764,323.53946,232.0,234.0,269.0,277.0,89.0,89.0,89.0,89.0,0.0,0.0,0.0,0.0,0.049366947,0.049390152,0.054538283,0.054496795,-1.2150406,-2.0699947,-7.2240825,-6.4922867,596.73785,528.9315,115.6032,101.682526,0.0,0.0,0.0,2.0,1.0,-2.3287485,-0.02507589,0.002163887,89.0,89.0,89.0,89.0,21.842827,21.842827,24.816736,24.816736,0.015846089,0.015812486,-4.3149752E-4,-4.3121312E-4,1189.9277,0.0,0.0,0.0,0.0,0.0,0.0,0.0,0.0,0.0,0.0,0.0,0.0,0.0,-65.300896,-0.15173225,-61.80083,0.004982477,0.004004659,-0.010294563,546373.4,119984.9,0.008692523,0.009625062,8497.586,8514.8,7242.008,7225.5117,0.3012476,0.0,0.0,0.0
236.91542,236.91542,2.699,0.0,0.0,323.91708,11571.0,100.0,0.0,-0.048846215,0.0,8.0,1.0,0.0,4000000.0,110.0,1.0,0.0,0.0,10.0,0.0,0.0,-283.8206,1.9576478,303.56296,0.02777278,0.14171527,0.068590224,328.97263,328.98422,323.76022,323.78107,231.0,233.0,268.0,276.0,89.0,89.0,89.0,89.0,0.0,0.0,0.0,0.0,0.049770612,0.049757186,0.054566786,0.05451738,31.086353,29.983742,14.156028,11.896267,814.8818,952.3718,525.7397,464.7061,0.0,0.0,0.0,2.0,1.0,-2.32856,-0.025080578,0.0016405582,89.0,89.0,89.0,89.0,21.842827,21.842827,24.816736,24.816736,0.015714137,0.015688855,-4.4015882E-4,-4.4056383E-4,1190.3448,0.0,0.0,0.0,0.0,0.0,0.0,0.0,0.0,0.0,0.0,0.0,0.0,0.0,-65.35878,-0.17413689,-61.83894,0.011045073,0.0040293983,-0.014136702,546234.25,119984.9,0.006792127,0.007725964,8640.801,8651.645,7491.967,7462.131,0.29953957,0.0,0.0,0.0
241.42484,241.42484,2.749,0.0,0.0,324.15958,11573.0,100.0,0.0,-0.040732734,0.0,8.0,1.0,0.0,4000000.0,110.0,1.0,0.0,0.0,10.0,0.0,0.0,-287.09012,1.9524784,300.47006,0.027749091,0.13140301,0.37289354,329.02762,329.02374,324.00665,324.02103,230.0,232.0,267.0,274.0,89.0,89.0,89.0,89.0,0.0,0.0,0.0,0.0,0.05087692,0.050950576,0.05530898,0.05519158,-10.454132,-6.711557,3.846958,4.9560513,-3737.014,-3446.4236,-1360.1882,-1060.7197,0.0,0.0,0.0,2.0,1.0,-2.3284,-0.024717169,6.865263E-4,89.0,89.0,89.0,89.0,21.842827,21.842827,24.816736,24.816736,0.015058015,0.015008857,-4.4101733E-4,-4.4188154E-4,1190.4706,0.0,0.0,0.0,0.0,0.0,0.0,0.0,0.0,0.0,0.0,0.0,0.0,0.0,-65.418976,-0.020477008,-61.87356,1.2801122E-4,0.0027974288,-0.01741045,546197.5,119984.9,0.006109695,0.0063558742,9245.361,9290.248,7868.8296,7821.1616,0.2986393,0.0,0.0,0.0
245.93755,245.93755,2.799,0.0,0.0,324.3727,11588.0,100.0,0.0,-0.024020297,0.0,8.0,1.0,0.0,4000000.0,110.0,1.0,0.0,0.0,10.0,0.0,0.0,-290.36246,1.9538718,297.3756,0.023788545,0.12001896,0.038760386,329.45123,329.44263,324.22333,324.2378,229.0,231.0,266.0,273.0,89.0,89.0,89.0,89.0,0.0,0.0,0.0,0.0,0.049526863,0.04966309,0.0549001,0.054769635,-23.00754,-22.911652,-9.062961,-10.556503,437.05258,376.04562,23.750952,-40.300194,0.0,0.0,0.0,2.0,1.0,-2.3282685,-0.024236964,3.6799908E-4,89.0,89.0,89.0,89.0,21.842827,21.842827,24.816736,24.816736,0.015696647,0.0156248845,-4.303451E-4,-4.2787942E-4,1191.3848,0.0,0.0,0.0,0.0,0.0,0.0,0.0,0.0,0.0,0.0,0.0,0.0,0.0,-65.47167,0.047584135,-61.903996,-8.2084164E-4,0.0025426417,-0.011411741,545909.4,119984.9,0.008193437,0.009340157,8581.053,8659.481,7436.029,7369.9624,0.30095482,0.0,0.0,0.0
250.44585,250.44585,2.849,0.0,0.0,324.59558,11597.0,100.0,0.0,-0.07583094,0.0,8.0,1.0,0.0,4000000.0,110.0,1.0,0.0,0.0,10.0,0.0,0.0,-293.63742,1.9553634,294.27954,0.028439324,0.13235375,-0.06618767,329.70746,329.69998,324.4403,324.4615,228.0,230.0,265.0,272.0,89.0,89.0,89.0,89.0,0.0,0.0,0.0,0.0,0.049212698,0.04939393,0.05452539,0.054306507,22.543072,22.4293,3.3871827,0.6991624,3224.0283,2977.9758,1394.5071,1231.2141,0.0,0.0,0.0,2.0,1.0,-2.3281088,-0.02368706,-3.4689903E-4,89.0,89.0,89.0,89.0,21.842827,21.842827,24.816736,24.816736,0.015853297,0.015770892,-4.3249407E-4,-4.3352842E-4,1191.9211,0.0,0.0,0.0,0.0,0.0,0.0,0.0,0.0,0.0,0.0,0.0,0.0,0.0,-65.52506,0.008854833,-61.93765,0.0039104233,0.004087322,-0.023602834,545731.3,119984.9,0.0076289987,0.008688989,8456.988,8542.876,7322.281,7210.8086,0.30050087,0.0,0.0,0.0
253.45107,253.45107,2.899,0.0,0.0,324.7551,11597.0,100.0,0.0,-0.06979128,0.0,8.0,1.0,0.0,4000000.0,110.0,1.0,0.0,0.0,10.0,0.0,0.0,-295.82233,1.9563197,292.21454,0.03184349,0.13617304,0.21454097,329.70697,329.68887,324.59433,324.6203,228.0,229.0,265.0,272.0,89.0,89.0,89.0,89.0,0.0,0.0,0.0,0.0,0.050311707,0.050549574,0.054979045,0.05471962,0.0,0.0,0.0,0.0,-701.2502,-588.3157,138.92497,192.42163,0.0,0.0,0.0,2.0,1.0,-2.327955,-0.023115886,-0.0010597706,89.0,89.0,89.0,89.0,21.842827,21.842827,24.816736,24.816736,0.015373751,0.0152376685,-4.4303644E-4,-4.426799E-4,1191.9219,0.0,0.0,0.0,0.0,0.0,0.0,0.0,0.0,0.0,0.0,0.0,0.0,0.0,-65.565025,0.057423595,-61.959854,2.627056E-4,0.0048929956,-0.029006643,545731.6,119984.9,0.005780616,0.006230732,8921.232,9057.138,7752.6445,7631.4053,0.29817295,0.0,0.0,0.0
257.96146,257.96146,2.949,0.0,0.0,324.97562,11604.0,100.0,0.0,-0.12343385,0.0,8.0,1.0,0.0,4000000.0,110.0,1.0,0.0,0.0,10.0,0.0,0.0,-299.10217,1.9634228,289.11584,0.043309387,0.118510164,0.23949273,329.92023,329.91263,324.81186,324.85205,227.0,228.0,264.0,271.0,89.0,89.0,89.0,89.0,0.0,0.0,0.0,0.0,0.050242588,0.05047968,0.05531238,0.05509948,0.0,0.0,0.0,0.0,-714.24536,-643.28754,-361.38736,-328.54376,0.0,0.0,0.0,2.0,1.0,-2.327663,-0.022211246,-0.0015484095,89.0,89.0,89.0,89.0,21.842827,21.842827,24.816736,24.816736,0.015271077,0.015128958,-4.345453E-4,-4.3702286E-4,1192.3104,0.0,0.0,0.0,0.0,0.0,0.0,0.0,0.0,0.0,0.0,0.0,0.0,0.0,-65.62501,0.20576116,-61.98524,-0.011307111,0.0070470637,-0.016769819,545580.25,119984.9,0.004999769,0.0062995455,8967.558,9115.695,7820.7686,7720.962,0.2980652,0.0,0.0,0.0
263.97986,263.97986,2.999,0.0,0.0,325.26114,11619.0,100.0,0.0,-0.08620072,0.0,8.0,1.0,0.0,4000000.0,110.0,1.0,0.0,0.0,10.0,0.0,0.0,-303.47992,1.9789988,284.98245,0.049544834,0.1250593,5.894533E-4,330.3487,330.32623,325.09686,325.13925,225.0,227.0,262.0,269.0,89.0,89.0,89.0,89.0,0.0,0.0,0.0,0.0,0.04939522,0.04972228,0.054822724,0.054579202,-0.6220489,-2.5688856,-7.242858,-7.4230127,423.03796,197.26305,50.21095,147.48126,0.0,0.0,0.0,2.0,1.0,-2.3271596,-0.020785317,-0.002199769,89.0,89.0,89.0,89.0,21.842827,21.842827,24.816736,24.816736,0.01572135,0.015551752,-4.3386852E-4,-4.292637E-4,1193.2177,0.0,0.0,0.0,0.0,0.0,0.0,0.0,0.0,0.0,0.0,0.0,0.0,0.0,-65.704636,0.24066922,-62.016308,-0.010769172,0.0071712406,-0.022625243,545290.5,119984.91,0.0055202013,0.0071536526,8505.749,8694.83,7407.441,7290.171,0.2982216,0.0,0.0,0.0
268.49713,268.49713,3.049,0.0,0.0,325.48215,11626.0,100.0,0.0,-0.05868476,0.0,8.0,1.0,0.0,4000000.0,110.0,1.0,0.0,0.0,10.0,0.0,0.0,-306.76678,1.9918878,281.881,0.04908805,0.123360306,0.03264334,330.54398,330.51746,325.3252,325.35684,224.0,226.0,261.0,268.0,89.0,89.0,89.0,89.0,0.0,0.0,0.0,0.0,0.049552083,0.04994759,0.054611802,0.054635122,-9.172708,-6.523579,-9.7940855,0.9620189,-377.18564,-925.2681,-42.526413,-25.46757,0.0,0.0,0.0,2.0,1.0,-2.326857,-0.019325102,-0.002465725,89.0,89.0,89.0,89.0,21.842827,21.842827,24.816736,24.816736,0.015623613,0.015442087,-4.3123867E-4,-4.3102188E-4,1193.641,0.0,0.0,0.0,0.0,0.0,0.0,0.0,0.0,0.0,0.0,0.0,0.0,0.0,-65.766266,0.26841184,-62.04033,-0.015947416,0.0052744565,-0.008773372,545155.5,119984.9,0.0059918966,0.0068978094,8582.096,8788.5625,7309.8525,7353.1035,0.29838848,0.0,0.0,0.0
273.0149,273.0149,3.099,0.0,0.0,325.10022,11530.0,69.72762,10.51388,-0.02519163,0.0,8.0,0.0,0.0,4000000.0,110.0,1.0,0.0,0.0,10.0,0.0,0.0,-310.05484,2.0052125,278.78003,0.04029855,-0.5743725,-0.049264655,326.69818,326.70667,324.157,324.17715,227.0,228.0,263.0,270.0,89.0,89.0,89.0,89.0,0.0,0.0,0.0,0.0,0.04902694,0.04912793,0.054594226,0.054598268,-9.49189,-13.982355,-0.24117528,-1.7329304,93.47499,173.23047,-219.17668,-97.59216,0.0,0.0,0.0,2.0,1.0,-2.3266475,-0.01903292,-0.00204432,89.0,89.0,89.0,89.0,21.842827,21.842827,24.816736,24.816736,0.0045879353,0.004556814,-0.0029607238,-0.0029585834,1187.8839,0.0,0.0,0.0,0.0,0.0,0.0,0.0,0.0,0.0,0.0,0.0,0.0,0.0,-65.703514,0.25983423,-61.95228,-0.011101512,0.0030672164,0.0074283844,547043.3,0.0,0.005982113,0.008152187,8394.348,8471.7,7544.924,7545.3647,0.29894352,0.0,0.0,0.0
276.0169,276.0169,3.149,0.0,0.0,323.6027,11399.0,51.2459,32.388367,-0.021233918,0.0,8.0,0.0,1.0,4000000.0,110.0,1.0,0.0,0.0,10.0,0.0,0.0,-312.24008,2.0134063,276.7198,0.03650272,-1.4460427,-0.060745142,322.9808,322.99048,320.91165,320.92773,239.0,241.0,275.0,282.0,89.0,89.0,89.0,89.0,0.0,0.0,0.0,0.0,0.04915872,0.04923488,0.05462322,0.05463218,0.0,0.0,0.0,0.0,-97.39101,63.528114,437.96445,460.36087,0.0,0.0,0.0,2.0,1.0,-2.3265626,-0.018900752,-0.0016806126,89.0,89.0,89.0,89.0,21.842827,21.842827,24.816736,24.816736,-0.0016604958,-0.0016683955,-0.008372863,-0.008366777,1179.9308,0.0,0.0,0.0,0.0,0.0,0.0,0.0,0.0,0.0,0.0,0.0,0.0,0.0,-65.409004,0.23661631,-61.658356,-0.010098053,0.0021576418,0.0042232517,549625.4,0.0,0.00508366,0.008263844,8296.46,8355.632,7990.175,7995.911,0.2984352,0.0,0.0,0.0
280.48508,280.48508,3.199,0.0,0.0,320.14236,11196.0,29.024187,44.28017,-0.028164566,0.0,8.0,0.0,1.0,4000000.0,110.0,1.0,0.0,0.0,10.0,0.0,0.0,-315.4931,2.0249043,273.65384,0.030628324,-2.1055684,0.027806183,317.59268,317.60324,316.60364,316.616,266.0,268.0,300.0,306.0,89.0,89.0,89.0,89.0,0.0,0.0,0.0,0.0,0.049717017,0.049782228,0.054956257,0.05499325,0.0,0.0,0.0,0.0,-179.03743,146.20718,-142.1302,-50.881516,0.0,0.0,0.0,2.0,1.0,-2.326463,-0.01882341,-0.0015660524,89.0,89.0,89.0,89.0,21.842827,21.842827,24.816736,24.816736,-0.0077837477,-0.007780582,-0.0110489195,-0.011041888,1159.4263,0.0,0.0,0.0,0.0,0.0,0.0,0.0,0.0,0.0,0.0,0.0,0.0,0.0,-64.7203,0.23292385,-60.987667,0.0021326004,0.0019670087,-0.00194704,549866.5,0.0,0.0034862887,0.0069999346,8582.66,8633.236,8434.014,8455.986,0.29695892,0.0,0.0,0.0
286.3572,286.3572,3.249,0.0,0.0,314.31174,10914.0,6.0090027,57.922638,0.052122585,0.0,8.0,0.0,1.0,4000000.0,110.0,1.0,0.0,0.0,10.0,0.0,0.0,-319.76895,2.041437,269.62518,0.010096431,-2.7524421,0.12853914,309.9237,309.92026,309.76263,309.73743,308.0,309.0,338.0,344.0,89.0,89.0,89.0,89.0,0.0,0.0,0.0,0.0,0.05039575,0.050371412,0.05525766,0.055107303,17.065777,16.052797,12.633651,7.134005,799.72736,744.3129,847.9535,637.333,0.0,0.0,0.0,2.0,1.0,-2.326423,-0.018757742,-0.0018264055,89.0,89.0,89.0,89.0,21.842827,21.842827,24.816736,24.816736,-0.013786703,-0.013783447,-0.014480318,-0.014541734,1126.743,0.0,0.0,0.0,0.0,0.0,0.0,0.0,0.0,0.0,0.0,0.0,0.0,0.0,-63.55016,0.272473,-59.867626,-3.6118785E-4,-0.0011711654,-0.0113213975,548173.4,0.0,0.0031854087,0.006048938,8950.549,8932.99,8915.834,8827.492,0.29639626,0.0,0.0,0.0
290.67935,290.67935,3.299,0.0,0.0,308.47623,10633.0,0.0,80.55657,0.15931411,0.0,8.0,0.0,1.0,4000000.0,110.0,1.0,0.0,0.0,10.0,0.0,0.0,-322.91644,2.0566432,266.66013,-0.017592192,-3.5464602,0.07345674,301.98773,301.9664,301.66122,301.57562,348.0,349.0,378.0,384.0,89.0,89.0,89.0,89.0,0.0,0.0,0.0,0.0,0.049768485,0.04976759,0.054772757,0.05461401,-27.247665,-28.678623,-9.32984,-11.525228,-873.9038,-895.3749,137.08768,7.094478,0.0,0.0,0.0,2.0,1.0,-2.3266442,-0.018490199,-0.0016092062,89.0,89.0,89.0,89.0,21.842827,21.842827,24.816736,24.816736,-0.020914674,-0.02086399,-0.022181435,-0.02231011,1087.9209,0.0,0.0,0.0,0.0,0.0,0.0,0.0,0.0,0.0,0.0,0.0,0.0,0.0,-62.36838,0.3247383,-58.75785,-0.011770447,-0.0074324002,0.010060611,543273.5,0.0,0.0056403154,0.009024669,8402.068,8392.148,8787.276,8704.818,0.29902363,0.0,0.0,0.0
294.91376,294.91376,3.349,0.0,0.0,301.84213,10369.0,0.0,88.947266,0.28844723,0.0,8.0,0.0,1.0,4000000.0,110.0,1.0,0.0,0.0,10.0,0.0,0.0,-325.99963,2.0728478,263.75494,-0.054319263,-3.8421504,-0.026920836,294.48337,294.4276,294.05878,293.89157,389.0,391.0,421.0,426.0,89.0,89.0,89.0,89.0,0.0,0.0,0.0,0.0,0.048626725,0.048521306,0.054294422,0.053993944,-18.829554,-20.836964,-9.849741,-12.719481,211.54575,229.77138,-8.086852,-24.233778,0.0,0.0,0.0,2.0,1.0,-2.3271098,-0.018380245,-0.0011184216,89.0,89.0,89.0,89.0,21.842827,21.842827,24.816736,24.816736,-0.024353158,-0.024336196,-0.025880698,-0.026181877,1043.7445,0.0,0.0,0.0,0.0,0.0,0.0,0.0,0.0,0.0,0.0,0.0,0.0,0.0,-61.015163,0.3191424,-57.506855,-0.0042048343,-0.012054282,0.0012935542,534483.56,0.0,0.0091541745,0.013763383,7761.3906,7675.907,8637.558,8486.164,0.3029356,0.0,0.0,0.0
299.0542,299.0542,3.399,0.0,0.0,294.9735,10114.0,0.0,91.16785,0.53997314,0.0,8.0,0.0,1.0,4000000.0,110.0,1.0,0.0,0.0,10.0,0.0,0.0,-329.0133,2.0847783,260.9131,-0.120366454,-3.9477,0.0031160526,287.32962,287.20477,287.30704,286.88477,429.0,430.0,462.0,467.0,89.0,89.0,89.0,89.0,0.0,0.0,0.0,0.0,0.047173854,0.046665307,0.05402662,0.053276967,20.255148,-1.7995386,30.80271,9.342581,2572.493,2052.453,1240.3337,1000.008,0.0,0.0,0.0,2.0,1.0,-2.328049,-0.019160975,-6.337166E-4,89.0,89.0,89.0,89.0,21.842827,21.842827,24.816736,24.816736,-0.02610315,-0.026122084,-0.026285533,-0.027205668,994.1406,0.0,0.0,0.0,0.0,0.0,0.0,0.0,0.0,0.0,0.0,0.0,0.0,0.0,-59.595013,0.21415405,-56.23233,0.010725377,-0.024947735,0.0010718191,521917.53,0.0,0.007558209,0.014253177,7471.463,7264.031,8826.232,8423.847,0.3026533,0.0,0.0,0.0
303.09647,303.09647,3.449,0.0,0.0,287.77985,9868.0,0.0,96.845276,0.97801304,0.0,8.0,0.0,1.0,4000000.0,110.0,1.0,0.0,0.0,10.0,0.0,0.0,-331.95334,2.1008272,258.1363,-0.22320652,-4.0796,0.3944343,280.27652,280.13104,279.65588,278.98276,467.0,468.0,502.0,507.0,89.0,89.0,89.0,89.0,0.0,0.0,0.0,0.0,0.049398854,0.049368493,0.0548702,0.05371446,-24.652182,-7.048621,-15.576258,-11.403634,-2576.8916,-4516.6113,-837.6404,-1012.6276,0.0,0.0,0.0,2.0,1.0,-2.3297253,-0.018061034,-0.0024937391,89.0,89.0,89.0,89.0,21.842827,21.842827,24.816736,24.816736,-0.026284602,-0.026059916,-0.028489651,-0.02985178,940.3644,0.0,0.0,0.0,0.0,0.0,0.0,0.0,0.0,0.0,0.0,0.0,0.0,0.0,-58.084892,0.41461483,-54.919876,0.0017006863,-0.04327247,-0.046155848,505992.44,0.0,0.008290283,0.013533716,8163.289,7892.634,9077.452,8539.451,0.3031559,0.0,0.0,0.0
305.73584,305.73584,3.499,0.0,0.0,282.98492,9693.0,0.0,97.0067,1.4741325,0.0,8.0,0.0,1.0,4000000.0,110.0,1.0,0.0,0.0,10.0,0.0,0.0,-333.87088,2.116454,256.32098,-0.3397026,-4.066328,0.2619075,275.34985,275.07816,274.9509,273.9772,491.0,491.0,527.0,531.0,89.0,89.0,89.0,89.0,0.0,0.0,0.0,0.0,0.048537727,0.04816769,0.0545756,0.05314186,0.0,0.0,0.0,0.0,-27.452429,-652.4741,267.48328,-364.17685,0.0,0.0,0.0,2.0,1.0,-2.3316236,-0.017716696,-0.0034074783,89.0,89.0,89.0,89.0,21.842827,21.842827,24.816736,24.816736,-0.02742787,-0.027108878,-0.029034287,-0.030993307,898.7957,0.0,0.0,0.0,0.0,0.0,0.0,0.0,0.0,0.0,0.0,0.0,0.0,0.0,-57.050407,0.5090019,-54.074394,0.01786866,-0.06835697,-0.016673962,492356.62,0.0,0.009330933,0.015479024,7703.9272,7357.287,8867.184,8161.5195,0.30474567,0.0,0.0,0.0
