LapDistance [m],TotalDistance [m],LapTime [s],Sector1Time [s],Sector2Time [s],Speed [km/h],EngineRevs [rpm],ThrottlePercentage [%],BrakePercentage [%],Steer [%],Clutch [%],Gear [int],DRS [0/1],CanUseDRS [0/1],KERSLevel [J],EngineTemperature [C],RacePosition [int],Sector [int],InPits [int],FuelRemaining [kg],CurrentFlag [int],CurrentLapInvalid [int],X [m],Y [m],Z [m],GForceLatitudinal [G],GForceLongitudinal [G],GForceVertical [G],WheelSpeedRearLeft [km/h],WheelSpeedRearRight [km/h],WheelSpeedFrontLeft [km/h],WheelSpeedFrontRight [km/h],BrakeTemperatureRearLeft [C],BrakeTemperatureRearRight [C],BrakeTemperatureFrontLeft [C],BrakeTemperatureFrontRight [C],TyreTemperatureRearLeft [C],TyreTemperatureRearRight [C],TyreTemperatureFrontLeft [C],TyreTemperatureFrontRight [C],TyreWearRearLeft [%],TyreWearRearRight [%],TyreWearFrontLeft [%],TyreWearFrontRight [%],SuspensionPositionRearLeft [m],SuspensionPositionRearRight [m],SuspensionPositionFrontLeft [m],SuspensionPositionFrontRight [m],SuspensionVelocityRearLeft [m/s],SuspensionVelocityRearRight [m/s],SuspensionVelocityFrontLeft [m/s],SuspensionVelocityFrontRight [m/s],SuspensionAccelerationRearLeft [m/s^2],SuspensionAccelerationRearRight [m/s^2],SuspensionAccelerationFrontLeft [m/s^2],SuspensionAccelerationFrontRight [m/s^2],MGUKHarvested [J],MGUHHarvested [J],ERSSpent [J],ERSMode [int],FuelMixMode [int],Yaw [rad],Roll [rad],Pitch [rad],TyreCarcassTemperatureRearLeft [C],TyreCarcassTemperatureRearRight [C],TyreCarcassTemperatureFrontLeft [C],TyreCarcassTemperatureFrontRight [C],TyrePressureRearLeft [PSI],TyrePressureRearRight [PSI],TyrePressureFrontLeft [PSI],TyrePressureFrontRight [PSI],WheelSlipRearLeft [%],WheelSlipRearRight [%],WheelSlipFrontLeft [%],WheelSlipFrontRight [%],Torque [Nm],Handbrake [%],RearLeftInside [C],RearLeftMiddle [C],RearLeftOutside [C],RearRightInside [C],RearRightMiddle [C],RearRightOutside [C],FrontLeftInside [C],FrontLeftMiddle [C],FrontLeftOutside [C],FrontRightInside [C],FrontRightMiddle [C],FrontRightOutside [C],WoldSpeedX [km/h],WoldSpeedY [km/h],WoldSpeedZ [km/h],LocalAngularVelocityX [rad/s],LocalAngularVelocityY [rad/s],LocalAngularVelocityZ [rad/s],IcePower [W],MgukPower [W],FrontRideHeight [m],RearRideHeight [m],LoadRearLeft [N],LoadRearRight [N],LoadFrontLeft [N],LoadFrontRight [N],Extra1 [m],Extra2 [],Extra3 [],Extra4 []
3.005326,3.005326,0.05,0.0,0.0,252.76463,10398.0,100.0,0.0,1.4751662,0.0,7.0,0.0,0.0,4000000.0,110.0,1.0,0.0,0.0,10.0,0.0,0.0,-799.86835,0.19719842,-1017.5096,-0.6866403,0.5223953,0.11933566,258.37735,258.34467,252.88063,252.33769,389.0,389.0,431.0,434.0,89.0,89.0,89.0,89.0,0.0,0.0,0.0,0.0,0.046726238,0.042624973,0.052570097,0.049473766,0.0,0.0,0.0,0.0,-499.42722,-361.42752,-473.39645,-364.2037,0.0,0.0,0.0,2.0,1.0,1.4357549,-0.0042933496,-0.0059212446,89.0,89.0,89.0,89.0,21.842827,21.842827,24.816736,24.816736,0.0213042,0.02305728,-5.313885E-4,-5.766414E-4,1049.4995,0.0,0.0,0.0,0.0,0.0,0.0,0.0,0.0,0.0,0.0,0.0,0.0,0.0,69.627556,0.4122535,9.034071,0.0067349467,-0.08970741,0.011014231,535931.7,119984.92,0.015743712,0.016031304,7784.15,6827.0757,5878.4697,4478.5166,0.31180573,0.0,0.0,0.0
6.5454636,6.5454636,0.1,0.0,0.0,253.6766,10439.0,100.0,0.0,1.177945,0.0,7.0,0.0,0.0,4000000.0,110.0,1.0,0.0,0.0,10.0,0.0,0.0,-796.3815,0.21897297,-1017.0486,-0.61613566,0.5162746,0.019502055,259.39484,259.33792,253.75531,253.29832,388.0,388.0,429.0,432.0,89.0,89.0,89.0,89.0,0.0,0.0,0.0,0.0,0.046514466,0.042745538,0.0522439,0.049458988,0.0,0.0,0.0,0.0,-793.37054,-804.54193,-6.973743,42.459362,0.0,0.0,0.0,2.0,1.0,1.4316545,-0.003822783,-0.0058689117,89.0,89.0,89.0,89.0,21.842827,21.842827,24.816736,24.816736,0.021762943,0.023095546,-5.233977E-4,-5.762253E-4,1057.5566,0.0,0.0,0.0,0.0,0.0,0.0,0.0,0.0,0.0,0.0,0.0,0.0,0.0,69.83716,0.44624543,9.380309,0.010426878,-0.07485331,-0.007518797,537925.0,119984.914,0.016661651,0.01680673,7501.4297,6651.1387,5645.13,4396.9526,0.31274796,0.0,0.0,0.0
10.098244,10.098244,0.15,0.0,0.0,254.58176,10479.0,100.0,0.0,0.9264228,0.0,7.0,0.0,0.0,4000000.0,110.0,1.0,0.0,0.0,10.0,0.0,0.0,-792.8841,0.24099912,-1016.5713,-0.5339691,0.51643175,-0.044207748,260.38083,260.34958,254.61526,254.25244,386.0,386.0,428.0,431.0,89.0,89.0,89.0,89.0,0.0,0.0,0.0,0.0,0.04516511,0.041839365,0.05197769,0.049551167,0.0,0.0,0.0,0.0,270.20563,300.9036,87.17179,39.388245,0.0,0.0,0.0,2.0,1.0,1.4283485,-0.003323986,-0.0055115223,89.0,89.0,89.0,89.0,21.842827,21.842827,24.816736,24.816736,0.022221852,0.023321148,-5.265223E-4,-5.71079E-4,1065.5199,0.0,0.0,0.0,0.0,0.0,0.0,0.0,0.0,0.0,0.0,0.0,0.0,0.0,70.04916,0.4322512,9.687366,0.0096253,-0.059146527,-0.0019808926,539906.75,119984.91,0.017208045,0.018470557,7279.5312,6548.1616,5549.3936,4460.6206,0.3138361,0.0,0.0,0.0
13.663861,13.663861,0.2,0.0,0.0,255.48898,10513.0,100.0,0.0,0.83012265,0.0,7.0,0.0,0.0,4000000.0,110.0,1.0,0.0,0.0,10.0,0.0,0.0,-789.3759,0.2622445,-1016.0795,-0.46578547,0.51360416,-0.022987619,261.18353,261.21793,255.48955,255.19463,385.0,385.0,426.0,429.0,89.0,89.0,89.0,89.0,0.0,0.0,0.0,0.0,0.044642568,0.04175497,0.051874176,0.049764458,0.0,0.0,0.0,0.0,169.48878,240.55388,-50.43894,31.676874,0.0,0.0,0.0,2.0,1.0,1.4257056,-0.0029170015,-0.005545497,89.0,89.0,89.0,89.0,21.842827,21.842827,24.816736,24.816736,0.02186763,0.022986487,-5.330442E-4,-5.613063E-4,1071.4703,0.0,0.0,0.0,0.0,0.0,0.0,0.0,0.0,0.0,0.0,0.0,0.0,0.0,70.265335,0.4202619,9.961313,0.007029767,-0.048273947,0.0047523836,541166.0,119984.91,0.016884482,0.018411683,7318.351,6677.71,5532.661,4591.2334,0.31370926,0.0,0.0,0.0
17.242123,17.242123,0.25,0.0,0.0,256.38858,10546.0,100.0,0.0,0.8288257,0.0,7.0,0.0,0.0,4000000.0,110.0,1.0,0.0,0.0,10.0,0.0,0.0,-785.8569,0.2834372,-1015.5748,-0.41272515,0.50938827,0.021525167,262.01813,262.03906,256.37994,256.1054,383.0,383.0,425.0,428.0,89.0,89.0,89.0,89.0,0.0,0.0,0.0,0.0,0.045008387,0.042562433,0.051900696,0.050025526,0.0,0.0,0.0,0.0,86.75605,78.17298,-172.72083,-185.26016,0.0,0.0,0.0,2.0,1.0,1.4233855,-0.002523162,-0.0059068203,89.0,89.0,89.0,89.0,21.842827,21.842827,24.816736,24.816736,0.02155426,0.022568805,-5.374484E-4,-5.502571E-4,1075.9896,0.0,0.0,0.0,0.0,0.0,0.0,0.0,0.0,0.0,0.0,0.0,0.0,0.0,70.482605,0.42959765,10.20643,0.0061881416,-0.045493208,0.00937491,541748.0,119984.9,0.016047478,0.017214654,7437.3467,6874.4736,5573.2686,4730.533,0.312644,0.0,0.0,0.0
20.832722,20.832722,0.3,0.0,0.0,257.27902,10581.0,100.0,0.0,0.9190578,0.0,7.0,0.0,0.0,4000000.0,110.0,1.0,0.0,0.0,10.0,0.0,0.0,-782.327,0.3053786,-1015.0585,-0.389948,0.5034338,0.031223454,262.89194,262.89102,257.27982,256.9891,382.0,381.0,423.0,427.0,89.0,89.0,89.0,89.0,0.0,0.0,0.0,0.0,0.045603402,0.043346543,0.051870733,0.050128583,0.0,0.0,0.0,0.0,-162.86372,-332.6609,-2.2932885,-56.460495,0.0,0.0,0.0,2.0,1.0,1.4210395,-0.0022640517,-0.0061769485,89.0,89.0,89.0,89.0,21.842827,21.842827,24.816736,24.816736,0.021356946,0.02235845,-5.407753E-4,-5.409932E-4,1080.7686,0.0,0.0,0.0,0.0,0.0,0.0,0.0,0.0,0.0,0.0,0.0,0.0,0.0,70.69902,0.44720075,10.43524,0.002959913,-0.048834205,0.001944647,542354.2,119984.9,0.015736654,0.01618093,7496.5405,6964.3276,5562.8164,4772.642,0.31191158,0.0,0.0,0.0
24.435677,24.435677,0.35,0.0,0.0,258.15652,10617.0,100.0,0.0,0.9394238,0.0,7.0,0.0,0.0,4000000.0,110.0,1.0,0.0,0.0,10.0,0.0,0.0,-778.78644,0.32800794,-1014.5309,-0.3818189,0.4959432,-0.0046898862,263.81754,263.79645,258.16962,257.8566,380.0,380.0,422.0,425.0,89.0,89.0,89.0,89.0,0.0,0.0,0.0,0.0,0.045615233,0.043361895,0.0518241,0.050131403,0.0,0.0,0.0,0.0,-231.13934,-203.79422,-25.936956,-29.69205,0.0,0.0,0.0,2.0,1.0,1.4184895,-0.0021581296,-0.006074548,89.0,89.0,89.0,89.0,21.842827,21.842827,24.816736,24.816736,0.021421118,0.022419423,-5.356299E-4,-5.3908146E-4,1085.7299,0.0,0.0,0.0,0.0,0.0,0.0,0.0,0.0,0.0,0.0,0.0,0.0,0.0,70.91225,0.4541035,10.657974,0.0016724146,-0.052576765,-0.003947108,542996.44,119984.9,0.015955796,0.016382478,7424.0757,6899.0986,5525.752,4756.245,0.3120718,0.0,0.0,0.0
28.050697,28.050697,0.4,0.0,0.0,259.023,10654.0,100.0,0.0,0.8736761,0.0,7.0,0.0,0.0,4000000.0,110.0,1.0,0.0,0.0,10.0,0.0,0.0,-775.2353,0.3504036,-1013.9921,-0.37701705,0.49029264,-0.035715822,264.71735,264.6954,259.03775,258.72247,378.0,378.0,421.0,424.0,89.0,89.0,89.0,89.0,0.0,0.0,0.0,0.0,0.045292094,0.043017443,0.051769976,0.050102644,0.0,0.0,0.0,0.0,16.428507,33.35326,65.79458,53.01385,0.0,0.0,0.0,2.0,1.0,1.4158316,-0.0021753227,-0.005781293,89.0,89.0,89.0,89.0,21.842827,21.842827,24.816736,24.816736,0.021488441,0.022483312,-5.2781886E-4,-5.418365E-4,1090.7799,0.0,0.0,0.0,0.0,0.0,0.0,0.0,0.0,0.0,0.0,0.0,0.0,0.0,71.12225,0.44096163,10.879012,7.34289E-4,-0.052594937,-0.005491106,543627.56,119984.91,0.016239135,0.016977832,7369.2812,6834.7554,5508.093,4746.7393,0.31254292,0.0,0.0,0.0
31.67775,31.67775,0.45,0.0,0.0,259.8787,10689.0,100.0,0.0,0.7434821,0.0,7.0,0.0,0.0,4000000.0,110.0,1.0,0.0,0.0,10.0,0.0,0.0,-771.6737,0.37213176,-1013.4425,-0.36039492,0.48517296,-0.017213488,265.6036,265.54254,259.88016,259.59064,377.0,377.0,419.0,422.0,89.0,89.0,89.0,89.0,0.0,0.0,0.0,0.0,0.04519512,0.04299255,0.051835965,0.050235733,0.0,0.0,0.0,0.0,165.85437,245.24773,-23.76437,-2.172589,0.0,0.0,0.0,2.0,1.0,1.4132974,-0.0021129027,-0.0057029724,89.0,89.0,89.0,89.0,21.842827,21.842827,24.816736,24.816736,0.021595277,0.022342231,-5.241334E-4,-5.420739E-4,1095.5884,0.0,0.0,0.0,0.0,0.0,0.0,0.0,0.0,0.0,0.0,0.0,0.0,0.0,71.329735,0.43065375,11.093558,0.0017632494,-0.04804137,0.002784889,544236.1,119984.91,0.015978338,0.017017735,7411.6323,6899.7344,5576.486,4849.6753,0.3125038,0.0,0.0,0.0
35.316643,35.316643,0.5,0.0,0.0,260.72897,10721.0,100.0,0.0,0.3946071,0.0,7.0,0.0,0.0,4000000.0,110.0,1.0,0.0,0.0,10.0,0.0,0.0,-768.10175,0.39363664,-1012.8826,-0.30698845,0.4813882,0.005811398,266.39136,266.35233,260.69177,260.48148,375.0,375.0,418.0,421.0,89.0,89.0,89.0,89.0,0.0,0.0,0.0,0.0,0.045553103,0.043652546,0.051831152,0.050387725,0.0,0.0,0.0,0.0,64.07798,165.7873,-47.93107,19.808105,0.0,0.0,0.0,2.0,1.0,1.4112334,-0.0018325879,-0.0059366226,89.0,89.0,89.0,89.0,21.842827,21.842827,24.816736,24.816736,0.021433048,0.021972096,-5.1136274E-4,-5.527604E-4,1100.0018,0.0,0.0,0.0,0.0,0.0,0.0,0.0,0.0,0.0,0.0,0.0,0.0,0.0,71.538025,0.431422,11.289995,0.008335159,-0.033661976,0.006423553,544797.5,119984.9,0.015562979,0.016160332,7486.0933,7051.336,5573.664,4926.634,0.31185818,0.0,0.0,0.0
38.967205,38.967205,0.55,0.0,0.0,261.57147,10753.0,100.0,0.0,-0.015487512,0.0,7.0,0.0,0.0,4000000.0,110.0,1.0,0.0,0.0,10.0,0.0,0.0,-764.51935,0.41545284,-1012.3138,-0.21148682,0.476151,0.026075078,267.18326,267.1758,261.47055,261.39157,374.0,374.0,416.0,419.0,89.0,89.0,89.0,89.0,0.0,0.0,0.0,0.0,0.04585768,0.044506438,0.051720764,0.05066787,0.0,0.0,0.0,0.0,-52.97364,-11.319007,32.494953,68.19514,0.0,0.0,0.0,2.0,1.0,1.4101175,-0.0011867896,-0.00614357,89.0,89.0,89.0,89.0,21.842827,21.842827,24.816736,24.816736,0.021393644,0.021585276,-5.0404127E-4,-5.535976E-4,1104.4342,0.0,0.0,0.0,0.0,0.0,0.0,0.0,0.0,0.0,0.0,0.0,0.0,0.0,71.75001,0.44211844,11.447002,0.015792837,-0.011007847,0.006379734,545364.94,119984.89,0.015165307,0.015362754,7489.4897,7191.3867,5546.5166,5088.1562,0.31128788,0.0,0.0,0.0
42.629593,42.629593,0.6,0.0,0.0,262.40463,10787.0,100.0,0.0,-0.3316397,0.0,7.0,0.0,0.0,4000000.0,110.0,1.0,0.0,0.0,10.0,0.0,0.0,-760.9261,0.4377597,-1011.73865,-0.088815585,0.47036102,-0.02434487,268.00565,268.04407,262.23297,262.29922,372.0,372.0,415.0,418.0,89.0,89.0,89.0,89.0,0.0,0.0,0.0,0.0,0.045670394,0.045067,0.051357005,0.050893463,0.0,0.0,0.0,0.0,-403.2164,-519.6645,-198.175,-217.21866,0.0,0.0,0.0,2.0,1.0,1.410237,-3.203865E-4,-0.006195426,89.0,89.0,89.0,89.0,21.842827,21.842827,24.816736,24.816736,0.021527344,0.021383842,-5.0741783E-4,-5.461294E-4,1109.1313,0.0,0.0,0.0,0.0,0.0,0.0,0.0,0.0,0.0,0.0,0.0,0.0,0.0,71.96853,0.44486433,11.546013,0.015173169,0.013191224,-9.328788E-4,545958.1,119984.9,0.01513496,0.015079431,7334.5225,7238.0537,5281.4214,5106.6855,0.31108952,0.0,0.0,0.0
46.277332,46.277332,0.65,0.0,0.0,263.23203,10819.0,100.0,0.0,-0.4405586,0.0,7.0,0.0,0.0,4000000.0,110.0,1.0,0.0,0.0,10.0,0.0,0.0,-757.3218,0.45978892,-1011.16003,0.018423695,0.46614867,-0.0122473445,268.77454,268.8636,263.01825,263.1695,371.0,371.0,413.0,416.0,89.0,89.0,89.0,89.0,0.0,0.0,0.0,0.0,0.045291703,0.045238227,0.05119408,0.051212046,0.0,0.0,0.0,0.0,104.61956,82.39745,73.86803,-15.449523,0.0,0.0,0.0,2.0,1.0,1.4113029,3.0169787E-4,-0.0060122013,89.0,89.0,89.0,89.0,21.842827,21.842827,24.816736,24.816736,0.02137986,0.021162525,-5.1413145E-4,-5.3116784E-4,1113.5582,0.0,0.0,0.0,0.0,0.0,0.0,0.0,0.0,0.0,0.0,0.0,0.0,0.0,72.19431,0.43789798,11.5898485,0.011067538,0.026625415,3.3716473E-4,546515.94,119984.9,0.0145797245,0.014942132,7284.638,7322.584,5309.634,5340.574,0.3107891,0.0,0.0,0.0
49.93633,49.93633,0.7,0.0,0.0,264.05,10851.0,100.0,0.0,-0.33316058,0.0,7.0,0.0,0.0,4000000.0,110.0,1.0,0.0,0.0,10.0,0.0,0.0,-753.706,0.48163176,-1010.57996,0.08724723,0.46199024,-0.005412337,269.57623,269.63232,263.8321,263.98972,369.0,369.0,412.0,415.0,89.0,89.0,89.0,89.0,0.0,0.0,0.0,0.0,0.045249734,0.045727566,0.051101156,0.051455423,0.0,0.0,0.0,0.0,198.34933,86.44758,-48.95031,-118.40612,0.0,0.0,0.0,2.0,1.0,1.4126816,7.708997E-4,-0.0060994625,89.0,89.0,89.0,89.0,21.842827,21.842827,24.816736,24.816736,0.021249654,0.02091748,-5.2607065E-4,-5.167733E-4,1117.9794,0.0,0.0,0.0,0.0,0.0,0.0,0.0,0.0,0.0,0.0,0.0,0.0,0.0,72.423965,0.4362899,11.592798,0.0067237574,0.026506566,0.0040534446,547067.6,119984.89,0.013960598,0.014198512,7311.6934,7446.297,5261.117,5439.4697,0.31002426,0.0,0.0,0.0
53.606598,53.606598,0.749,0.0,0.0,264.85645,10883.0,100.0,0.0,-0.17153761,0.0,7.0,0.0,0.0,4000000.0,110.0,1.0,0.0,0.0,10.0,0.0,0.0,-750.07874,0.5039446,-1010.0008,0.10592198,0.45325723,-0.017320408,270.39413,270.40842,264.66452,264.77267,368.0,368.0,411.0,414.0,89.0,89.0,89.0,89.0,0.0,0.0,0.0,0.0,0.045767955,0.046442084,0.05097252,0.05146684,0.0,0.0,0.0,0.0,-668.849,-873.91724,-93.4079,-209.82918,0.0,0.0,0.0,2.0,1.0,1.4137915,9.689232E-4,-0.006158948,89.0,89.0,89.0,89.0,21.842827,21.842827,24.816736,24.816736,0.021100966,0.02080086,-5.298347E-4,-5.0802587E-4,1122.4233,0.0,0.0,0.0,0.0,0.0,0.0,0.0,0.0,0.0,0.0,0.0,0.0,0.0,72.653175,0.4471071,11.577689,0.001156538,0.017433308,-0.0070830407,547627.25,119984.9,0.014715915,0.013977408,7333.396,7490.124,5121.3086,5351.157,0.31017685,0.0,0.0,0.0
57.288036,57.288036,0.799,0.0,0.0,265.64914,10919.0,100.0,0.0,-0.04386026,0.0,7.0,0.0,0.0,4000000.0,110.0,1.0,0.0,0.0,10.0,0.0,0.0,-746.4401,0.52542114,-1009.4222,0.08782433,0.4496277,-0.09190762,271.31213,271.2951,265.4899,265.53497,366.0,366.0,409.0,412.0,89.0,89.0,89.0,89.0,0.0,0.0,0.0,0.0,0.04504198,0.045577586,0.050871376,0.051305152,0.0,0.0,0.0,0.0,278.09137,263.44662,307.32745,304.04175,0.0,0.0,0.0,2.0,1.0,1.4143643,8.238372E-4,-0.0054945946,89.0,89.0,89.0,89.0,21.842827,21.842827,24.816736,24.816736,0.021421896,0.021226162,-5.2466075E-4,-5.072499E-4,1127.4365,0.0,0.0,0.0,0.0,0.0,0.0,0.0,0.0,0.0,0.0,0.0,0.0,0.0,72.87816,0.4091765,11.566365,-0.001971219,0.0068075536,-0.013130632,548259.6,119984.9,0.015035545,0.0151074035,7149.14,7260.6055,5137.4624,5331.0312,0.31102276,0.0,0.0,0.0
60.9805,60.9805,0.849,0.0,0.0,266.43942,10948.0,100.0,0.0,-0.075304545,0.0,7.0,0.0,0.0,4000000.0,110.0,1.0,0.0,0.0,10.0,0.0,0.0,-742.79034,0.5450394,-1008.8443,0.0693043,0.44632313,-0.041683126,272.03665,272.01453,266.29092,266.31168,365.0,365.0,408.0,411.0,89.0,89.0,89.0,89.0,0.0,0.0,0.0,0.0,0.044979908,0.045373727,0.051108137,0.05144111,0.0,0.0,0.0,0.0,543.10706,521.05927,-35.338093,-29.7591,0.0,0.0,0.0,2.0,1.0,1.4145814,6.2663155E-4,-0.0052336454,89.0,89.0,89.0,89.0,21.842827,21.842827,24.816736,24.816736,0.02109979,0.020956801,-5.145536E-4,-5.1388575E-4,1131.4778,0.0,0.0,0.0,0.0,0.0,0.0,0.0,0.0,0.0,0.0,0.0,0.0,0.0,73.10092,0.38141447,11.564184,-0.0038221912,0.0033076885,2.708757E-4,548767.3,119984.9,0.014407113,0.014867154,7301.251,7386.789,5309.7275,5456.5547,0.31059456,0.0,0.0,0.0
65.9209,65.9209,0.899,0.0,0.0,267.47916,10987.0,100.0,0.0,-0.12304638,0.0,7.0,0.0,0.0,4000000.0,110.0,1.0,0.0,0.0,10.0,0.0,0.0,-737.9068,0.5702714,-1008.0734,0.055379983,0.4368664,0.015050463,272.98563,272.9796,267.32376,267.3586,363.0,363.0,406.0,409.0,89.0,89.0,89.0,89.0,0.0,0.0,0.0,0.0,0.04621378,0.046548724,0.051305626,0.051548947,16.580969,16.7457,0.069960944,-0.6117671,-612.53595,-599.5675,-347.85562,-312.66507,0.0,0.0,0.0,2.0,1.0,1.4148813,5.046134E-4,-0.0054295063,89.0,89.0,89.0,89.0,21.842827,21.842827,24.816736,24.816736,0.020680826,0.020543773,-5.0919905E-4,-5.1211123E-4,1136.9009,0.0,0.0,0.0,0.0,0.0,0.0,0.0,0.0,0.0,0.0,0.0,0.0,0.0,73.39233,0.38281524,11.570454,-6.5594236E-4,0.0059349034,0.0017390037,549440.25,119984.89,0.014043225,0.0134539455,7488.7754,7564.051,5386.076,5494.9277,0.30971432,0.0,0.0,0.0
68.39835,68.39835,0.949,0.0,0.0,267.98972,11010.0,100.0,0.0,-0.17109022,0.0,7.0,0.0,0.0,4000000.0,110.0,1.0,0.0,0.0,10.0,0.0,0.0,-735.45776,0.5829382,-1007.68744,0.0589153,0.43211693,-0.06064668,273.55176,273.54843,267.82864,267.87604,362.0,362.0,405.0,408.0,89.0,89.0,89.0,89.0,0.0,0.0,0.0,0.0,0.046174742,0.046542604,0.051177025,0.051413286,0.0,0.0,0.0,0.0,-1001.3355,-947.5841,-252.38243,-168.4427,0.0,0.0,0.0,2.0,1.0,1.4151198,5.373571E-4,-0.005350709,89.0,89.0,89.0,89.0,21.842827,21.842827,24.816736,24.816736,0.020869387,0.020696415,-5.0744734E-4,-5.1314104E-4,1139.7532,0.0,0.0,0.0,0.0,0.0,0.0,0.0,0.0,0.0,0.0,0.0,0.0,0.0,73.535446,0.3729538,11.573645,0.0024990388,0.008203805,-0.005623769,549668.06,119984.89,0.014175725,0.013410188,7348.607,7436.6514,5227.873,5338.257,0.3097582,0.0,0.0,0.0
72.12335,72.12335,0.999,0.0,0.0,268.7528,11040.0,100.0,0.0,-0.2863413,0.0,7.0,0.0,0.0,4000000.0,110.0,1.0,0.0,0.0,10.0,0.0,0.0,-731.7754,0.6010225,-1007.10846,0.077886246,0.42996532,-0.033018414,274.28845,274.29523,268.57806,268.65353,360.0,360.0,403.0,406.0,89.0,89.0,89.0,89.0,0.0,0.0,0.0,0.0,0.046003327,0.046448827,0.051213693,0.051516913,0.0,0.0,0.0,0.0,111.80787,191.71088,-4.7072763,49.996372,0.0,0.0,0.0,2.0,1.0,1.4156437,6.7478954E-4,-0.0050387383,89.0,89.0,89.0,89.0,21.842827,21.842827,24.816736,24.816736,0.020775195,0.020539049,-5.005121E-4,-5.143803E-4,1142.9249,0.0,0.0,0.0,0.0,0.0,0.0,0.0,0.0,0.0,0.0,0.0,0.0,0.0,73.75023,0.35371295,11.572908,0.0049951673,0.0132993935,-0.0039136503,549699.9,119984.89,0.013847672,0.013347517,7403.4746,7514.409,5357.788,5502.324,0.3095436,0.0,0.0,0.0
75.858986,75.858986,1.049,0.0,0.0,269.5052,11069.0,100.0,0.0,-0.29650357,0.0,7.0,0.0,0.0,4000000.0,110.0,1.0,0.0,0.0,10.0,0.0,0.0,-728.0822,0.6183299,-1006.53,0.09508855,0.4239911,-0.03414143,275.01862,275.03595,269.31842,269.41833,359.0,359.0,402.0,405.0,89.0,89.0,89.0,89.0,0.0,0.0,0.0,0.0,0.046122853,0.04669334,0.051179178,0.051605143,0.0,0.0,0.0,0.0,26.915974,-64.05115,10.54108,-33.755596,0.0,0.0,0.0,2.0,1.0,1.4164225,8.2674436E-4,-0.0048366785,89.0,89.0,89.0,89.0,21.842827,21.842827,24.816736,24.816736,0.02066682,0.020392457,-5.02142E-4,-5.07743E-4,1145.9929,0.0,0.0,0.0,0.0,0.0,0.0,0.0,0.0,0.0,0.0,0.0,0.0,0.0,73.963524,0.33893257,11.562178,0.0023682094,0.017117657,-0.0045334785,549731.44,119984.89,0.013887563,0.013139196,7432.1074,7562.8623,5318.409,5517.4287,0.30945492,0.0,0.0,0.0
79.60495,79.60495,1.099,0.0,0.0,270.2448,11099.0,100.0,0.0,-0.115641594,0.0,7.0,0.0,0.0,4000000.0,110.0,1.0,0.0,0.0,10.0,0.0,0.0,-724.3785,0.63500226,-1005.95215,0.087407954,0.4164778,-0.043926697,275.7712,275.78098,270.0705,270.147,357.0,357.0,401.0,404.0,89.0,89.0,89.0,89.0,0.0,0.0,0.0,0.0,0.046270154,0.046798583,0.051205058,0.051629525,0.0,0.0,0.0,0.0,-180.40535,-226.92825,17.11249,-21.86,0.0,0.0,0.0,2.0,1.0,1.4171823,7.257207E-4,-0.0045597553,89.0,89.0,89.0,89.0,21.842827,21.842827,24.816736,24.816736,0.020605812,0.020397581,-5.091258E-4,-4.9398164E-4,1149.166,0.0,0.0,0.0,0.0,0.0,0.0,0.0,0.0,0.0,0.0,0.0,0.0,0.0,74.173485,0.3252775,11.549597,-0.0028168338,0.012279564,-0.0059347707,549763.56,119984.9,0.014127362,0.013455108,7421.849,7536.419,5338.1753,5527.8145,0.30980682,0.0,0.0,0.0
83.36122,83.36122,1.149,0.0,0.0,270.97623,11128.0,100.0,0.0,0.13953073,0.0,7.0,0.0,0.0,4000000.0,110.0,1.0,0.0,0.0,10.0,0.0,0.0,-720.6644,0.6504782,-1005.37427,0.048197795,0.41507268,-0.059313238,276.5101,276.48926,270.83722,270.8424,356.0,356.0,399.0,402.0,89.0,89.0,89.0,89.0,0.0,0.0,0.0,0.0,0.04617637,0.046526104,0.05127505,0.051542208,0.0,0.0,0.0,0.0,539.23126,504.24188,298.42252,231.01865,0.0,0.0,0.0,2.0,1.0,1.4174813,4.7631748E-4,-0.0043547153,89.0,89.0,89.0,89.0,21.842827,21.842827,24.816736,24.816736,0.020479443,0.020412307,-5.1609514E-4,-4.8699742E-4,1152.2338,0.0,0.0,0.0,0.0,0.0,0.0,0.0,0.0,0.0,0.0,0.0,0.0,0.0,74.37919,0.294704,11.549874,-0.0062347557,-4.0503737E-4,-0.003749581,549794.6,119984.9,0.013796081,0.013277021,7458.547,7527.703,5393.333,5504.3154,0.3095188,0.0,0.0,0.0
87.12976,87.12976,1.199,0.0,0.0,271.7015,11155.0,100.0,0.0,0.35078093,0.0,7.0,0.0,0.0,4000000.0,110.0,1.0,0.0,0.0,10.0,0.0,0.0,-716.94006,0.664868,-1004.79614,-0.016793538,0.40883768,-0.011016823,277.1895,277.14105,271.60736,271.52264,354.0,354.0,398.0,401.0,89.0,89.0,89.0,89.0,0.0,0.0,0.0,0.0,0.046961904,0.046919573,0.05156285,0.05153598,0.0,0.0,0.0,0.0,115.22769,6.370239,-26.030844,-100.51577,0.0,0.0,0.0,2.0,1.0,1.4170673,5.9769816E-5,-0.00432384,89.0,89.0,89.0,89.0,21.842827,21.842827,24.816736,24.816736,0.020092972,0.020229694,-5.12484E-4,-4.8559086E-4,1155.0895,0.0,0.0,0.0,0.0,0.0,0.0,0.0,0.0,0.0,0.0,0.0,0.0,0.0,74.57884,0.28457803,11.577345,-0.009361642,-0.015609798,-0.0010950244,549823.2,119984.91,0.013229895,0.012290016,7636.2163,7610.4756,5559.875,5528.4053,0.3087511,0.0,0.0,0.0
90.909904,90.909904,1.249,0.0,0.0,272.41647,11183.0,100.0,0.0,0.33734712,0.0,7.0,0.0,0.0,4000000.0,110.0,1.0,0.0,0.0,10.0,0.0,0.0,-713.20593,0.67903966,-1004.2158,-0.072487205,0.40321288,0.012557855,277.87863,277.8225,272.34857,272.21268,353.0,353.0,396.0,399.0,89.0,89.0,89.0,89.0,0.0,0.0,0.0,0.0,0.047746163,0.047305673,0.05176911,0.051448595,0.0,0.0,0.0,0.0,227.82674,288.68613,96.5327,143.39088,0.0,0.0,0.0,2.0,1.0,1.4160235,-3.2792648E-4,-0.00428617,89.0,89.0,89.0,89.0,21.842827,21.842827,24.816736,24.816736,0.019852985,0.02011476,-4.9690506E-4,-4.9435714E-4,1158.0508,0.0,0.0,0.0,0.0,0.0,0.0,0.0,0.0,0.0,0.0,0.0,0.0,0.0,74.770805,0.28451625,11.635411,-0.004619576,-0.023256771,-0.0025973418,549852.6,119984.91,0.013214306,0.011805865,7767.8066,7655.376,5668.771,5508.777,0.308506,0.0,0.0,0.0
94.69976,94.69976,1.299,0.0,0.0,273.1171,11214.0,100.0,0.0,0.12787588,0.0,7.0,0.0,0.0,4000000.0,110.0,1.0,0.0,0.0,10.0,0.0,0.0,-709.4625,0.6929871,-1003.6321,-0.08960246,0.3944156,-0.08432735,278.63654,278.6128,273.0347,272.92868,351.0,351.0,395.0,398.0,89.0,89.0,89.0,89.0,0.0,0.0,0.0,0.0,0.04760554,0.047042724,0.051674478,0.05126584,0.0,0.0,0.0,0.0,-699.42615,-610.873,-250.41101,-180.86134,0.0,0.0,0.0,2.0,1.0,1.4149588,-4.540499E-4,-0.0040453672,89.0,89.0,89.0,89.0,21.842827,21.842827,24.816736,24.816736,0.020076772,0.020328868,-4.8201374E-4,-5.055534E-4,1161.3309,0.0,0.0,0.0,0.0,0.0,0.0,0.0,0.0,0.0,0.0,0.0,0.0,0.0,74.9564,0.26562425,11.708811,0.0014266056,-0.017026924,-0.0076026665,549885.75,119984.91,0.01350976,0.012183038,7579.676,7441.425,5493.8145,5304.897,0.3088684,0.0,0.0,0.0
98.49942,98.49942,1.349,0.0,0.0,273.81494,11240.0,100.0,0.0,-0.07096198,0.0,7.0,0.0,0.0,4000000.0,110.0,1.0,0.0,0.0,10.0,0.0,0.0,-705.7098,0.7055108,-1003.04474,-0.067956254,0.39350462,-0.035371315,279.2682,279.2846,273.69302,273.66556,350.0,350.0,394.0,397.0,89.0,89.0,89.0,89.0,0.0,0.0,0.0,0.0,0.0474453,0.046986137,0.051756646,0.051426344,0.0,0.0,0.0,0.0,264.31824,410.23038,-24.998186,61.04709,0.0,0.0,0.0,2.0,1.0,1.4144464,-3.531903E-4,-0.0037679672,89.0,89.0,89.0,89.0,21.842827,21.842827,24.816736,24.816736,0.019939343,0.020062134,-4.79416E-4,-5.0550146E-4,1164.0828,0.0,0.0,0.0,0.0,0.0,0.0,0.0,0.0,0.0,0.0,0.0,0.0,0.0,75.14198,0.24093364,11.777242,0.004416265,-0.0034642676,-0.0013747683,549913.75,119984.91,0.01289033,0.011906378,7681.046,7581.9214,5659.924,5516.4956,0.30841732,0.0,0.0,0.0
102.3086,102.3086,1.399,0.0,0.0,274.50424,11266.0,100.0,0.0,-0.1793341,0.0,7.0,0.0,0.0,4000000.0,110.0,1.0,0.0,0.0,10.0,0.0,0.0,-701.9478,0.7172919,-1002.45447,-0.02387143,0.38863564,-0.019226205,279.90652,279.94504,274.3494,274.38776,348.0,348.0,392.0,395.0,89.0,89.0,89.0,89.0,0.0,0.0,0.0,0.0,0.047828116,0.047620453,0.051724777,0.051579192,0.0,0.0,0.0,0.0,-62.06631,-3.9830585,-97.645805,-69.88494,0.0,0.0,0.0,2.0,1.0,1.4145665,-1.06149055E-4,-0.003757596,89.0,89.0,89.0,89.0,21.842827,21.842827,24.816736,24.816736,0.019801676,0.019791508,-4.8194808E-4,-5.000298E-4,1166.8347,0.0,0.0,0.0,0.0,0.0,0.0,0.0,0.0,0.0,0.0,0.0,0.0,0.0,75.32803,0.23142438,11.826938,0.0062278234,0.007400677,-1.1822861E-4,549941.6,119984.91,0.012584791,0.011062078,7740.4214,7705.628,5612.0444,5557.722,0.30779648,0.0,0.0,0.0
106.12733,106.12733,1.449,0.0,0.0,275.18158,11294.0,100.0,0.0,-0.26999325,0.0,7.0,0.0,0.0,4000000.0,110.0,1.0,0.0,0.0,10.0,0.0,0.0,-698.17645,0.7290037,-1001.8624,0.031388767,0.38044924,-0.028722486,280.59213,280.62915,275.00357,275.09158,347.0,347.0,391.0,394.0,89.0,89.0,89.0,89.0,0.0,0.0,0.0,0.0,0.047966134,0.04809951,0.05158813,0.05169146,0.0,0.0,0.0,0.0,-526.5176,-999.16296,-21.685637,-51.484997,0.0,0.0,0.0,2.0,1.0,1.4151678,2.6452582E-4,-0.0035629272,89.0,89.0,89.0,89.0,21.842827,21.842827,24.816736,24.816736,0.01983571,0.019668294,-4.8091103E-4,-4.92719E-4,1169.7971,0.0,0.0,0.0,0.0,0.0,0.0,0.0,0.0,0.0,0.0,0.0,0.0,0.0,75.514946,0.23082994,11.849513,0.007125253,0.015496685,-0.00740863,549971.0,119984.89,0.013099858,0.011300755,7681.568,7740.297,5517.3374,5579.466,0.3082552,0.0,0.0,0.0
109.95524,109.95524,1.499,0.0,0.0,275.84836,11322.0,100.0,0.0,-0.26975685,0.0,7.0,0.0,0.0,4000000.0,110.0,1.0,0.0,0.0,10.0,0.0,0.0,-694.3958,0.73962295,-1001.27026,0.07325244,0.3794586,-0.077203564,281.30267,281.33554,275.65967,275.76724,345.0,345.0,390.0,392.0,89.0,89.0,89.0,89.0,0.0,0.0,0.0,0.0,0.047300033,0.047648583,0.051459614,0.05173469,0.0,0.0,0.0,0.0,602.66547,608.4591,261.9445,300.47443,0.0,0.0,0.0,2.0,1.0,1.416036,5.2175415E-4,-0.0031934977,89.0,89.0,89.0,89.0,21.842827,21.842827,24.816736,24.816736,0.020014657,0.019774623,-4.8551185E-4,-4.8759693E-4,1172.7621,0.0,0.0,0.0,0.0,0.0,0.0,0.0,0.0,0.0,0.0,0.0,0.0,0.0,75.70266,0.19359073,11.848642,0.0058228034,0.018359654,-0.0031452256,550001.4,119984.91,0.012927958,0.0117124645,7557.2705,7671.2695,5502.7827,5639.1396,0.30835438,0.0,0.0,0.0
113.79253,113.79253,1.549,0.0,0.0,276.51212,11347.0,100.0,0.0,-0.25575146,0.0,7.0,0.0,0.0,4000000.0,110.0,1.0,0.0,0.0,10.0,0.0,0.0,-690.60565,0.74873996,-1000.6781,0.09968226,0.37393475,-0.026347471,281.90384,281.9258,276.32526,276.42877,344.0,344.0,388.0,391.0,89.0,89.0,89.0,89.0,0.0,0.0,0.0,0.0,0.047654584,0.048236772,0.05147267,0.051909912,0.0,0.0,0.0,0.0,201.63498,110.66791,-29.638407,-75.57123,0.0,0.0,0.0,2.0,1.0,1.4169326,7.369359E-4,-0.0031051636,89.0,89.0,89.0,89.0,21.842827,21.842827,24.816736,24.816736,0.019714285,0.019457601,-4.8478777E-4,-4.8430415E-4,1175.4064,0.0,0.0,0.0,0.0,0.0,0.0,0.0,0.0,0.0,0.0,0.0,0.0,0.0,75.89182,0.17532839,11.832641,0.003252613,0.01747606,-0.0018148744,550027.0,119984.9,0.012627988,0.010846905,7703.845,7844.882,5520.439,5726.9375,0.3077097,0.0,0.0,0.0
117.638985,117.638985,1.599,0.0,0.0,277.16476,11372.0,100.0,0.0,-0.29806778,0.0,7.0,0.0,0.0,4000000.0,110.0,1.0,0.0,0.0,10.0,0.0,0.0,-686.8061,0.7572755,-1000.0872,0.11927168,0.3670978,-0.0065408824,282.55664,282.5569,276.9782,277.08365,343.0,343.0,387.0,390.0,89.0,89.0,89.0,89.0,0.0,0.0,0.0,0.0,0.048000444,0.048318584,0.051546235,0.051968664,0.0,0.0,0.0,0.0,51.283833,292.96423,157.02989,164.09753,0.0,0.0,0.0,2.0,1.0,1.417812,6.834783E-4,-0.0027896166,89.0,89.0,89.0,89.0,21.842827,21.842827,24.816736,24.816736,0.01965046,0.019310089,-4.790261E-4,-4.8275915E-4,1178.0552,0.0,0.0,0.0,0.0,0.0,0.0,0.0,0.0,0.0,0.0,0.0,0.0,0.0,76.07957,0.16784509,11.805282,1.6000093E-4,0.017899256,-0.007148209,550054.56,119984.9,0.0127200335,0.010936377,7714.589,7926.9014,5600.959,5790.728,0.30793953,0.0,0.0,0.0
121.4944,121.4944,1.649,0.0,0.0,277.80402,11399.0,100.0,0.0,-0.28011805,0.0,7.0,0.0,0.0,4000000.0,110.0,1.0,0.0,0.0,10.0,0.0,0.0,-682.99725,0.76527435,-999.4978,0.12639229,0.36101168,-0.05789884,283.22433,283.2218,277.61606,277.72186,341.0,341.0,385.0,388.0,89.0,89.0,89.0,89.0,0.0,0.0,0.0,0.0,0.047731936,0.048137512,0.051557243,0.052003276,0.0,0.0,0.0,0.0,-130.5297,-17.099073,-160.71794,-100.207306,0.0,0.0,0.0,2.0,1.0,1.4187053,7.323603E-4,-0.0026521683,89.0,89.0,89.0,89.0,21.842827,21.842827,24.816736,24.816736,0.019738704,0.01938993,-4.7917297E-4,-4.7989507E-4,1179.9445,0.0,0.0,0.0,0.0,0.0,0.0,0.0,0.0,0.0,0.0,0.0,0.0,0.0,76.26441,0.14922059,11.772175,0.0023610229,0.017836813,0.0013669049,549631.75,119984.9,0.0126290815,0.011169185,7607.2866,7823.509,5547.927,5756.0483,0.30797768,0.0,0.0,0.0
125.35869,125.35869,1.699,0.0,0.0,278.43997,11422.0,100.0,0.0,-0.23007298,0.0,7.0,0.0,0.0,4000000.0,110.0,1.0,0.0,0.0,10.0,0.0,0.0,-679.1792,0.772316,-998.9102,0.12657495,0.3584326,-0.013113108,283.79895,283.78455,278.25546,278.35577,340.0,340.0,384.0,387.0,89.0,89.0,89.0,89.0,0.0,0.0,0.0,0.0,0.04812822,0.048500143,0.051535062,0.052032165,0.0,0.0,0.0,0.0,164.48643,-292.2937,59.129288,-104.47203,0.0,0.0,0.0,2.0,1.0,1.4195868,7.6852983E-4,-0.0026557446,89.0,89.0,89.0,89.0,21.842827,21.842827,24.816736,24.816736,0.01945304,0.01908798,-4.8196592E-4,-4.7559655E-4,1181.3501,0.0,0.0,0.0,0.0,0.0,0.0,0.0,0.0,0.0,0.0,0.0,0.0,0.0,76.44868,0.13665952,11.736411,-0.0036692119,0.016575068,-0.003993548,549178.44,119984.9,0.012611509,0.010434926,7760.008,8009.0947,5561.667,5781.6733,0.307518,0.0,0.0,0.0
129.23174,129.23174,1.749,0.0,0.0,279.06168,11448.0,100.0,0.0,-0.24873507,0.0,7.0,0.0,0.0,4000000.0,110.0,1.0,0.0,0.0,10.0,0.0,0.0,-675.352,0.7790405,-998.3242,0.12555304,0.34900233,-0.01963659,284.43546,284.42142,278.8844,278.97247,338.0,338.0,383.0,386.0,89.0,89.0,89.0,89.0,0.0,0.0,0.0,0.0,0.048070773,0.048367772,0.05164599,0.052064005,0.0,0.0,0.0,0.0,-176.70392,-72.419624,-34.010403,88.03008,0.0,0.0,0.0,2.0,1.0,1.4203475,6.679953E-4,-0.0023450851,89.0,89.0,89.0,89.0,21.842827,21.842827,24.816736,24.816736,0.019429615,0.01910519,-4.731983E-4,-4.752884E-4,1182.9481,0.0,0.0,0.0,0.0,0.0,0.0,0.0,0.0,0.0,0.0,0.0,0.0,0.0,76.62871,0.13109635,11.701702,0.0018142262,0.014836596,-0.0051042424,548672.4,119984.9,0.012694915,0.010855441,7729.6636,7947.4487,5643.6885,5835.462,0.3079214,0.0,0.0,0.0
133.1134,133.1134,1.799,0.0,0.0,279.6731,11472.0,100.0,0.0,-0.2820642,0.0,7.0,0.0,0.0,4000000.0,110.0,1.0,0.0,0.0,10.0,0.0,0.0,-671.51587,0.7851261,-997.7402,0.12803954,0.34564805,-0.027081992,285.03485,285.02414,279.49002,279.5878,337.0,337.0,381.0,384.0,89.0,89.0,89.0,89.0,0.0,0.0,0.0,0.0,0.04805501,0.048406675,0.051672477,0.052134883,0.0,0.0,0.0,0.0,334.84692,301.78873,32.13286,-4.304945,0.0,0.0,0.0,2.0,1.0,1.4211347,7.036375E-4,-0.002272129,89.0,89.0,89.0,89.0,21.842827,21.842827,24.816736,24.816736,0.01938303,0.019033002,-4.7111418E-4,-4.7501965E-4,1184.395,0.0,0.0,0.0,0.0,0.0,0.0,0.0,0.0,0.0,0.0,0.0,0.0,0.0,76.806114,0.11466443,11.665031,-4.9856014E-4,0.01656747,0.0024447856,548194.2,119984.91,0.012497461,0.010835767,7736.871,7970.0566,5662.241,5872.185,0.30779076,0.0,0.0,0.0
137.00356,137.00356,1.849,0.0,0.0,280.2789,11494.0,100.0,0.0,-0.23019727,0.0,7.0,0.0,0.0,4000000.0,110.0,1.0,0.0,0.0,10.0,0.0,0.0,-667.6709,0.7907947,-997.1578,0.12100203,0.34133103,0.010183916,285.58328,285.57318,280.102,280.18842,335.0,335.0,380.0,383.0,89.0,89.0,89.0,89.0,0.0,0.0,0.0,0.0,0.048373748,0.04866005,0.051752884,0.05215653,0.0,0.0,0.0,0.0,-172.50626,-72.32574,41.158493,73.70709,0.0,0.0,0.0,2.0,1.0,1.4219028,6.263255E-4,-0.0023742914,89.0,89.0,89.0,89.0,21.842827,21.842827,24.816736,24.816736,0.019107804,0.01880349,-4.7199792E-4,-4.7192533E-4,1185.7195,0.0,0.0,0.0,0.0,0.0,0.0,0.0,0.0,0.0,0.0,0.0,0.0,0.0,76.98144,0.114578396,11.631229,-2.8123998E-4,0.014472572,-3.0951248E-4,547756.8,119984.9,0.012219597,0.01017457,7881.3975,8098.873,5705.691,5886.3564,0.30732727,0.0,0.0,0.0
140.90175,140.90175,1.899,0.0,0.0,280.87198,11518.0,100.0,0.0,-0.43382406,0.0,7.0,0.0,0.0,4000000.0,110.0,1.0,0.0,0.0,10.0,0.0,0.0,-663.81726,0.7967176,-996.5773,0.1448959,0.33352178,0.0060868985,286.17465,286.1689,280.6808,280.79678,334.0,334.0,379.0,381.0,89.0,89.0,89.0,89.0,0.0,0.0,0.0,0.0,0.048292752,0.04866572,0.051783063,0.052260302,0.0,0.0,0.0,0.0,-64.225494,-36.35734,-51.096073,-5.498528,0.0,0.0,0.0,2.0,1.0,1.4227374,7.569372E-4,-0.0022816658,89.0,89.0,89.0,89.0,21.842827,21.842827,24.816736,24.816736,0.019104417,0.018707804,-4.5753314E-4,-4.7933345E-4,1187.1716,0.0,0.0,0.0,0.0,0.0,0.0,0.0,0.0,0.0,0.0,0.0,0.0,0.0,77.1542,0.12080399,11.590304,0.004661176,0.020377515,-0.0011226414,547284.9,119984.91,0.012119783,0.01022176,7853.4443,8112.125,5725.5093,5948.161,0.3073187,0.0,0.0,0.0
144.80817,144.80817,1.949,0.0,0.0,281.45377,11542.0,100.0,0.0,-0.67952245,0.0,7.0,0.0,0.0,4000000.0,110.0,1.0,0.0,0.0,10.0,0.0,0.0,-659.955,0.8026958,-995.99927,0.19639182,0.3284905,-0.01644966,286.75104,286.78787,281.22147,281.41855,333.0,333.0,377.0,380.0,89.0,89.0,89.0,89.0,0.0,0.0,0.0,0.0,0.04817147,0.048696157,0.051684298,0.052346937,0.0,0.0,0.0,0.0,8.904933,31.408665,-67.87329,-30.738113,0.0,0.0,0.0,2.0,1.0,1.4241118,0.0010308849,-0.0022560358,89.0,89.0,89.0,89.0,21.842827,21.842827,24.816736,24.816736,0.019189315,0.018670361,-4.508681E-4,-4.814559E-4,1188.6122,0.0,0.0,0.0,0.0,0.0,0.0,0.0,0.0,0.0,0.0,0.0,0.0,0.0,77.32695,0.116880305,11.527857,0.006241237,0.034533042,8.1745355E-4,546809.56,119984.9,0.012181044,0.010325603,7783.8936,8138.12,5653.8164,5966.545,0.30738544,0.0,0.0,0.0
148.72266,148.72266,1.999,0.0,0.0,282.02783,11564.0,100.0,0.0,-0.64138144,0.0,7.0,0.0,0.0,4000000.0,110.0,1.0,0.0,0.0,10.0,0.0,0.0,-656.08405,0.8083818,-995.4251,0.23724999,0.32388824,-0.0060645104,287.30267,287.35184,281.77274,282.0155,331.0,331.0,376.0,379.0,89.0,89.0,89.0,89.0,0.0,0.0,0.0,0.0,0.048213955,0.0488241,0.051619004,0.0524507,0.0,0.0,0.0,0.0,68.46337,12.968487,54.30131,-1.5556811,0.0,0.0,0.0,2.0,1.0,1.4260697,0.0012378189,-0.002231717,89.0,89.0,89.0,89.0,21.842827,21.842827,24.816736,24.816736,0.019137008,0.018532956,-4.60975E-4,-4.673929E-4,1189.911,0.0,0.0,0.0,0.0,0.0,0.0,0.0,0.0,0.0,0.0,0.0,0.0,0.0,77.50091,0.11193497,11.442008,0.0026423235,0.041266672,-4.2539238E-4,546365.7,119984.9,0.012127464,0.010199825,7786.869,8222.891,5652.244,6035.0483,0.30730152,0.0,0.0,0.0
152.64505,152.64505,2.049,0.0,0.0,282.5924,11586.0,100.0,0.0,-0.406088,0.0,7.0,0.0,0.0,4000000.0,110.0,1.0,0.0,0.0,10.0,0.0,0.0,-652.2044,0.8139741,-994.8555,0.24403183,0.31872988,0.0038064946,287.86566,287.88257,282.35522,282.5627,330.0,330.0,375.0,377.0,89.0,89.0,89.0,89.0,0.0,0.0,0.0,0.0,0.04824565,0.04892405,0.051671498,0.05253432,0.0,0.0,0.0,0.0,23.657082,118.33906,36.196407,-24.475155,0.0,0.0,0.0,2.0,1.0,1.4279916,0.0012532148,-0.0022152662,89.0,89.0,89.0,89.0,21.842827,21.842827,24.816736,24.816736,0.019027285,0.018451244,-4.72835E-4,-4.5233202E-4,1191.225,0.0,0.0,0.0,0.0,0.0,0.0,0.0,0.0,0.0,0.0,0.0,0.0,0.0,77.67359,0.11249053,11.345455,-0.0028145635,0.034079857,1.490259E-4,545930.4,119984.91,0.011893959,0.010017146,7804.0605,8282.186,5699.7104,6089.484,0.3071766,0.0,0.0,0.0
156.57516,156.57516,2.099,0.0,0.0,283.14908,11608.0,100.0,0.0,-0.16778058,0.0,7.0,0.0,0.0,4000000.0,110.0,1.0,0.0,0.0,10.0,0.0,0.0,-648.3163,0.81973624,-994.29065,0.20882942,0.31426135,0.0112553,288.42465,288.39166,282.95844,283.07443,328.0,328.0,373.0,376.0,89.0,89.0,89.0,89.0,0.0,0.0,0.0,0.0,0.048379533,0.04897279,0.05182715,0.05246714,0.0,0.0,0.0,0.0,-72.04412,66.76017,-17.850092,-17.005203,0.0,0.0,0.0,2.0,1.0,1.4292803,9.273073E-4,-0.0022400618,89.0,89.0,89.0,89.0,21.842827,21.842827,24.816736,24.816736,0.018842034,0.018394014,-4.7497725E-4,-4.4779238E-4,1192.5577,0.0,0.0,0.0,0.0,0.0,0.0,0.0,0.0,0.0,0.0,0.0,0.0,0.0,77.84237,0.11792484,11.259248,-0.007039108,0.018164843,-0.0010424594,545505.4,119984.91,0.011711478,0.009748362,7871.4053,8314.815,5774.5186,6050.1094,0.30700016,0.0,0.0,0.0
160.51305,160.51305,2.149,0.0,0.0,283.69662,11630.0,100.0,0.0,-0.077225424,0.0,7.0,0.0,0.0,4000000.0,110.0,1.0,0.0,0.0,10.0,0.0,0.0,-644.41986,0.8257769,-993.7294,0.15382545,0.30845517,-0.0023755818,288.98334,288.92877,283.54507,283.58456,327.0,327.0,372.0,375.0,89.0,89.0,89.0,89.0,0.0,0.0,0.0,0.0,0.048414867,0.048860822,0.051947277,0.052375987,0.0,0.0,0.0,0.0,-42.03021,-107.46269,-60.48381,10.715425,0.0,0.0,0.0,2.0,1.0,1.4298156,6.5117795E-4,-0.0022287369,89.0,89.0,89.0,89.0,21.842827,21.842827,24.816736,24.816736,0.018719302,0.018437196,-4.6519496E-4,-4.53039E-4,1193.8638,0.0,0.0,0.0,0.0,0.0,0.0,0.0,0.0,0.0,0.0,0.0,0.0,0.0,78.00492,0.12151554,11.197546,-0.0034498381,0.005800652,-8.837416E-4,545069.75,119984.91,0.0117525635,0.009860094,7914.2227,8232.568,5819.273,6004.2773,0.30704498,0.0,0.0,0.0
164.45839,164.45839,2.199,0.0,0.0,284.23682,11651.0,100.0,0.0,-0.12637116,0.0,7.0,0.0,0.0,4000000.0,110.0,1.0,0.0,0.0,10.0,0.0,0.0,-640.51556,0.8317376,-993.17065,0.11065801,0.30463153,-0.010585909,289.50763,289.4559,284.0929,284.11758,326.0,326.0,371.0,373.0,89.0,89.0,89.0,89.0,0.0,0.0,0.0,0.0,0.04847956,0.048782878,0.051995743,0.052333415,0.0,0.0,0.0,0.0,68.248795,103.372314,-32.038982,4.1037793,0.0,0.0,0.0,2.0,1.0,1.4300177,5.165459E-4,-0.002246499,89.0,89.0,89.0,89.0,21.842827,21.842827,24.816736,24.816736,0.01862267,0.018370911,-4.5567082E-4,-4.5968225E-4,1195.1019,0.0,0.0,0.0,0.0,0.0,0.0,0.0,0.0,0.0,0.0,0.0,0.0,0.0,78.16207,0.116969176,11.158725,-0.002246144,0.004082655,9.1532076E-4,544651.56,119984.9,0.011786715,0.009892096,7960.1455,8188.822,5844.876,5993.5464,0.30702686,0.0,0.0,0.0
168.40752,168.40752,2.249,0.0,0.0,283.85297,11384.0,100.0,0.0,-0.24444784,0.0,7.0,0.0,0.0,4000000.0,110.0,1.0,0.0,0.0,10.0,0.0,0.0,-636.6071,0.8377694,-992.614,0.098811254,-0.66422814,0.05838282,283.82,283.84158,283.84274,283.89636,324.0,324.0,369.0,372.0,89.0,89.0,89.0,89.0,0.0,0.0,0.0,0.0,0.047356404,0.047617394,0.052309427,0.052656565,0.0,0.0,0.0,0.0,-1335.8473,-1152.3842,685.86755,731.0226,0.0,0.0,0.0,2.0,1.0,1.4303546,5.318044E-4,-0.0015317202,89.0,89.0,89.0,89.0,21.842827,21.842827,24.816736,24.816736,1.2031952E-6,-1.1191288E-4,5.435732E-5,3.507351E-5,1179.0487,0.0,0.0,0.0,0.0,0.0,0.0,0.0,0.0,0.0,0.0,0.0,0.0,0.0,78.06345,0.13162914,11.094805,0.0067130784,0.009740557,-0.038021095,549938.2,0.0,0.011138535,0.011109228,7926.785,8107.4097,6227.1133,6386.58,0.30712986,0.0,0.0,0.0
172.34404,172.34404,2.299,0.0,0.0,283.1229,10913.0,100.0,0.0,-0.25033125,0.0,8.0,0.0,0.0,4000000.0,110.0,1.0,0.0,0.0,10.0,0.0,0.0,-632.7109,0.8447999,-992.0616,0.09885683,-0.051877167,-0.048471835,288.09677,288.11795,282.97348,283.05997,323.0,323.0,368.0,371.0,89.0,89.0,89.0,89.0,0.0,0.0,0.0,0.0,0.04551331,0.046078216,0.05266392,0.05309673,0.0,0.0,0.0,0.0,1854.8143,1705.335,-924.12823,-960.7805,0.0,0.0,0.0,2.0,1.0,1.4310005,6.681276E-4,-5.8579445E-4,89.0,89.0,89.0,89.0,21.842827,21.842827,24.816736,24.816736,0.0155867925,0.015403297,-3.0495916E-4,-3.1327395E-4,1126.5901,0.0,0.0,0.0,0.0,0.0,0.0,0.0,0.0,0.0,0.0,0.0,0.0,0.0,77.86949,0.13713378,11.018104,-3.8615626E-4,0.014880929,0.0150693115,548149.2,119984.89,0.01131021,0.013666116,7548.142,7693.495,6235.624,6435.8525,0.3083496,0.0,0.0,0.0
176.28194,176.28194,2.349,0.0,0.0,283.77048,10538.0,100.0,0.0,-0.22617544,0.0,8.0,0.0,0.0,4000000.0,110.0,1.0,0.0,0.0,10.0,0.0,0.0,-628.81287,0.85016453,-991.51135,0.10395223,0.38920736,-0.09796592,289.49594,289.50586,283.57877,283.66727,322.0,322.0,367.0,369.0,89.0,89.0,89.0,89.0,0.0,0.0,0.0,0.0,0.047928616,0.04853446,0.051794935,0.05225169,0.0,0.0,0.0,0.0,386.98904,360.2609,350.02823,334.0557,0.0,0.0,0.0,2.0,1.0,1.4317518,6.9617486E-4,-0.0022822618,89.0,89.0,89.0,89.0,21.842827,21.842827,24.816736,24.816736,0.020395033,0.020153156,-5.019912E-4,-5.020065E-4,1074.9124,0.0,0.0,0.0,0.0,0.0,0.0,0.0,0.0,0.0,0.0,0.0,0.0,0.0,78.05466,0.08220765,10.993904,-0.0035811362,0.014867434,0.028612802,541616.5,119984.9,0.012526926,0.010684644,7915.086,8056.827,5540.6133,5748.786,0.30778027,0.0,0.0,0.0
180.22955,180.22955,2.399,0.0,0.0,284.45557,10242.0,100.0,0.0,-0.10476986,0.0,8.0,0.0,0.0,4000000.0,110.0,1.0,0.0,0.0,10.0,0.0,0.0,-624.905,0.85452,-990.9622,0.091591194,0.38147193,0.111174285,289.6943,289.6933,284.28357,284.34573,320.0,320.0,365.0,368.0,89.0,89.0,89.0,89.0,0.0,0.0,0.0,0.0,0.04931722,0.04948755,0.051994108,0.05228875,0.0,0.0,0.0,0.0,-1252.4304,-740.1957,188.23738,320.8458,0.0,0.0,0.0,2.0,1.0,1.4323863,4.5015858E-4,-0.0027520657,89.0,89.0,89.0,89.0,21.842827,21.842827,24.816736,24.816736,0.019261474,0.019072838,-5.069036E-4,-4.966757E-4,1018.8504,0.0,0.0,0.0,0.0,0.0,0.0,0.0,0.0,0.0,0.0,0.0,0.0,0.0,78.24973,0.10665087,10.9730015,-0.0012682563,0.009976717,-0.005204765,528205.2,119984.9,0.011179507,0.008247768,8340.087,8493.701,5925.2046,6054.629,0.30595875,0.0,0.0,0.0
184.18546,184.18546,2.449,0.0,0.0,284.94992,10253.0,100.0,0.0,-0.087793946,0.0,8.0,0.0,0.0,4000000.0,110.0,1.0,0.0,0.0,10.0,0.0,0.0,-620.98865,0.8611077,-990.4142,0.080611445,0.2696606,0.031872675,290.0287,290.01282,284.80276,284.84454,319.0,319.0,364.0,367.0,89.0,89.0,89.0,89.0,0.0,0.0,0.0,0.0,0.048656728,0.048873175,0.052228063,0.05253064,0.0,0.0,0.0,0.0,59.933964,23.348635,-253.60283,-271.15787,0.0,0.0,0.0,2.0,1.0,1.4327861,4.4520586E-4,-0.002297759,89.0,89.0,89.0,89.0,21.842827,21.842827,24.816736,24.816736,0.017895969,0.017720928,-4.434317E-4,-4.380164E-4,1021.0376,0.0,0.0,0.0,0.0,0.0,0.0,0.0,0.0,0.0,0.0,0.0,0.0,0.0,78.39151,0.14480796,10.950309,-9.1729744E-5,0.0067120628,-0.0065298565,528771.2,119984.914,0.010963071,0.009229752,8082.9,8236.785,6001.249,6138.5835,0.30622673,0.0,0.0,0.0
188.14789,188.14789,2.499,0.0,0.0,285.42648,10272.0,100.0,0.0,-0.090873614,0.0,8.0,0.0,0.0,4000000.0,110.0,1.0,0.0,0.0,10.0,0.0,0.0,-617.0655,0.86812407,-989.86707,0.06740895,0.27022249,-0.053177126,290.5569,290.54187,285.28293,285.316,318.0,318.0,363.0,366.0,89.0,89.0,89.0,89.0,0.0,0.0,0.0,0.0,0.048412066,0.048579488,0.052096397,0.052332487,0.0,0.0,0.0,0.0,160.22176,189.04207,-5.0827928,8.770837,0.0,0.0,0.0,2.0,1.0,1.4330827,3.5987791E-4,-0.0022425652,89.0,89.0,89.0,89.0,21.842827,21.842827,24.816736,24.816736,0.018060278,0.01791133,-4.404537E-4,-4.398981E-4,1024.7102,0.0,0.0,0.0,0.0,0.0,0.0,0.0,0.0,0.0,0.0,0.0,0.0,0.0,78.527534,0.13053204,10.933527,-0.0014585984,0.0054540336,2.3475866E-4,529691.56,119984.91,0.011707066,0.010032766,7961.1396,8085.4375,5846.7456,5949.392,0.30699158,0.0,0.0,0.0
192.11736,192.11736,2.549,0.0,0.0,285.90347,10288.0,100.0,0.0,-0.102657266,0.0,8.0,0.0,0.0,4000000.0,110.0,1.0,0.0,0.0,10.0,0.0,0.0,-613.1355,0.8740202,-989.3209,0.058804628,0.27001628,-0.028584506,291.01163,291.00153,285.75955,285.79245,316.0,316.0,362.0,364.0,89.0,89.0,89.0,89.0,0.0,0.0,0.0,0.0,0.048575252,0.048725493,0.052088648,0.05228981,0.0,0.0,0.0,0.0,177.066,175.12141,91.6913,100.27437,0.0,0.0,0.0,2.0,1.0,1.4333518,3.2565722E-4,-0.002262473,89.0,89.0,89.0,89.0,21.842827,21.842827,24.816736,24.816736,0.017965483,0.017831204,-4.4016103E-4,-4.4215427E-4,1027.8541,0.0,0.0,0.0,0.0,0.0,0.0,0.0,0.0,0.0,0.0,0.0,0.0,0.0,78.66296,0.10965264,10.921894,-4.090468E-4,0.005551146,6.43914E-4,530490.44,119984.92,0.011598953,0.009735544,8038.2207,8147.0713,5903.3,5992.999,0.30679512,0.0,0.0,0.0
196.09343,196.09343,2.599,0.0,0.0,286.37692,10304.0,100.0,0.0,-0.10645238,0.0,8.0,0.0,0.0,4000000.0,110.0,1.0,0.0,0.0,10.0,0.0,0.0,-609.1989,0.87949604,-988.7749,0.054944366,0.26693657,0.015615865,291.44788,291.44482,286.2301,286.26883,315.0,315.0,360.0,363.0,89.0,89.0,89.0,89.0,0.0,0.0,0.0,0.0,0.048797417,0.04894121,0.052211918,0.05240757,0.0,0.0,0.0,0.0,-109.86326,-130.16759,-16.079834,-19.539898,0.0,0.0,0.0,2.0,1.0,1.4336584,3.2411565E-4,-0.0022808313,89.0,89.0,89.0,89.0,21.842827,21.842827,24.816736,24.816736,0.017808774,0.017679859,-4.4075827E-4,-4.4104026E-4,1030.9451,0.0,0.0,0.0,0.0,0.0,0.0,0.0,0.0,0.0,0.0,0.0,0.0,0.0,78.797066,0.1120958,10.91224,-3.877069E-4,0.0064952155,3.572489E-5,531259.5,119984.92,0.011176564,0.009207885,8157.7656,8261.857,5993.6904,6081.87,0.30635262,0.0,0.0,0.0
200.07599,200.07599,2.649,0.0,0.0,286.84378,10320.0,100.0,0.0,-0.10056568,0.0,8.0,0.0,0.0,4000000.0,110.0,1.0,0.0,0.0,10.0,0.0,0.0,-605.25574,0.8853305,-988.2297,0.053040937,0.26329488,0.015698086,291.9164,291.91534,286.69717,286.7358,314.0,314.0,359.0,362.0,89.0,89.0,89.0,89.0,0.0,0.0,0.0,0.0,0.048813183,0.048948314,0.052274987,0.05246588,0.0,0.0,0.0,0.0,18.735228,47.04594,-6.6116414,23.898478,0.0,0.0,0.0,2.0,1.0,1.4339825,3.060129E-4,-0.002267599,89.0,89.0,89.0,89.0,21.842827,21.842827,24.816736,24.816736,0.017778207,0.01765689,-4.3955768E-4,-4.3936083E-4,1034.1382,0.0,0.0,0.0,0.0,0.0,0.0,0.0,0.0,0.0,0.0,0.0,0.0,0.0,78.92913,0.12043257,10.903806,-5.13907E-4,0.006453786,-2.2044737E-4,532078.7,119984.92,0.011064181,0.0091414675,8178.1226,8276.51,6019.8516,6107.8096,0.3062706,0.0,0.0,0.0
204.06508,204.06508,2.699,0.0,0.0,287.30554,10337.0,100.0,0.0,-0.09079902,0.0,8.0,0.0,0.0,4000000.0,110.0,1.0,0.0,0.0,10.0,0.0,0.0,-601.30597,0.89135396,-987.68475,0.05086298,0.2608557,-0.030319465,292.4063,292.40387,287.1607,287.19586,312.0,312.0,358.0,360.0,89.0,89.0,89.0,89.0,0.0,0.0,0.0,0.0,0.048702832,0.048823893,0.052223016,0.05240345,0.0,0.0,0.0,0.0,-179.07767,-170.91035,-149.5063,-151.8935,0.0,0.0,0.0,2.0,1.0,1.4342915,2.7528766E-4,-0.0022565126,89.0,89.0,89.0,89.0,21.842827,21.842827,24.816736,24.816736,0.01784407,0.017730117,-4.3872363E-4,-4.3875372E-4,1037.5013,0.0,0.0,0.0,0.0,0.0,0.0,0.0,0.0,0.0,0.0,0.0,0.0,0.0,79.05967,0.116515264,10.896191,-3.5965678E-4,0.005863179,-0.0012664743,532931.2,119984.92,0.011072608,0.0092217205,8111.021,8201.991,5935.312,6016.343,0.30629444,0.0,0.0,0.0
208.06075,208.06075,2.749,0.0,0.0,287.7662,10353.0,100.0,0.0,-0.07145707,0.0,8.0,0.0,0.0,4000000.0,110.0,1.0,0.0,0.0,10.0,0.0,0.0,-597.3496,0.8969031,-987.13983,0.046574086,0.26060382,-0.008284699,292.8572,292.85275,287.62344,287.65396,311.0,311.0,356.0,359.0,89.0,89.0,89.0,89.0,0.0,0.0,0.0,0.0,0.048806008,0.048925616,0.05226618,0.05242718,0.0,0.0,0.0,0.0,15.784793,-7.87229,21.135805,14.711916,0.0,0.0,0.0,2.0,1.0,1.4345665,2.5666534E-4,-0.00221169,89.0,89.0,89.0,89.0,21.842827,21.842827,24.816736,24.816736,0.017779091,0.017673934,-4.401362E-4,-4.381642E-4,1040.6393,0.0,0.0,0.0,0.0,0.0,0.0,0.0,0.0,0.0,0.0,0.0,0.0,0.0,79.189705,0.10814873,10.890018,-3.832859E-4,0.00500981,-8.467081E-4,533716.94,119984.92,0.010718064,0.0088501675,8166.7046,8255.098,6013.7314,6085.163,0.3059044,0.0,0.0,0.0
212.06293,212.06293,2.799,0.0,0.0,288.22327,10370.0,100.0,0.0,-0.039885655,0.0,8.0,0.0,0.0,4000000.0,110.0,1.0,0.0,0.0,10.0,0.0,0.0,-593.38666,0.90228933,-986.59546,0.039000265,0.2577866,-0.005914656,293.31528,293.30945,288.0852,288.10693,310.0,310.0,355.0,358.0,89.0,89.0,89.0,89.0,0.0,0.0,0.0,0.0,0.048842892,0.048941866,0.0523141,0.05245456,0.0,0.0,0.0,0.0,-56.608013,-91.27556,-5.0827856,-27.331705,0.0,0.0,0.0,2.0,1.0,1.4347868,2.3377716E-4,-0.0021144152,89.0,89.0,89.0,89.0,21.842827,21.842827,24.816736,24.816736,0.017732972,0.01765122,-4.4013787E-4,-4.3656942E-4,1043.907,0.0,0.0,0.0,0.0,0.0,0.0,0.0,0.0,0.0,0.0,0.0,0.0,0.0,79.31834,0.10686109,10.88655,-5.8667583E-4,0.0034725326,-0.0030564992,534515.2,119984.91,0.010493922,0.008627099,8194.983,8268.848,6033.869,6095.997,0.30567455,0.0,0.0,0.0
216.07127,216.07127,2.849,0.0,0.0,288.6736,10386.0,100.0,0.0,-0.03487601,0.0,8.0,0.0,0.0,4000000.0,110.0,1.0,0.0,0.0,10.0,0.0,0.0,-589.4174,0.90784365,-986.05164,0.03264682,0.25339618,-0.021813314,293.7779,293.77133,288.53912,288.5546,308.0,308.0,354.0,357.0,89.0,89.0,89.0,89.0,0.0,0.0,0.0,0.0,0.048840016,0.04891861,0.052332513,0.052456886,0.0,0.0,0.0,0.0,-178.00478,-165.29109,-96.72045,-96.03649,0.0,0.0,0.0,2.0,1.0,1.4349318,1.9465327E-4,-0.002005577,89.0,89.0,89.0,89.0,21.842827,21.842827,24.816736,24.816736,0.017731318,0.017665593,-4.3716733E-4,-4.3538387E-4,1047.0942,0.0,0.0,0.0,0.0,0.0,0.0,0.0,0.0,0.0,0.0,0.0,0.0,0.0,79.44463,0.10926657,10.886324,-3.815589E-4,0.002485346,-0.0038371868,535321.25,119984.92,0.01089125,0.008991142,8190.753,8249.862,6007.511,6062.952,0.30604267,0.0,0.0,0.0
220.086,220.086,2.899,0.0,0.0,289.12042,10403.0,100.0,0.0,-0.042615008,0.0,8.0,0.0,0.0,4000000.0,110.0,1.0,0.0,0.0,10.0,0.0,0.0,-585.4419,0.91248316,-985.50726,0.027605146,0.25389326,-0.07848675,294.26544,294.2601,288.9866,289.00012,307.0,307.0,353.0,355.0,89.0,89.0,89.0,89.0,0.0,0.0,0.0,0.0,0.048610438,0.048673097,0.052221544,0.052322667,0.0,0.0,0.0,0.0,696.8646,702.71185,294.3992,298.73102,0.0,0.0,0.0,2.0,1.0,1.4350439,1.484403E-4,-0.0017807484,89.0,89.0,89.0,89.0,21.842827,21.842827,24.816736,24.816736,0.01785943,0.017801939,-4.3612E-4,-4.367213E-4,1050.4739,0.0,0.0,0.0,0.0,0.0,0.0,0.0,0.0,0.0,0.0,0.0,0.0,0.0,79.56958,0.07460975,10.888966,-2.7924415E-4,0.0022676392,-0.0033129626,536171.44,119984.92,0.010894512,0.009136885,8093.39,8141.0186,5965.5303,6009.919,0.30609894,0.0,0.0,0.0
224.10703,224.10703,2.949,0.0,0.0,289.5689,10417.0,100.0,0.0,-0.06831093,0.0,8.0,0.0,0.0,4000000.0,110.0,1.0,0.0,0.0,10.0,0.0,0.0,-581.4601,0.91570604,-984.96234,0.02819039,0.25328425,-0.005905598,294.66132,294.66074,289.43106,289.45163,306.0,306.0,351.0,354.0,89.0,89.0,89.0,89.0,0.0,0.0,0.0,0.0,0.048969496,0.049043454,0.05234614,0.052444816,0.0,0.0,0.0,0.0,-134.48595,-143.2702,-5.5655904,3.030896,0.0,0.0,0.0,2.0,1.0,1.4351878,1.4513198E-4,-0.001693368,89.0,89.0,89.0,89.0,21.842827,21.842827,24.816736,24.816736,0.017663607,0.017598353,-4.3615195E-4,-4.3835852E-4,1053.2557,0.0,0.0,0.0,0.0,0.0,0.0,0.0,0.0,0.0,0.0,0.0,0.0,0.0,79.6949,0.060651843,10.892132,4.5003317E-4,0.0035347356,-0.0021217333,536868.8,119984.91,0.010384257,0.008356634,8250.827,8301.676,6074.4053,6119.289,0.30546284,0.0,0.0,0.0
228.13428,228.13428,2.999,0.0,0.0,290.01044,10433.0,100.0,0.0,-0.058478698,0.0,8.0,0.0,0.0,4000000.0,110.0,1.0,0.0,0.0,10.0,0.0,0.0,-577.47205,0.9187906,-984.4174,0.027647234,0.24839605,0.014015667,295.09692,295.0979,289.87292,289.89462,304.0,304.0,350.0,353.0,89.0,89.0,89.0,89.0,0.0,0.0,0.0,0.0,0.049042907,0.04910567,0.052441224,0.052531086,0.0,0.0,0.0,0.0,291.0867,291.04648,100.16709,96.827736,0.0,0.0,0.0,2.0,1.0,1.4353683,1.4070261E-4,-0.0014730692,89.0,89.0,89.0,89.0,21.842827,21.842827,24.816736,24.816736,0.01759685,0.017535018,-4.3475113E-4,-4.3514767E-4,1056.3702,0.0,0.0,0.0,0.0,0.0,0.0,0.0,0.0,0.0,0.0,0.0,0.0,0.0,79.81824,0.06350969,10.89541,9.748513E-4,0.0036610928,-0.005178654,537630.56,119984.9,0.010442278,0.008422474,8309.853,8358.853,6138.9155,6178.6475,0.30551052,0.0,0.0,0.0
232.16762,232.16762,3.049,0.0,0.0,290.44366,10451.0,100.0,0.0,-0.043393243,0.0,8.0,0.0,0.0,4000000.0,110.0,1.0,0.0,0.0,10.0,0.0,0.0,-573.4779,0.9215291,-983.8725,0.027558383,0.24445105,-0.10208458,295.60806,295.60742,290.30624,290.328,303.0,303.0,349.0,351.0,89.0,89.0,89.0,89.0,0.0,0.0,0.0,0.0,0.048622802,0.04869934,0.0522809,0.0523852,0.0,0.0,0.0,0.0,-285.8966,-297.24237,-167.74535,-177.84386,0.0,0.0,0.0,2.0,1.0,1.4355562,1.5878565E-4,-0.0011582375,89.0,89.0,89.0,89.0,21.842827,21.842827,24.816736,24.816736,0.017848736,0.017780976,-4.341257E-4,-4.3260714E-4,1059.9388,0.0,0.0,0.0,0.0,0.0,0.0,0.0,0.0,0.0,0.0,0.0,0.0,0.0,79.93938,0.03731158,10.897835,6.33284E-4,0.0035847647,-0.0063137603,538517.7,119984.9,0.010894484,0.009157623,8069.3906,8123.3354,5933.8022,5981.532,0.3061304,0.0,0.0,0.0
236.20697,236.20697,3.099,0.0,0.0,290.87994,10464.0,100.0,0.0,-0.048970338,0.0,8.0,0.0,0.0,4000000.0,110.0,1.0,0.0,0.0,10.0,0.0,0.0,-569.4777,0.9224041,-983.3276,0.026470497,0.24770011,-0.028624265,295.99268,295.99048,290.74377,290.75934,302.0,302.0,348.0,350.0,89.0,89.0,89.0,89.0,0.0,0.0,0.0,0.0,0.04897296,0.049027015,0.052400246,0.052485317,0.0,0.0,0.0,0.0,173.00244,220.79944,28.686232,50.036613,0.0,0.0,0.0,2.0,1.0,1.4356976,1.2877113E-4,-0.0011110306,89.0,89.0,89.0,89.0,21.842827,21.842827,24.816736,24.816736,0.017659074,0.017605852,-4.3543414E-4,-4.3647233E-4,1062.5826,0.0,0.0,0.0,0.0,0.0,0.0,0.0,0.0,0.0,0.0,0.0,0.0,0.0,80.06117,0.0070520504,10.9016285,-2.7356273E-4,0.0026301206,0.0026883052,539190.2,119984.9,0.010159842,0.00833606,8246.089,8290.266,6118.4033,6156.665,0.30535126,0.0,0.0,0.0
240.25244,240.25244,3.149,0.0,0.0,291.3134,10479.0,100.0,0.0,-0.049421024,0.0,8.0,0.0,0.0,4000000.0,110.0,1.0,0.0,0.0,10.0,0.0,0.0,-565.47144,0.92287964,-982.78265,0.025469877,0.24340697,0.013294773,296.39426,296.3936,291.1777,291.19568,301.0,301.0,346.0,349.0,89.0,89.0,89.0,89.0,0.0,0.0,0.0,0.0,0.049174644,0.04924174,0.05245862,0.052553207,0.0,0.0,0.0,0.0,-409.98898,-405.63043,-57.868652,-50.009777,0.0,0.0,0.0,2.0,1.0,1.4358344,1.3422378E-4,-9.87649E-4,89.0,89.0,89.0,89.0,21.842827,21.842827,24.816736,24.816736,0.01749369,0.017437572,-4.345223E-4,-4.3491714E-4,1065.4939,0.0,0.0,0.0,0.0,0.0,0.0,0.0,0.0,0.0,0.0,0.0,0.0,0.0,80.182175,0.012703125,10.905384,0.0010798185,0.0030154493,-0.008810686,539893.56,119984.914,0.01000073,0.007723821,8370.816,8418.48,6118.603,6161.9434,0.30490112,0.0,0.0,0.0
244.30286,244.30286,3.199,0.0,0.0,291.7344,10496.0,100.0,0.0,-0.07171394,0.0,8.0,0.0,1.0,4000000.0,110.0,1.0,0.0,0.0,10.0,0.0,0.0,-561.4592,0.9235836,-982.23773,0.028550858,0.23648897,-0.06326155,296.88675,296.888,291.5963,291.62012,299.0,299.0,345.0,348.0,89.0,89.0,89.0,89.0,0.0,0.0,0.0,0.0,0.04880366,0.048875734,0.05245657,0.05255448,0.0,0.0,0.0,0.0,-41.037766,-34.52001,-72.84879,-62.455235,0.0,0.0,0.0,2.0,1.0,1.4360126,1.3910224E-4,-5.197525E-4,89.0,89.0,89.0,89.0,21.842827,21.842827,24.816736,24.816736,0.01771971,0.017650897,-4.2976032E-4,-4.3156228E-4,1068.9181,0.0,0.0,0.0,0.0,0.0,0.0,0.0,0.0,0.0,0.0,0.0,0.0,0.0,80.2999,0.0048292615,10.907634,0.0012087894,0.0040822346,-0.0065891896,540751.4,119984.9,0.0106606325,0.009042266,8176.367,8227.809,6088.999,6134.044,0.3059969,0.0,0.0,0.0
248.35861,248.35861,3.249,0.0,0.0,292.15567,10510.0,100.0,0.0,0.05224981,0.0,8.0,0.0,1.0,4000000.0,110.0,1.0,0.0,0.0,10.0,0.0,0.0,-557.44116,0.9225632,-981.6922,0.014674054,0.24028914,-0.08232011,297.2997,297.2958,292.02414,292.0305,298.0,298.0,344.0,346.0,89.0,89.0,89.0,89.0,0.0,0.0,0.0,0.0,0.048865326,0.04889759,0.052386675,0.052455906,0.0,0.0,0.0,0.0,1031.2422,992.49774,247.43375,214.2146,0.0,0.0,0.0,2.0,1.0,1.4361485,8.2804785E-5,-5.2273273E-4,89.0,89.0,89.0,89.0,21.842827,21.842827,24.816736,24.816736,0.017674472,0.017650027,-4.3901248E-4,-4.2744033E-4,1071.0946,0.0,0.0,0.0,0.0,0.0,0.0,0.0,0.0,0.0,0.0,0.0,0.0,0.0,80.4172,-0.04186455,10.913341,-0.0030580955,5.6820177E-4,0.0035841512,541130.6,119984.89,0.010450514,0.008622785,8212.979,8246.718,6072.2656,6100.2256,0.30560207,0.0,0.0,0.0
252.42032,252.42032,3.299,0.0,0.0,292.59726,10525.0,100.0,0.0,0.2459541,100.0,8.0,1.0,0.0,4000000.0,110.0,1.0,0.0,0.0,10.0,0.0,0.0,-553.4172,0.92056316,-981.14606,-0.021999426,0.25772062,0.07770505,297.7134,297.69214,292.4922,292.4442,297.0,297.0,343.0,345.0,89.0,89.0,89.0,89.0,0.0,0.0,0.0,0.0,0.049179807,0.049116097,0.052552063,0.05250072,0.0,0.0,0.0,0.0,-920.10486,-867.76154,12.941665,12.9282465,0.0,0.0,0.0,2.0,1.0,1.4359381,-1.0450835E-4,-3.118515E-4,89.0,89.0,89.0,89.0,21.842827,21.842827,24.816736,24.816736,0.017410796,0.017503599,-4.552131E-4,-4.3306514E-4,1073.1189,0.0,0.0,0.0,0.0,0.0,0.0,0.0,0.0,0.0,0.0,0.0,0.0,0.0,80.53825,-0.027103392,10.933574,-0.0026214325,-0.009096636,-0.015148421,541380.7,119984.9,0.010205209,0.008086771,8363.102,8328.456,6191.9644,6162.747,0.30522156,0.0,0.0,0.0
256.48856,256.48856,3.349,0.0,0.0,293.07742,10549.0,100.0,0.0,0.22007293,100.0,8.0,1.0,0.0,4000000.0,110.0,1.0,0.0,0.0,10.0,0.0,0.0,-549.38684,0.9198212,-980.5984,-0.052556586,0.28064403,0.0023277125,298.4025,298.3755,292.98822,292.90027,296.0,295.0,342.0,344.0,89.0,89.0,89.0,89.0,0.0,0.0,0.0,0.0,0.048120104,0.047967818,0.052582838,0.052396405,0.0,0.0,0.0,0.0,214.68394,249.24417,-96.89479,-62.924618,0.0,0.0,0.0,2.0,1.0,1.435281,-2.8609266E-4,5.059242E-4,89.0,89.0,89.0,89.0,21.842827,21.842827,24.816736,24.816736,0.01801537,0.01820118,-4.563822E-4,-4.5300252E-4,1076.3998,0.0,0.0,0.0,0.0,0.0,0.0,0.0,0.0,0.0,0.0,0.0,0.0,0.0,80.66754,-0.011808977,10.972685,-3.929073E-4,-0.015087204,-0.012989964,541800.4,119984.89,0.011176527,0.010871892,7828.8374,7727.293,6147.7773,6056.54,0.30706692,0.0,0.0,0.0
260.56375,260.56375,3.399,0.0,0.0,293.6112,10574.0,100.0,0.0,-0.108067945,100.0,8.0,1.0,0.0,4000000.0,110.0,1.0,0.0,0.0,10.0,0.0,0.0,-545.34973,0.9187886,-980.04865,-0.033411082,0.31349272,-0.047549073,299.1036,299.1025,293.48596,293.46008,294.0,294.0,340.0,343.0,89.0,89.0,89.0,89.0,0.0,0.0,0.0,0.0,0.046745755,0.046565734,0.052259866,0.052101053,0.0,0.0,0.0,0.0,-442.7656,-308.49435,-58.99518,-14.242543,0.0,0.0,0.0,2.0,1.0,1.4347912,-2.2443479E-4,0.0010699034,89.0,89.0,89.0,89.0,21.842827,21.842827,24.816736,24.816736,0.018687544,0.018740518,-4.5874712E-4,-4.8527308E-4,1079.8226,0.0,0.0,0.0,0.0,0.0,0.0,0.0,0.0,0.0,0.0,0.0,0.0,0.0,80.81178,-0.03128278,11.012327,0.0045086457,-0.0031997878,-0.013052643,542238.25,119984.9,0.012556092,0.013401061,7348.5737,7300.904,5876.5835,5808.4053,0.30882168,0.0,0.0,0.0
264.64676,264.64676,3.449,0.0,0.0,294.19138,10600.0,100.0,0.0,-0.32175595,0.0,8.0,1.0,0.0,4000000.0,110.0,1.0,0.0,0.0,10.0,0.0,0.0,-541.305,0.9169016,-979.4974,0.016179195,0.33437547,-0.04252509,299.81876,299.8557,294.01303,294.0881,293.0,293.0,339.0,342.0,89.0,89.0,89.0,89.0,0.0,0.0,0.0,0.0,0.044812083,0.044829853,0.052056983,0.05207929,0.0,0.0,0.0,0.0,-199.00633,-128.9472,55.682655,99.295364,0.0,0.0,0.0,2.0,1.0,1.4351088,4.3113392E-5,0.0019809008,89.0,89.0,89.0,89.0,21.842827,21.842827,24.816736,24.816736,0.019281825,0.019148782,-4.687364E-4,-4.954229E-4,1083.3782,0.0,0.0,0.0,0.0,0.0,0.0,0.0,0.0,0.0,0.0,0.0,0.0,0.0,80.971436,-0.045562014,11.034272,0.0089933695,0.013969413,-0.017109072,542689.25,119984.9,0.013536896,0.016172925,7012.1733,7040.9785,5832.0073,5855.546,0.3106346,0.0,0.0,0.0
268.73788,268.73788,3.499,0.0,0.0,294.77228,10621.0,100.0,0.0,-0.2336067,0.0,8.0,1.0,0.0,4000000.0,110.0,1.0,0.0,0.0,10.0,0.0,0.0,-537.2521,0.91380674,-978.94586,0.05631146,0.32841036,-0.061270524,300.41342,300.456,294.57394,294.68555,292.0,292.0,338.0,340.0,89.0,89.0,89.0,89.0,0.0,0.0,0.0,0.0,0.043239124,0.04350216,0.051966514,0.052189354,0.0,0.0,0.0,0.0,599.6346,550.61725,41.73517,0.33526894,0.0,0.0,0.0,2.0,1.0,1.4360021,3.0995283E-4,0.0025286674,89.0,89.0,89.0,89.0,21.842827,21.842827,24.816736,24.816736,0.01935895,0.019155195,-4.800782E-4,-4.8028413E-4,1086.2612,0.0,0.0,0.0,0.0,0.0,0.0,0.0,0.0,0.0,0.0,0.0,0.0,0.0,81.13419,-0.07666406,11.034732,0.004738716,0.018999502,-0.0040671676,543057.56,119984.9,0.01399465,0.01793803,6937.4,7027.3867,5809.841,5920.7007,0.3116703,0.0,0.0,0.0
272.83704,272.83704,3.549,0.0,0.0,295.34854,10639.0,100.0,0.0,0.0067560496,0.0,8.0,1.0,0.0,4000000.0,110.0,1.0,0.0,0.0,10.0,0.0,0.0,-533.1911,0.9093554,-978.39435,0.059745543,0.32522145,-0.021337673,300.9502,300.9535,295.17633,295.23416,291.0,290.0,337.0,339.0,89.0,89.0,89.0,89.0,0.0,0.0,0.0,0.0,0.042990457,0.043327294,0.052017957,0.05228997,0.0,0.0,0.0,0.0,416.4129,345.97812,77.207375,18.520658,0.0,0.0,0.0,2.0,1.0,1.4367143,3.6113136E-4,0.0026214123,89.0,89.0,89.0,89.0,21.842827,21.842827,24.816736,24.816736,0.019096695,0.01894779,-4.9085077E-4,-4.6954502E-4,1088.7424,0.0,0.0,0.0,0.0,0.0,0.0,0.0,0.0,0.0,0.0,0.0,0.0,0.0,81.29677,-0.09606951,11.027016,-9.438673E-4,0.008833341,3.3306322E-4,543377.1,119984.9,0.0137312645,0.017826892,7060.121,7151.2866,5875.9,5999.967,0.3114624,0.0,0.0,0.0
276.9442,276.9442,3.599,0.0,0.0,295.91794,10658.0,100.0,0.0,0.06354944,0.0,8.0,1.0,0.0,4000000.0,110.0,1.0,0.0,0.0,10.0,0.0,0.0,-529.122,0.9045128,-977.84283,0.044337057,0.32101086,0.0076636504,301.49072,301.4643,295.77475,295.77417,289.0,289.0,335.0,338.0,89.0,89.0,89.0,89.0,0.0,0.0,0.0,0.0,0.043506354,0.04377413,0.052152444,0.052360978,0.0,0.0,0.0,0.0,-36.37075,-40.166126,-70.34093,-70.28728,0.0,0.0,0.0,2.0,1.0,1.4368739,2.7455093E-4,0.002517581,89.0,89.0,89.0,89.0,21.842827,21.842827,24.816736,24.816736,0.018864818,0.018794678,-4.854822E-4,-4.7335975E-4,1091.3384,0.0,0.0,0.0,0.0,0.0,0.0,0.0,0.0,0.0,0.0,0.0,0.0,0.0,81.456856,-0.095757715,11.023517,-0.0025890304,-7.579668E-4,0.002079813,543701.75,119984.9,0.013447966,0.017181134,7163.1035,7228.3555,5942.4287,6034.342,0.311018,0.0,0.0,0.0
