LapDistance [m],TotalDistance [m],LapTime [s],Sector1Time [s],Sector2Time [s],Speed [km/h],EngineRevs [rpm],ThrottlePercentage [%],BrakePercentage [%],Steer [%],Clutch [%],Gear [int],DRS [0/1],CanUseDRS [0/1],KERSLevel [J],EngineTemperature [C],RacePosition [int],Sector [int],InPits [int],FuelRemaining [kg],CurrentFlag [int],CurrentLapInvalid [int],X [m],Y [m],Z [m],GForceLatitudinal [G],GForceLongitudinal [G],GForceVertical [G],WheelSpeedRearLeft [km/h],WheelSpeedRearRight [km/h],WheelSpeedFrontLeft [km/h],WheelSpeedFrontRight [km/h],BrakeTemperatureRearLeft [C],BrakeTemperatureRearRight [C],BrakeTemperatureFrontLeft [C],BrakeTemperatureFrontRight [C],TyreTemperatureRearLeft [C],TyreTemperatureRearRight [C],TyreTemperatureFrontLeft [C],TyreTemperatureFrontRight [C],TyreWearRearLeft [%],TyreWearRearRight [%],TyreWearFrontLeft [%],TyreWearFrontRight [%],SuspensionPositionRearLeft [m],SuspensionPositionRearRight [m],SuspensionPositionFrontLeft [m],SuspensionPositionFrontRight [m],SuspensionVelocityRearLeft [m/s],SuspensionVelocityRearRight [m/s],SuspensionVelocityFrontLeft [m/s],SuspensionVelocityFrontRight [m/s],SuspensionAccelerationRearLeft [m/s^2],SuspensionAccelerationRearRight [m/s^2],SuspensionAccelerationFrontLeft [m/s^2],SuspensionAccelerationFrontRight [m/s^2],MGUKHarvested [J],MGUHHarvested [J],ERSSpent [J],ERSMode [int],FuelMixMode [int],Yaw [rad],Roll [rad],Pitch [rad],TyreCarcassTemperatureRearLeft [C],TyreCarcassTemperatureRearRight [C],TyreCarcassTemperatureFrontLeft [C],TyreCarcassTemperatureFrontRight [C],TyrePressureRearLeft [PSI],TyrePressureRearRight [PSI],TyrePressureFrontLeft [PSI],TyrePressureFrontRight [PSI],WheelSlipRearLeft [%],WheelSlipRearRight [%],WheelSlipFrontLeft [%],WheelSlipFrontRight [%],Torque [Nm],Handbrake [%],RearLeftInside [C],RearLeftMiddle [C],RearLeftOutside [C],RearRightInside [C],RearRightMiddle [C],RearRightOutside [C],FrontLeftInside [C],FrontLeftMiddle [C],FrontLeftOutside [C],FrontRightInside [C],FrontRightMiddle [C],FrontRightOutside [C],WoldSpeedX [km/h],WoldSpeedY [km/h],WoldSpeedZ [km/h],LocalAngularVelocityX [rad/s],LocalAngularVelocityY [rad/s],LocalAngularVelocityZ [rad/s],IcePower [W],MgukPower [W],FrontRideHeight [m],RearRideHeight [m],LoadRearLeft [N],LoadRearRight [N],LoadFrontLeft [N],LoadFrontRight [N],Extra1 [m],Extra2 [],Extra3 [],Extra4 []
1.9966056,1.9966056,0.016,0.0,0.0,253.091,10606.0,100.0,0.0,0.9050369,0.0,7.0,0.0,0.0,4000000.0,110.0,1.0,0.0,0.0,10.0,0.0,0.0,-800.88007,0.18825917,-1017.5099,-0.50731033,0.6434666,-0.08183253,259.28784,259.33694,253.09404,252.74643,413.0,413.0,455.0,454.0,89.0,89.0,89.0,89.0,0.0,0.0,0.0,0.0,0.04515575,0.042376008,0.052260805,0.050063316,52.281616,66.22284,-24.372337,-14.232247,467.3213,176.44888,383.9448,278.25226,0.0,0.0,0.0,2.0,1.0,1.421976,-0.0028846213,-0.005692601,89.0,89.0,89.0,89.0,21.842827,21.842827,24.816736,24.816736,0.024002269,0.0253747,-6.007901E-4,-6.528311E-4,1084.2096,0.0,0.0,0.0,0.0,0.0,0.0,0.0,0.0,0.0,0.0,0.0,0.0,0.0,69.571884,0.3839162,10.105711,0.00718009,-0.056199994,0.0378456,542798.5,119984.89,0.0164995,0.017406425,7562.1045,6883.583,5405.795,4434.927,0.3089609,0.0,0.0,0.0
5.5430007,5.5430007,0.066,0.0,0.0,254.22025,10284.0,100.0,0.0,0.77909976,0.0,7.0,0.0,0.0,4000000.0,110.0,1.0,0.0,0.0,10.0,0.0,0.0,-797.39417,0.20732485,-1016.9973,-0.4416086,0.63932,0.05104539,260.1947,260.23474,254.20222,253.9134,412.0,411.0,454.0,453.0,89.0,89.0,89.0,89.0,0.0,0.0,0.0,0.0,0.047468673,0.04492372,0.052094754,0.050169878,36.540176,39.390472,4.2743235,8.426829,-677.9283,-745.1577,364.69992,300.38052,0.0,0.0,0.0,2.0,1.0,1.419414,-0.0024835835,-0.006396055,89.0,89.0,89.0,89.0,21.842827,21.842827,24.816736,24.816736,0.023604814,0.024742305,-5.995783E-4,-6.325341E-4,1027.0967,0.0,0.0,0.0,0.0,0.0,0.0,0.0,0.0,0.0,0.0,0.0,0.0,0.0,69.84897,0.38964665,10.377533,0.006099876,-0.04717899,0.0027518463,530305.7,119984.92,0.015533216,0.014334734,7753.6143,7158.6865,5641.838,4773.241,0.30700016,0.0,0.0,0.0
9.103842,9.103842,0.116,0.0,0.0,255.14812,10298.0,100.0,0.0,0.71020883,0.0,7.0,0.0,0.0,4000000.0,110.0,1.0,0.0,0.0,10.0,0.0,0.0,-793.89557,0.22771132,-1016.4721,-0.38324043,0.5044408,0.05092185,260.57028,260.5734,255.13272,254.88155,410.0,410.0,452.0,451.0,89.0,89.0,89.0,89.0,0.0,0.0,0.0,0.0,0.047661617,0.045353115,0.052251983,0.05058123,-5.4437666,-1.4421343,2.7615576,6.7772713,-183.8252,-310.0499,72.15142,-67.6587,0.0,0.0,0.0,2.0,1.0,1.4172192,-0.0021937692,-0.0062607527,89.0,89.0,89.0,89.0,21.842827,21.842827,24.816736,24.816736,0.0208565,0.021725003,-5.2962615E-4,-5.4390123E-4,1029.8439,0.0,0.0,0.0,0.0,0.0,0.0,0.0,0.0,0.0,0.0,0.0,0.0,0.0,70.0743,0.42137867,10.611601,0.004992277,-0.041588355,-0.002222116,531001.2,119984.91,0.014721259,0.013999018,7664.6104,7151.568,5754.9644,5001.3257,0.30647087,0.0,0.0,0.0
12.676973,12.676973,0.183,0.0,0.0,256.03082,10335.0,100.0,0.0,0.65052235,0.0,7.0,0.0,0.0,4000000.0,110.0,1.0,0.0,0.0,10.0,0.0,0.0,-790.38617,0.24925227,-1015.93604,-0.33463562,0.49913338,0.008520342,261.49045,261.48813,256.00455,255.7755,408.0,408.0,451.0,450.0,89.0,89.0,89.0,89.0,0.0,0.0,0.0,0.0,0.04731432,0.045252834,0.052181214,0.0507138,0.0,0.0,0.0,0.0,-166.40424,-139.26028,-54.703655,-58.391685,0.0,0.0,0.0,2.0,1.0,1.4152398,-0.0019399368,-0.0062254667,89.0,89.0,89.0,89.0,21.842827,21.842827,24.816736,24.816736,0.020967202,0.021736203,-5.294171E-4,-5.410414E-4,1037.0251,0.0,0.0,0.0,0.0,0.0,0.0,0.0,0.0,0.0,0.0,0.0,0.0,0.0,70.29064,0.4356253,10.818679,0.004600504,-0.037988126,6.506006E-4,532789.7,119984.92,0.01475492,0.01439364,7581.8623,7138.1934,5660.5913,5005.0825,0.30669785,0.0,0.0,0.0
16.262386,16.262386,0.216,0.0,0.0,256.90872,10370.0,100.0,0.0,0.47621742,0.0,7.0,0.0,0.0,4000000.0,110.0,1.0,0.0,0.0,10.0,0.0,0.0,-786.86584,0.2710483,-1015.3902,-0.28261936,0.4974416,-0.0020781865,262.3754,262.36926,256.86282,256.6732,407.0,406.0,449.0,448.0,89.0,89.0,89.0,89.0,0.0,0.0,0.0,0.0,0.04696603,0.045222178,0.05211358,0.05083778,-4.896596,2.799332,-0.7309019,3.178194,146.26083,241.66699,43.57248,38.65063,0.0,0.0,0.0,2.0,1.0,1.4135078,-0.0016430637,-0.0063234568,89.0,89.0,89.0,89.0,21.842827,21.842827,24.816736,24.816736,0.021011138,0.021624101,-5.2501773E-4,-5.440222E-4,1043.9012,0.0,0.0,0.0,0.0,0.0,0.0,0.0,0.0,0.0,0.0,0.0,0.0,0.0,70.50906,0.43607858,11.001623,0.00625824,-0.031051578,0.005295366,534512.25,119984.92,0.014348931,0.014333698,7555.4795,7188.4326,5661.453,5089.2285,0.3064928,0.0,0.0,0.0
19.860004,19.860004,0.266,0.0,0.0,257.7841,10402.0,100.0,0.0,0.22673872,0.0,7.0,0.0,0.0,4000000.0,110.0,1.0,0.0,0.0,10.0,0.0,0.0,-783.33453,0.2930233,-1014.8359,-0.2191383,0.4956447,0.05078022,263.18567,263.1907,257.70572,257.58273,405.0,405.0,448.0,447.0,89.0,89.0,89.0,89.0,0.0,0.0,0.0,0.0,0.04722919,0.045922183,0.052093726,0.051067397,14.277844,21.566076,2.3873894,7.1970367,726.0873,576.35297,278.4669,235.1224,0.0,0.0,0.0,2.0,1.0,1.4122485,-0.0011727104,-0.0065722466,89.0,89.0,89.0,89.0,21.842827,21.842827,24.816736,24.816736,0.020799048,0.021220272,-5.183754E-4,-5.4682663E-4,1050.2441,0.0,0.0,0.0,0.0,0.0,0.0,0.0,0.0,0.0,0.0,0.0,0.0,0.0,70.73084,0.4476248,11.156416,0.010715813,-0.019409165,0.0075661927,536105.7,119984.914,0.0139704365,0.013438356,7687.4,7387.741,5719.48,5261.0654,0.305727,0.0,0.0,0.0
23.469715,23.469715,0.316,0.0,0.0,258.64874,10438.0,100.0,0.0,0.028163392,0.0,7.0,0.0,0.0,4000000.0,110.0,1.0,0.0,0.0,10.0,0.0,0.0,-779.79205,0.31573877,-1014.2748,-0.14583561,0.48835462,-0.009523567,264.0905,264.11243,258.53397,258.48682,403.0,403.0,446.0,445.0,89.0,89.0,89.0,89.0,0.0,0.0,0.0,0.0,0.047232546,0.04635442,0.051807534,0.051144525,-5.9189644,0.39204952,-5.9314814,0.43049452,-304.49774,-495.8331,39.267536,-56.36661,0.0,0.0,0.0,2.0,1.0,1.4116261,-6.30417E-4,-0.006624222,89.0,89.0,89.0,89.0,21.842827,21.842827,24.816736,24.816736,0.020999016,0.021210464,-5.178151E-4,-5.4581277E-4,1057.3779,0.0,0.0,0.0,0.0,0.0,0.0,0.0,0.0,0.0,0.0,0.0,0.0,0.0,70.9549,0.4552441,11.276861,0.008823826,-0.0066136103,-0.0025864094,537885.6,119984.91,0.014291693,0.013396886,7540.162,7354.2734,5470.2793,5187.292,0.30586624,0.0,0.0,0.0
27.09148,27.09148,0.366,0.0,0.0,259.50757,10473.0,100.0,0.0,-0.05097025,0.0,7.0,0.0,0.0,4000000.0,110.0,1.0,0.0,0.0,10.0,0.0,0.0,-776.2383,0.33826888,-1013.70856,-0.08191714,0.48478284,-0.030316943,264.9593,265.0042,259.367,259.37228,402.0,401.0,444.0,444.0,89.0,89.0,89.0,89.0,0.0,0.0,0.0,0.0,0.046814673,0.04622687,0.051653273,0.05125724,-7.4911857,-1.528859,-3.1562893,2.5150177,40.018585,50.412117,29.303125,51.47158,0.0,0.0,0.0,2.0,1.0,1.4115267,-2.5989232E-4,-0.006419301,89.0,89.0,89.0,89.0,21.842827,21.842827,24.816736,24.816736,0.021064846,0.021192316,-5.2252423E-4,-5.3706305E-4,1064.3086,0.0,0.0,0.0,0.0,0.0,0.0,0.0,0.0,0.0,0.0,0.0,0.0,0.0,71.18255,0.44488147,11.364696,0.0074607874,0.0017093329,-0.0033912193,539601.9,119984.91,0.014622411,0.013828695,7457.25,7356.426,5425.0405,5261.582,0.30626583,0.0,0.0,0.0
30.72508,30.72508,0.416,0.0,0.0,260.35864,10506.0,100.0,0.0,-0.08728322,0.0,7.0,0.0,0.0,4000000.0,110.0,1.0,0.0,0.0,10.0,0.0,0.0,-772.67316,0.36017656,-1013.1386,-0.030938387,0.4807905,-0.021267656,265.8127,265.8518,260.20483,260.2358,400.0,400.0,443.0,442.0,89.0,89.0,89.0,89.0,0.0,0.0,0.0,0.0,0.046592582,0.046300057,0.05161491,0.051457573,-2.055019,4.2186675,0.3623217,4.407316,178.05844,221.97958,51.1229,14.604634,0.0,0.0,0.0,2.0,1.0,1.4117272,1.5306125E-5,-0.0062885284,89.0,89.0,89.0,89.0,21.842827,21.842827,24.816736,24.816736,0.021059602,0.021084001,-5.242744E-4,-5.3070235E-4,1070.5421,0.0,0.0,0.0,0.0,0.0,0.0,0.0,0.0,0.0,0.0,0.0,0.0,0.0,71.41239,0.4332439,11.425044,0.004828279,0.005675703,0.0013956917,541057.44,119984.91,0.014485548,0.013972041,7454.767,7415.383,5457.7,5396.7183,0.3063469,0.0,0.0,0.0
34.370693,34.370693,0.466,0.0,0.0,261.20233,10538.0,100.0,0.0,-0.067676485,0.0,7.0,0.0,0.0,4000000.0,110.0,1.0,0.0,0.0,10.0,0.0,0.0,-769.09644,0.3817033,-1012.5662,5.1917136E-4,0.47659844,-0.0019332276,266.62256,266.6457,261.04544,261.08145,399.0,398.0,441.0,441.0,89.0,89.0,89.0,89.0,0.0,0.0,0.0,0.0,0.04681328,0.046812534,0.051621858,0.05160833,8.614138,13.105272,0.8992105,2.9875336,330.63586,228.05481,126.54661,69.37533,0.0,0.0,0.0,2.0,1.0,1.412034,2.1886491E-4,-0.0064589977,89.0,89.0,89.0,89.0,21.842827,21.842827,24.816736,24.816736,0.020871904,0.020830618,-5.2694656E-4,-5.250022E-4,1074.901,0.0,0.0,0.0,0.0,0.0,0.0,0.0,0.0,0.0,0.0,0.0,0.0,0.0,71.64317,0.4294963,11.466211,0.0022760523,0.006131617,0.005103693,541610.75,119984.89,0.014031619,0.013256125,7530.109,7538.207,5473.4883,5472.127,0.30575657,0.0,0.0,0.0
38.028023,38.028023,0.516,0.0,0.0,262.03696,10570.0,100.0,0.0,-0.033432253,0.0,7.0,0.0,0.0,4000000.0,110.0,1.0,0.0,0.0,10.0,0.0,0.0,-765.50824,0.40337744,-1011.99207,0.014175486,0.47068885,0.016017249,267.43396,267.44333,261.8855,261.9114,397.0,396.0,440.0,439.0,89.0,89.0,89.0,89.0,0.0,0.0,0.0,0.0,0.047383815,0.047494933,0.051654086,0.05170625,9.733959,11.455714,0.6640702,1.8920748,-150.88765,-167.5978,53.094322,47.340984,0.0,0.0,0.0,2.0,1.0,1.4122933,3.4431854E-4,-0.0066605806,89.0,89.0,89.0,89.0,21.842827,21.842827,24.816736,24.816736,0.02068558,0.02063194,-5.2616483E-4,-5.208632E-4,1079.27,0.0,0.0,0.0,0.0,0.0,0.0,0.0,0.0,0.0,0.0,0.0,0.0,0.0,71.87291,0.43761265,11.497488,0.0013914139,0.0042302553,0.0028447746,542165.8,119984.9,0.013512688,0.012338214,7598.8726,7626.5757,5493.709,5521.206,0.3050518,0.0,0.0,0.0
41.69708,41.69708,0.566,0.0,0.0,262.86166,10602.0,100.0,0.0,-0.10613443,0.0,7.0,0.0,0.0,4000000.0,110.0,1.0,0.0,0.0,10.0,0.0,0.0,-761.90857,0.4254786,-1011.41656,0.028079119,0.46527293,0.0061697653,268.259,268.2619,262.70993,262.73715,395.0,395.0,438.0,438.0,89.0,89.0,89.0,89.0,0.0,0.0,0.0,0.0,0.047659118,0.047825273,0.051655583,0.051754225,3.214851,4.8731265,-0.84578985,0.55074686,-154.6159,-99.28195,-53.429596,-14.376639,0.0,0.0,0.0,2.0,1.0,1.412494,4.4485214E-4,-0.0067341328,89.0,89.0,89.0,89.0,21.842827,21.842827,24.816736,24.816736,0.020621663,0.020535776,-5.190501E-4,-5.244432E-4,1083.6688,0.0,0.0,0.0,0.0,0.0,0.0,0.0,0.0,0.0,0.0,0.0,0.0,0.0,72.100845,0.4448273,11.5226345,0.0025926637,0.004813556,3.1598314E-4,542732.44,119984.9,0.013215861,0.011824824,7609.81,7651.802,5482.8984,5532.904,0.30460548,0.0,0.0,0.0
45.358223,45.358223,0.616,0.0,0.0,263.67712,10634.0,100.0,0.0,-0.19999938,0.0,7.0,0.0,0.0,4000000.0,110.0,1.0,0.0,0.0,10.0,0.0,0.0,-758.2975,0.44778928,-1010.83984,0.04788613,0.46046048,0.03596327,269.05112,269.0673,263.51126,263.56775,394.0,393.0,437.0,436.0,89.0,89.0,89.0,89.0,0.0,0.0,0.0,0.0,0.047798906,0.048059124,0.051695578,0.051909752,8.212253,10.264143,4.732981,7.111206,548.9006,571.7262,347.37286,347.50696,0.0,0.0,0.0,2.0,1.0,1.4128634,5.7020434E-4,-0.006693244,89.0,89.0,89.0,89.0,21.842827,21.842827,24.816736,24.816736,0.020519402,0.020379972,-5.1301497E-4,-5.219902E-4,1088.043,0.0,0.0,0.0,0.0,0.0,0.0,0.0,0.0,0.0,0.0,0.0,0.0,0.0,72.32771,0.45107752,11.538178,0.001773133,0.00992087,0.0019771159,543283.4,119984.9,0.01302597,0.011667579,7669.952,7730.6113,5595.679,5697.948,0.30451202,0.0,0.0,0.0
49.023407,49.023407,0.666,0.0,0.0,264.48007,10667.0,100.0,0.0,-0.21763088,0.0,7.0,0.0,0.0,4000000.0,110.0,1.0,0.0,0.0,10.0,0.0,0.0,-754.6752,0.47045147,-1010.26306,0.06600861,0.45314172,-0.017738828,269.87738,269.8934,264.30374,264.38095,392.0,391.0,435.0,435.0,89.0,89.0,89.0,89.0,0.0,0.0,0.0,0.0,0.047779962,0.048039965,0.051623672,0.05186626,-2.941489,-1.8996744,-1.5212594,-1.5257298,-106.510506,17.970798,24.582443,6.732344,0.0,0.0,0.0,2.0,1.0,1.4134592,6.077431E-4,-0.006752968,89.0,89.0,89.0,89.0,21.842827,21.842827,24.816736,24.816736,0.020579051,0.02037137,-5.15078E-4,-5.1759963E-4,1092.5634,0.0,0.0,0.0,0.0,0.0,0.0,0.0,0.0,0.0,0.0,0.0,0.0,0.0,72.55267,0.45135406,11.543799,0.001046102,0.013175758,-1.3351986E-4,543852.75,119984.9,0.013139725,0.011712934,7586.368,7691.4766,5461.8467,5571.9995,0.3045864,0.0,0.0,0.0
52.699802,52.699802,0.716,0.0,0.0,265.27786,10698.0,100.0,0.0,-0.25157425,0.0,7.0,0.0,0.0,4000000.0,110.0,1.0,0.0,0.0,10.0,0.0,0.0,-751.04156,0.49239668,-1009.6863,0.08673601,0.45124817,-0.029891476,270.66904,270.68686,265.09482,265.18585,390.0,390.0,434.0,433.0,89.0,89.0,89.0,89.0,0.0,0.0,0.0,0.0,0.04756826,0.048056394,0.051518988,0.051859304,2.4184582,7.821545,-0.9995698,2.1354852,372.50513,383.93134,13.008709,68.85229,0.0,0.0,0.0,2.0,1.0,1.4141884,7.8863837E-4,-0.006643772,89.0,89.0,89.0,89.0,21.842827,21.842827,24.816736,24.816736,0.020524964,0.020281395,-5.151823E-4,-5.1716354E-4,1096.8396,0.0,0.0,0.0,0.0,0.0,0.0,0.0,0.0,0.0,0.0,0.0,0.0,0.0,72.777954,0.4311193,11.538977,0.00487961,0.015497567,-0.0033590726,544399.25,119984.89,0.012917271,0.011241141,7599.4365,7722.7783,5422.2773,5587.134,0.3040161,0.0,0.0,0.0
56.38735,56.38735,0.766,0.0,0.0,266.0658,10729.0,100.0,0.0,-0.22102995,0.0,7.0,0.0,0.0,4000000.0,110.0,1.0,0.0,0.0,10.0,0.0,0.0,-747.3968,0.51366335,-1009.1095,0.09606615,0.44349942,-0.0335292,271.47144,271.47995,265.88443,265.97446,389.0,388.0,432.0,432.0,89.0,89.0,89.0,89.0,0.0,0.0,0.0,0.0,0.047680095,0.04808653,0.051513392,0.05191472,-1.2286751,-4.1171904,1.0064988,0.6908923,-257.2372,-228.61804,61.36893,-27.586514,0.0,0.0,0.0,2.0,1.0,1.4149662,8.1990194E-4,-0.0062503815,89.0,89.0,89.0,89.0,21.842827,21.842827,24.816736,24.816736,0.020503655,0.02023092,-5.145021E-4,-5.107814E-4,1101.129,0.0,0.0,0.0,0.0,0.0,0.0,0.0,0.0,0.0,0.0,0.0,0.0,0.0,73.00148,0.41910127,11.527246,-4.1087065E-4,0.01504868,-0.009865634,544949.1,119984.9,0.013095867,0.011333113,7573.6396,7725.7686,5433.948,5615.422,0.3042555,0.0,0.0,0.0
60.085747,60.085747,0.816,0.0,0.0,266.8413,10761.0,100.0,0.0,-0.18503115,0.0,7.0,0.0,0.0,4000000.0,110.0,1.0,0.0,0.0,10.0,0.0,0.0,-743.7409,0.53411865,-1008.5336,0.09663953,0.43747237,-0.043694172,272.26108,272.26648,266.66486,266.7437,387.0,387.0,431.0,430.0,89.0,89.0,89.0,89.0,0.0,0.0,0.0,0.0,0.047554463,0.048030894,0.051585864,0.052000325,-1.477897,-0.86769456,0.96336,0.917986,-5.0693746,-207.50908,-34.18475,-132.64864,0.0,0.0,0.0,2.0,1.0,1.4156703,7.532545E-4,-0.0059530735,89.0,89.0,89.0,89.0,21.842827,21.842827,24.816736,24.816736,0.0204874,0.020249238,-5.121452E-4,-5.0718646E-4,1105.514,0.0,0.0,0.0,0.0,0.0,0.0,0.0,0.0,0.0,0.0,0.0,0.0,0.0,73.22186,0.40006062,11.513329,-0.001557401,0.013063251,-0.002581057,545492.3,119984.9,0.01313189,0.01180585,7562.322,7693.8257,5483.6797,5671.01,0.3045473,0.0,0.0,0.0
63.794983,63.794983,0.883,0.0,0.0,267.6103,10790.0,100.0,0.0,-0.16243398,0.0,7.0,0.0,0.0,4000000.0,110.0,1.0,0.0,0.0,10.0,0.0,0.0,-740.07404,0.55342245,-1007.9582,0.09235643,0.43564323,-0.053888533,273.0131,273.01416,267.43948,267.50644,386.0,385.0,429.0,429.0,89.0,89.0,89.0,89.0,0.0,0.0,0.0,0.0,0.047623545,0.04810555,0.051575545,0.05196871,0.0,0.0,0.0,0.0,466.90546,596.05383,324.17172,305.6645,0.0,0.0,0.0,2.0,1.0,1.4162705,6.917642E-4,-0.0058761835,89.0,89.0,89.0,89.0,21.842827,21.842827,24.816736,24.816736,0.02035556,0.020140156,-5.117031E-4,-5.075035E-4,1109.5446,0.0,0.0,0.0,0.0,0.0,0.0,0.0,0.0,0.0,0.0,0.0,0.0,0.0,73.44026,0.37275782,11.500391,-4.985492E-4,0.01107337,-0.0017440801,546009.6,119984.9,0.012684343,0.011225298,7619.4365,7745.929,5481.3438,5659.131,0.30401325,0.0,0.0,0.0
67.5149,67.5149,0.916,0.0,0.0,268.37436,10818.0,100.0,0.0,-0.09437452,0.0,7.0,0.0,0.0,4000000.0,110.0,1.0,0.0,0.0,10.0,0.0,0.0,-736.3963,0.5718631,-1007.3836,0.07695003,0.43091843,0.0017533136,273.7311,273.7099,268.21423,268.26016,384.0,383.0,428.0,427.0,89.0,89.0,89.0,89.0,0.0,0.0,0.0,0.0,0.048290268,0.04844124,0.05178839,0.05203837,12.291446,3.738552,4.3395905,-0.05073845,-190.95982,-181.94763,-10.205783,-85.57587,0.0,0.0,0.0,2.0,1.0,1.416737,5.078323E-4,-0.0058158636,89.0,89.0,89.0,89.0,21.842827,21.842827,24.816736,24.816736,0.020079905,0.019857196,-5.1155646E-4,-5.0419586E-4,1113.4185,0.0,0.0,0.0,0.0,0.0,0.0,0.0,0.0,0.0,0.0,0.0,0.0,0.0,73.656265,0.3684456,11.492932,-0.0045150816,0.007345562,-0.0026525594,546497.8,119984.89,0.012055646,0.010230906,7749.6016,7907.3945,5618.3438,5719.452,0.30318832,0.0,0.0,0.0
71.245445,71.245445,0.966,0.0,0.0,269.12698,10847.0,100.0,0.0,-0.019779587,0.0,7.0,0.0,0.0,4000000.0,110.0,1.0,0.0,0.0,10.0,0.0,0.0,-732.7079,0.5903877,-1006.809,0.0553423,0.42388302,0.027069746,274.46463,274.44592,268.9792,269.003,382.0,382.0,426.0,426.0,89.0,89.0,89.0,89.0,0.0,0.0,0.0,0.0,0.048400413,0.048539557,0.051925343,0.052108668,7.032975,6.446018,4.7492976,4.2191143,577.68066,504.9526,232.15857,232.27925,0.0,0.0,0.0,2.0,1.0,1.4170076,4.6233676E-4,-0.005599022,89.0,89.0,89.0,89.0,21.842827,21.842827,24.816736,24.816736,0.019889755,0.01975454,-5.079594E-4,-4.98652E-4,1117.4384,0.0,0.0,0.0,0.0,0.0,0.0,0.0,0.0,0.0,0.0,0.0,0.0,0.0,73.867645,0.37430924,11.494091,6.313598E-4,0.0035710216,-0.004158545,547004.56,119984.9,0.012055988,0.010255918,7859.738,7963.24,5727.2295,5808.3745,0.30322552,0.0,0.0,0.0
74.98627,74.98627,1.016,0.0,0.0,269.86435,10879.0,100.0,0.0,0.053514563,0.0,7.0,0.0,0.0,4000000.0,110.0,1.0,0.0,0.0,10.0,0.0,0.0,-729.0091,0.6088146,-1006.23413,0.027982708,0.41582552,-0.072143905,275.27426,275.2538,269.7315,269.72647,381.0,380.0,425.0,424.0,89.0,89.0,89.0,89.0,0.0,0.0,0.0,0.0,0.048086792,0.048148744,0.051808633,0.05194017,-5.791783,-8.004158,-2.9754636,-4.405081,115.24111,74.91411,-20.840763,-31.757336,0.0,0.0,0.0,2.0,1.0,1.4170529,3.49011E-4,-0.005277157,89.0,89.0,89.0,89.0,21.842827,21.842827,24.816736,24.816736,0.020060463,0.020012045,-5.059975E-4,-4.968151E-4,1121.8754,0.0,0.0,0.0,0.0,0.0,0.0,0.0,0.0,0.0,0.0,0.0,0.0,0.0,74.07295,0.3557377,11.507386,-0.0027272133,-0.0013209909,-0.008915397,547561.2,119984.9,0.012797596,0.011093478,7699.7285,7750.521,5546.3706,5601.742,0.3039112,0.0,0.0,0.0
78.73735,78.73735,1.066,0.0,0.0,270.59766,10908.0,100.0,0.0,0.04057466,0.0,7.0,0.0,0.0,4000000.0,110.0,1.0,0.0,0.0,10.0,0.0,0.0,-725.3001,0.625226,-1005.65814,0.009617999,0.4153287,-0.0767294,276.01227,275.99792,270.46967,270.4531,379.0,379.0,423.0,423.0,89.0,89.0,89.0,89.0,0.0,0.0,0.0,0.0,0.04801506,0.048037756,0.051828787,0.05189377,6.791129,6.7321205,3.5798547,2.9662995,436.5965,441.86707,148.46025,178.80945,0.0,0.0,0.0,2.0,1.0,1.4169353,2.1637145E-4,-0.0049232244,89.0,89.0,89.0,89.0,21.842827,21.842827,24.816736,24.816736,0.020040896,0.020047862,-5.0195545E-4,-5.006662E-4,1125.9156,0.0,0.0,0.0,0.0,0.0,0.0,0.0,0.0,0.0,0.0,0.0,0.0,0.0,74.275665,0.30833793,11.530854,-0.0019709673,-0.0029270945,-0.0037942277,548072.1,119984.89,0.012484559,0.010982293,7706.5244,7713.7383,5632.167,5661.038,0.30378723,0.0,0.0,0.0
82.498474,82.498474,1.116,0.0,0.0,271.3279,10934.0,100.0,0.0,0.042594705,0.0,7.0,0.0,0.0,4000000.0,110.0,1.0,0.0,0.0,10.0,0.0,0.0,-721.58124,0.64022607,-1005.08075,-0.0063252784,0.41211566,0.002367015,276.6503,276.63928,271.20303,271.17892,378.0,377.0,422.0,421.0,89.0,89.0,89.0,89.0,0.0,0.0,0.0,0.0,0.04859025,0.048551857,0.052064504,0.05203599,7.9049163,8.5432825,3.862157,2.291277,-263.0174,-105.33033,-78.5619,-21.243093,0.0,0.0,0.0,2.0,1.0,1.416738,6.768492E-5,-0.004925847,89.0,89.0,89.0,89.0,21.842827,21.842827,24.816736,24.816736,0.019633682,0.019676149,-5.002204E-4,-5.0202967E-4,1129.5101,0.0,0.0,0.0,0.0,0.0,0.0,0.0,0.0,0.0,0.0,0.0,0.0,0.0,74.475876,0.29827467,11.563769,-0.0011399625,-0.0040505663,3.2570772E-4,548514.44,119984.9,0.011742555,0.00985501,7949.129,7929.1484,5775.7793,5759.418,0.30288696,0.0,0.0,0.0
86.27079,86.27079,1.166,0.0,0.0,272.04526,10961.0,100.0,0.0,0.045466192,0.0,7.0,0.0,0.0,4000000.0,110.0,1.0,0.0,0.0,10.0,0.0,0.0,-717.8525,0.6555248,-1004.5016,-0.01594076,0.40244535,0.024856314,277.34265,277.33643,271.92053,271.8991,376.0,375.0,420.0,420.0,89.0,89.0,89.0,89.0,0.0,0.0,0.0,0.0,0.048731845,0.048694637,0.05218422,0.052124258,-5.108043,-5.0767508,-0.23670493,-0.5268305,-859.2053,-814.2783,-308.3065,-263.23193,0.0,0.0,0.0,2.0,1.0,1.416545,5.1682942E-5,-0.004802346,89.0,89.0,89.0,89.0,21.842827,21.842827,24.816736,24.816736,0.019462585,0.019510191,-4.962528E-4,-4.972089E-4,1133.2886,0.0,0.0,0.0,0.0,0.0,0.0,0.0,0.0,0.0,0.0,0.0,0.0,0.0,74.671684,0.3134566,11.600991,0.0011146638,-0.003589686,-0.0056317565,548993.7,119984.89,0.01179731,0.0097479,8028.4624,8001.8413,5810.1475,5782.66,0.3028574,0.0,0.0,0.0
90.05542,90.05542,1.216,0.0,0.0,272.7476,10993.0,100.0,0.0,0.03875483,0.0,7.0,0.0,0.0,4000000.0,110.0,1.0,0.0,0.0,10.0,0.0,0.0,-714.11383,0.6706325,-1003.92053,-0.019354165,0.3977447,-0.090856075,278.13834,278.13736,272.62128,272.6037,374.0,374.0,419.0,418.0,89.0,89.0,89.0,89.0,0.0,0.0,0.0,0.0,0.048213296,0.048172005,0.05203304,0.051963527,-5.279928,-5.5669246,-1.2789665,-1.4660506,667.1324,655.277,266.27628,274.28265,0.0,0.0,0.0,2.0,1.0,1.4163822,5.4802116E-5,-0.0044156313,89.0,89.0,89.0,89.0,21.842827,21.842827,24.816736,24.816736,0.019772505,0.01982519,-4.936945E-4,-4.946465E-4,1137.7339,0.0,0.0,0.0,0.0,0.0,0.0,0.0,0.0,0.0,0.0,0.0,0.0,0.0,74.86318,0.28376547,11.639973,0.0010423233,-0.0029200062,-0.00681537,549542.75,119984.9,0.012116551,0.010513864,7802.482,7770.8413,5697.623,5665.633,0.30336285,0.0,0.0,0.0
93.84985,93.84985,1.266,0.0,0.0,273.44998,11018.0,100.0,0.0,0.044661593,0.0,7.0,0.0,0.0,4000000.0,110.0,1.0,0.0,0.0,10.0,0.0,0.0,-710.36566,0.6839266,-1003.3375,-0.020971403,0.39710304,-0.040578816,278.78586,278.7877,273.3217,273.30576,373.0,372.0,417.0,417.0,89.0,89.0,89.0,89.0,0.0,0.0,0.0,0.0,0.048536558,0.048482295,0.052115027,0.052049823,8.636266,8.730367,2.3366508,2.5572627,56.326416,92.348465,41.373066,47.153233,0.0,0.0,0.0,2.0,1.0,1.4162405,5.0372204E-5,-0.0042659044,89.0,89.0,89.0,89.0,21.842827,21.842827,24.816736,24.816736,0.019548036,0.019605475,-4.9489527E-4,-4.9461174E-4,1140.6008,0.0,0.0,0.0,0.0,0.0,0.0,0.0,0.0,0.0,0.0,0.0,0.0,0.0,75.05451,0.25437367,11.680005,1.4833233E-5,-0.002684509,-8.4057695E-4,549677.44,119984.89,0.011661984,0.0098986775,7935.5107,7897.624,5795.1855,5766.2227,0.3028612,0.0,0.0,0.0
97.65399,97.65399,1.316,0.0,0.0,274.1441,11043.0,100.0,0.0,0.056225743,0.0,7.0,0.0,0.0,4000000.0,110.0,1.0,0.0,0.0,10.0,0.0,0.0,-706.6079,0.6965613,-1002.7525,-0.022256453,0.39063025,0.042655364,279.4059,279.40704,274.01678,274.0001,371.0,371.0,416.0,415.0,89.0,89.0,89.0,89.0,0.0,0.0,0.0,0.0,0.04894383,0.04889462,0.052305594,0.052249108,12.733563,13.084485,6.3887978,6.775707,511.8459,527.9793,230.46878,252.78476,0.0,0.0,0.0,2.0,1.0,1.4161049,2.5347565E-5,-0.004193783,89.0,89.0,89.0,89.0,21.842827,21.842827,24.816736,24.816736,0.019205457,0.019262498,-4.927782E-4,-4.907554E-4,1143.2432,0.0,0.0,0.0,0.0,0.0,0.0,0.0,0.0,0.0,0.0,0.0,0.0,0.0,75.2434,0.25779802,11.720083,-0.0011954996,-0.0028779563,-0.0010343654,549703.56,119984.89,0.011228987,0.009247755,8158.3438,8120.37,5971.23,5947.515,0.30236053,0.0,0.0,0.0
101.46756,101.46756,1.366,0.0,0.0,274.82214,11071.0,100.0,0.0,0.034845825,0.0,7.0,0.0,0.0,4000000.0,110.0,1.0,0.0,0.0,10.0,0.0,0.0,-702.8409,0.70961505,-1002.1654,-0.02053108,0.3820539,-0.028505856,280.12918,280.102,274.69803,274.6773,370.0,369.0,415.0,414.0,89.0,89.0,89.0,89.0,0.0,0.0,0.0,0.0,0.04866445,0.048698395,0.052255947,0.052166007,-7.8577538,-1.3274698,-2.2271273,-2.8502939,-56.9567,374.18152,-39.25412,-31.770754,0.0,0.0,0.0,2.0,1.0,1.4159331,-5.0511375E-5,-0.0039721727,89.0,89.0,89.0,89.0,21.842827,21.842827,24.816736,24.816736,0.019305818,0.019283613,-4.8827438E-4,-4.89886E-4,1146.2042,0.0,0.0,0.0,0.0,0.0,0.0,0.0,0.0,0.0,0.0,0.0,0.0,0.0,75.42775,0.25755775,11.760322,-0.0013181902,-0.0034572363,-0.007948314,549733.44,119984.9,0.011640953,0.0095968945,8025.9507,8045.242,5827.101,5783.3564,0.30280972,0.0,0.0,0.0
105.29052,105.29052,1.416,0.0,0.0,275.49164,11100.0,100.0,0.0,0.036496397,0.0,7.0,0.0,0.0,4000000.0,110.0,1.0,0.0,0.0,10.0,0.0,0.0,-699.0647,0.7211975,-1001.5763,-0.021566357,0.37999618,-0.08772512,280.83942,280.84253,275.3647,275.34885,368.0,368.0,413.0,412.0,89.0,89.0,89.0,89.0,0.0,0.0,0.0,0.0,0.04842764,0.04838163,0.052151356,0.052059464,4.368201,8.341223,0.27783212,2.7331707,440.7271,983.55255,87.721634,232.82912,0.0,0.0,0.0,2.0,1.0,1.4157847,-3.4982793E-5,-0.0035721064,89.0,89.0,89.0,89.0,21.842827,21.842827,24.816736,24.816736,0.019439679,0.019496877,-4.8706424E-4,-4.881109E-4,1149.2704,0.0,0.0,0.0,0.0,0.0,0.0,0.0,0.0,0.0,0.0,0.0,0.0,0.0,75.609955,0.20984188,11.799808,0.0045075878,-0.0025886144,-0.004052985,549763.94,119984.91,0.011638786,0.009929466,7910.531,7874.0312,5800.3164,5767.092,0.30282784,0.0,0.0,0.0
109.122765,109.122765,1.466,0.0,0.0,276.15964,11123.0,100.0,0.0,0.01261926,0.0,7.0,0.0,0.0,4000000.0,110.0,1.0,0.0,0.0,10.0,0.0,0.0,-695.2794,0.731098,-1000.9853,-0.018483799,0.37672776,-0.011097283,281.43005,281.4306,276.0298,276.01794,367.0,366.0,412.0,411.0,89.0,89.0,89.0,89.0,0.0,0.0,0.0,0.0,0.048849855,0.048803486,0.052315444,0.05224764,8.361339,7.1932373,4.033595,3.31901,-72.45986,-82.853386,20.478672,-34.88212,0.0,0.0,0.0,2.0,1.0,1.4156673,4.1148414E-6,-0.0034974813,89.0,89.0,89.0,89.0,21.842827,21.842827,24.816736,24.816736,0.019126548,0.01916355,-4.862377E-4,-4.890403E-4,1151.7039,0.0,0.0,0.0,0.0,0.0,0.0,0.0,0.0,0.0,0.0,0.0,0.0,0.0,75.79178,0.19298805,11.838418,-3.3449847E-4,-0.0018699254,2.9792983E-4,549788.8,119984.91,0.010948615,0.009026125,8104.6973,8076.839,5939.6025,5906.385,0.30211258,0.0,0.0,0.0
112.96425,112.96425,1.516,0.0,0.0,276.81567,11148.0,100.0,0.0,-0.040881358,0.0,7.0,0.0,0.0,4000000.0,110.0,1.0,0.0,0.0,10.0,0.0,0.0,-691.48505,0.74100214,-1000.3925,-0.007166896,0.36820722,0.017192312,282.0498,282.05676,276.67914,276.68417,365.0,365.0,410.0,409.0,89.0,89.0,89.0,89.0,0.0,0.0,0.0,0.0,0.04902038,0.049010903,0.052372467,0.052347146,-4.3737884,-3.7421284,-2.1444259,-0.7950514,-819.1331,-857.85077,-317.64056,-304.10883,0.0,0.0,0.0,2.0,1.0,1.4156518,7.080152E-5,-0.0033694506,89.0,89.0,89.0,89.0,21.842827,21.842827,24.816736,24.816736,0.01894784,0.018951008,-4.8167267E-4,-4.8701576E-4,1154.3477,0.0,0.0,0.0,0.0,0.0,0.0,0.0,0.0,0.0,0.0,0.0,0.0,0.0,75.97099,0.20348667,11.871722,0.0026433566,0.0011091133,-0.007385603,549815.1,119984.91,0.011116292,0.008835745,8197.062,8183.0156,5918.9707,5911.693,0.30194187,0.0,0.0,0.0
116.8147,116.8147,1.566,0.0,0.0,277.4555,11177.0,100.0,0.0,-0.10149799,0.0,7.0,0.0,0.0,4000000.0,110.0,1.0,0.0,0.0,10.0,0.0,0.0,-687.6818,0.7504847,-999.7983,0.01092682,0.3615715,-0.10288562,282.7846,282.7981,277.30884,277.3358,364.0,363.0,409.0,408.0,89.0,89.0,89.0,89.0,0.0,0.0,0.0,0.0,0.048442043,0.048467856,0.052182246,0.052221294,-8.19303,-7.002577,-1.9110738,-0.35919246,499.78937,538.051,245.70372,273.06226,0.0,0.0,0.0,2.0,1.0,1.4157987,1.3998963E-4,-0.0028219223,89.0,89.0,89.0,89.0,21.842827,21.842827,24.816736,24.816736,0.019289656,0.01924219,-4.7673346E-4,-4.834764E-4,1157.4156,0.0,0.0,0.0,0.0,0.0,0.0,0.0,0.0,0.0,0.0,0.0,0.0,0.0,76.14702,0.16872448,11.896972,0.0030622757,0.004864384,-0.009457811,549846.06,119984.91,0.011684934,0.009913266,7921.752,7937.1523,5803.411,5826.3096,0.3028736,0.0,0.0,0.0
120.67401,120.67401,1.616,0.0,0.0,278.0935,11200.0,100.0,0.0,-0.15467408,0.0,7.0,0.0,0.0,4000000.0,110.0,1.0,0.0,0.0,10.0,0.0,0.0,-683.8698,0.7578831,-999.2029,0.03351075,0.3612819,-0.041253045,283.3625,283.37888,277.93237,277.9831,362.0,362.0,407.0,407.0,89.0,89.0,89.0,89.0,0.0,0.0,0.0,0.0,0.04874254,0.048843738,0.052306283,0.052416515,11.761039,13.3001795,3.0206141,4.562437,304.833,298.4896,-9.226798,-0.25483128,0.0,0.0,0.0,2.0,1.0,1.4161526,2.4246633E-4,-0.0027530193,89.0,89.0,89.0,89.0,21.842827,21.842827,24.816736,24.816736,0.019103767,0.018990839,-4.7893374E-4,-4.8457694E-4,1159.8491,0.0,0.0,0.0,0.0,0.0,0.0,0.0,0.0,0.0,0.0,0.0,0.0,0.0,76.3242,0.13534781,11.911414,0.0012188989,0.008839405,0.005783288,549870.56,119984.914,0.011031635,0.009333166,8044.074,8104.2705,5949.111,6002.8037,0.3023138,0.0,0.0,0.0
124.542145,124.542145,1.666,0.0,0.0,278.7264,11221.0,100.0,0.0,-0.22049765,0.0,7.0,0.0,0.0,4000000.0,110.0,1.0,0.0,0.0,10.0,0.0,0.0,-680.0489,0.7648098,-998.6074,0.06018698,0.3556881,0.05042338,283.90326,283.9235,278.55588,278.62866,361.0,360.0,406.0,405.0,89.0,89.0,89.0,89.0,0.0,0.0,0.0,0.0,0.049222637,0.049376532,0.052373018,0.052569855,5.058199,6.386563,0.98258245,2.9723344,-302.60678,-288.17648,19.915401,30.362604,0.0,0.0,0.0,2.0,1.0,1.4166932,3.633967E-4,-0.0028586388,89.0,89.0,89.0,89.0,21.842827,21.842827,24.816736,24.816736,0.018728837,0.018560555,-4.7652857E-4,-4.832641E-4,1162.0723,0.0,0.0,0.0,0.0,0.0,0.0,0.0,0.0,0.0,0.0,0.0,0.0,0.0,76.5018,0.14729734,11.913419,0.0034520146,0.012598995,-0.0045719612,549893.5,119984.9,0.010753783,0.008259438,8295.463,8399.96,5981.455,6075.72,0.30155945,0.0,0.0,0.0
128.419,128.419,1.716,0.0,0.0,279.33975,11249.0,100.0,0.0,-0.23482558,0.0,7.0,0.0,0.0,4000000.0,110.0,1.0,0.0,0.0,10.0,0.0,0.0,-676.2192,0.7722888,-998.01196,0.08063966,0.3444681,-0.050244138,284.607,284.62122,279.16516,279.24905,359.0,358.0,404.0,404.0,89.0,89.0,89.0,89.0,0.0,0.0,0.0,0.0,0.04870483,0.048896644,0.05230438,0.052571774,-11.68616,-10.901838,-1.5901028,-0.4559755,36.866966,50.170666,-0.8448958,-9.495019,0.0,0.0,0.0,2.0,1.0,1.4173689,4.4709805E-4,-0.0023636818,89.0,89.0,89.0,89.0,21.842827,21.842827,24.816736,24.816736,0.019011982,0.018790623,-4.7143264E-4,-4.761902E-4,1165.0344,0.0,0.0,0.0,0.0,0.0,0.0,0.0,0.0,0.0,0.0,0.0,0.0,0.0,76.67568,0.14257911,11.904043,0.0028932604,0.014354156,-0.008429558,549922.94,119984.91,0.011281549,0.009444895,8029.8516,8170.1885,5907.547,6032.336,0.3024826,0.0,0.0,0.0
132.30429,132.30429,1.766,0.0,0.0,279.94748,11272.0,100.0,0.0,-0.24952649,0.0,7.0,0.0,0.0,4000000.0,110.0,1.0,0.0,0.0,10.0,0.0,0.0,-672.3808,0.77846426,-997.41724,0.09930886,0.34453103,-0.056688074,285.20444,285.21695,279.76437,279.86075,357.0,357.0,403.0,402.0,89.0,89.0,89.0,89.0,0.0,0.0,0.0,0.0,0.048715554,0.04897425,0.052275106,0.05262235,8.620396,9.89221,0.4121661,2.0901113,501.13046,478.06348,62.106537,55.803356,0.0,0.0,0.0,2.0,1.0,1.4181468,5.434033E-4,-0.00230968,89.0,89.0,89.0,89.0,21.842827,21.842827,24.816736,24.816736,0.01899668,0.018730698,-4.740134E-4,-4.7537618E-4,1167.4697,0.0,0.0,0.0,0.0,0.0,0.0,0.0,0.0,0.0,0.0,0.0,0.0,0.0,76.849686,0.10883153,11.88389,4.993181E-4,0.016308136,0.004852799,549948.06,119984.91,0.0111555355,0.009418398,8031.121,8208.935,5921.9473,6083.285,0.3024454,0.0,0.0,0.0
136.198,136.198,1.816,0.0,0.0,280.55273,11293.0,100.0,0.0,-0.24928612,0.0,7.0,0.0,0.0,4000000.0,110.0,1.0,0.0,0.0,10.0,0.0,0.0,-668.53375,0.7838283,-996.82367,0.110726684,0.340779,0.03397959,285.72726,285.73785,280.37054,280.4661,356.0,355.0,402.0,401.0,89.0,89.0,89.0,89.0,0.0,0.0,0.0,0.0,0.049187794,0.049447536,0.052385293,0.052751992,5.3239613,5.5461373,2.6627629,2.7772038,-312.55774,-299.85754,14.792389,5.9410996,0.0,0.0,0.0,2.0,1.0,1.4189608,5.6506624E-4,-0.0024837255,89.0,89.0,89.0,89.0,21.842827,21.842827,24.816736,24.816736,0.01864245,0.018379055,-4.7418714E-4,-4.7436915E-4,1169.6918,0.0,0.0,0.0,0.0,0.0,0.0,0.0,0.0,0.0,0.0,0.0,0.0,0.0,77.02389,0.112331204,11.8573885,6.36727E-4,0.016082747,-7.4123986E-5,549970.1,119984.91,0.010601206,0.008311138,8265.045,8460.355,6013.4346,6179.861,0.30162048,0.0,0.0,0.0
140.0998,140.0998,1.866,0.0,0.0,281.14343,11317.0,100.0,0.0,-0.23984988,0.0,7.0,0.0,0.0,4000000.0,110.0,1.0,0.0,0.0,10.0,0.0,0.0,-664.6781,0.78990984,-996.2317,0.11642203,0.33197054,0.012024008,286.34277,286.34607,280.96378,281.05667,354.0,354.0,400.0,399.0,89.0,89.0,89.0,89.0,0.0,0.0,0.0,0.0,0.04903816,0.04932393,0.05245696,0.05284488,-5.6196747,-5.004331,0.17166136,0.81092113,-176.2077,-152.5238,-107.20788,-80.47967,0.0,0.0,0.0,2.0,1.0,1.4197515,6.1629503E-4,-0.0023249388,89.0,89.0,89.0,89.0,21.842827,21.842827,24.816736,24.816736,0.018668251,0.018389821,-4.7034348E-4,-4.697155E-4,1172.2324,0.0,0.0,0.0,0.0,0.0,0.0,0.0,0.0,0.0,0.0,0.0,0.0,0.0,77.19463,0.12673618,11.826397,0.0015440959,0.015576797,-0.0032851396,549995.9,119984.91,0.010577205,0.008564857,8201.919,8413.205,6036.7705,6214.4756,0.30174828,0.0,0.0,0.0
144.00974,144.00974,1.916,0.0,0.0,281.72498,11341.0,100.0,0.0,-0.27480417,0.0,7.0,0.0,0.0,4000000.0,110.0,1.0,0.0,0.0,10.0,0.0,0.0,-660.81396,0.796038,-995.6412,0.12220704,0.32868952,-0.027882881,286.94162,286.942,281.54468,281.6375,353.0,352.0,399.0,398.0,89.0,89.0,89.0,89.0,0.0,0.0,0.0,0.0,0.048925612,0.049218,0.052415766,0.05281619,0.8024275,1.2309103,-1.0487436,-0.62383705,195.73418,235.90025,-22.476906,6.2361355,0.0,0.0,0.0,2.0,1.0,1.4205145,6.439002E-4,-0.0022896528,89.0,89.0,89.0,89.0,21.842827,21.842827,24.816736,24.816736,0.018707886,0.01841748,-4.667605E-4,-4.7134087E-4,1174.7722,0.0,0.0,0.0,0.0,0.0,0.0,0.0,0.0,0.0,0.0,0.0,0.0,0.0,77.36316,0.116920374,11.793067,9.564888E-4,0.015754161,0.0015664794,550021.06,119984.914,0.010758539,0.008831431,8151.345,8366.4795,5995.1826,6178.0347,0.30195332,0.0,0.0,0.0
147.92783,147.92783,1.966,0.0,0.0,282.3015,11363.0,100.0,0.0,-0.2732991,0.0,7.0,0.0,0.0,4000000.0,110.0,1.0,0.0,0.0,10.0,0.0,0.0,-656.94135,0.8016706,-995.0525,0.12581916,0.32519782,-0.002968254,287.48856,287.49423,282.11743,282.21848,351.0,351.0,397.0,397.0,89.0,89.0,89.0,89.0,0.0,0.0,0.0,0.0,0.049088366,0.049390707,0.05241298,0.052846905,2.9593704,2.52977,0.79192215,1.1057405,-45.543907,-82.57179,51.471584,26.258821,0.0,0.0,0.0,2.0,1.0,1.4213428,6.7274366E-4,-0.0023305416,89.0,89.0,89.0,89.0,21.842827,21.842827,24.816736,24.816736,0.018578414,0.018281493,-4.6710804E-4,-4.6861853E-4,1177.1007,0.0,0.0,0.0,0.0,0.0,0.0,0.0,0.0,0.0,0.0,0.0,0.0,0.0,77.53073,0.11101177,11.75639,-2.2376205E-4,0.017028488,-5.511162E-4,550044.25,119984.91,0.0106756855,0.008516292,8226.049,8451.219,6017.607,6214.3374,0.30176067,0.0,0.0,0.0
151.85384,151.85384,2.016,0.0,0.0,282.86783,11385.0,100.0,0.0,-0.30244565,0.0,7.0,0.0,0.0,4000000.0,110.0,1.0,0.0,0.0,10.0,0.0,0.0,-653.0604,0.8072826,-994.4657,0.13497081,0.31828758,-7.094695E-4,288.05188,288.0745,282.6799,282.78918,350.0,349.0,396.0,395.0,89.0,89.0,89.0,89.0,0.0,0.0,0.0,0.0,0.049078856,0.049404074,0.052475132,0.052932207,-1.5840678,-0.9528547,0.68821007,1.4349817,-87.17178,-95.39275,-49.808613,-37.309517,0.0,0.0,0.0,2.0,1.0,1.4222354,6.9426827E-4,-0.0022814274,89.0,89.0,89.0,89.0,21.842827,21.842827,24.816736,24.816736,0.018537963,0.018274521,-4.6366753E-4,-4.6642154E-4,1179.083,0.0,0.0,0.0,0.0,0.0,0.0,0.0,0.0,0.0,0.0,0.0,0.0,0.0,77.69602,0.11288882,11.715447,5.2415987E-4,0.018483328,-3.4799217E-4,549905.9,119984.91,0.010461379,0.008459275,8227.682,8468.044,6059.98,6268.6904,0.30166245,0.0,0.0,0.0
155.78766,155.78766,2.066,0.0,0.0,283.42636,11407.0,100.0,0.0,-0.29467478,0.0,7.0,0.0,0.0,4000000.0,110.0,1.0,0.0,0.0,10.0,0.0,0.0,-649.1713,0.8129657,-993.88104,0.1397336,0.3151339,0.0078093787,288.5935,288.61493,283.23767,283.34808,349.0,348.0,394.0,394.0,89.0,89.0,89.0,89.0,0.0,0.0,0.0,0.0,0.04916423,0.04949813,0.052527074,0.05298895,2.5970488,2.7047842,0.7653236,0.71480864,35.887955,36.759678,-21.10898,-26.942783,0.0,0.0,0.0,2.0,1.0,1.4231647,7.087309E-4,-0.0023413897,89.0,89.0,89.0,89.0,21.842827,21.842827,24.816736,24.816736,0.018448973,0.018182011,-4.6329215E-4,-4.6451742E-4,1180.453,0.0,0.0,0.0,0.0,0.0,0.0,0.0,0.0,0.0,0.0,0.0,0.0,0.0,77.85953,0.115183055,11.671395,2.48389E-4,0.018575586,0.0018548046,549483.0,119984.9,0.010276521,0.0082245795,8270.456,8519.705,6092.427,6300.8896,0.30144024,0.0,0.0,0.0
159.72925,159.72925,2.116,0.0,0.0,283.97614,11428.0,100.0,0.0,-0.26670542,0.0,7.0,0.0,0.0,4000000.0,110.0,1.0,0.0,0.0,10.0,0.0,0.0,-645.27405,0.8188558,-993.2987,0.1398753,0.30958298,0.007159803,289.13684,289.15488,283.79037,283.89642,347.0,347.0,393.0,392.0,89.0,89.0,89.0,89.0,0.0,0.0,0.0,0.0,0.04918164,0.049520932,0.052544743,0.053014155,-0.45932826,-0.51409,0.52236015,0.5603581,-39.951496,-47.260513,3.6209803,-0.7644295,0.0,0.0,0.0,2.0,1.0,1.4240744,7.279714E-4,-0.0023565292,89.0,89.0,89.0,89.0,21.842827,21.842827,24.816736,24.816736,0.018376492,0.018114187,-4.6266752E-4,-4.608872E-4,1181.7155,0.0,0.0,0.0,0.0,0.0,0.0,0.0,0.0,0.0,0.0,0.0,0.0,0.0,78.02076,0.11987472,11.625732,1.7770618E-4,0.017717859,-5.9180503E-4,549059.9,119984.9,0.010194284,0.008119918,8285.693,8539.396,6102.113,6314.3213,0.30134296,0.0,0.0,0.0
163.67838,163.67838,2.166,0.0,0.0,284.51657,11449.0,100.0,0.0,-0.25474346,0.0,7.0,0.0,0.0,4000000.0,110.0,1.0,0.0,0.0,10.0,0.0,0.0,-641.36884,0.82486725,-992.7186,0.13740624,0.3047144,-0.0047568786,289.67862,289.69308,284.3348,284.43335,346.0,345.0,392.0,391.0,89.0,89.0,89.0,89.0,0.0,0.0,0.0,0.0,0.04916679,0.04949251,0.052562397,0.053026315,0.11980533,-0.30130145,0.3097951,0.11511146,29.15561,16.884502,3.1113622,-6.826221,0.0,0.0,0.0,2.0,1.0,1.4249266,7.204218E-4,-0.0023312569,89.0,89.0,89.0,89.0,21.842827,21.842827,24.816736,24.816736,0.018336054,0.018086346,-4.601652E-4,-4.5942923E-4,1182.9778,0.0,0.0,0.0,0.0,0.0,0.0,0.0,0.0,0.0,0.0,0.0,0.0,0.0,78.17926,0.11968804,11.580403,-3.2825134E-4,0.016458526,-2.8235564E-4,548638.2,119984.9,0.010202578,0.008170125,8280.876,8526.354,6109.592,6318.677,0.30136204,0.0,0.0,0.0
167.635,167.635,2.216,0.0,0.0,285.0491,11470.0,100.0,0.0,-0.22026168,0.0,7.0,0.0,0.0,4000000.0,110.0,1.0,0.0,0.0,10.0,0.0,0.0,-637.45575,0.830758,-992.1408,0.12991333,0.30026186,-0.008378158,290.20428,290.21664,284.87195,284.96194,344.0,344.0,390.0,390.0,89.0,89.0,89.0,89.0,0.0,0.0,0.0,0.0,0.049203698,0.04950744,0.052581754,0.053029828,1.6336887,0.69715077,0.97744155,0.19311903,100.60965,49.553806,65.79458,20.57254,0.0,0.0,0.0,2.0,1.0,1.4257171,6.805365E-4,-0.0023231506,89.0,89.0,89.0,89.0,21.842827,21.842827,24.816736,24.816736,0.018264877,0.0180368,-4.595987E-4,-4.568016E-4,1184.2622,0.0,0.0,0.0,0.0,0.0,0.0,0.0,0.0,0.0,0.0,0.0,0.0,0.0,78.33518,0.11593277,11.537163,-0.0014991647,0.014930055,-3.332761E-4,548228.3,119984.9,0.010141333,0.008102454,8301.602,8534.487,6125.4795,6325.349,0.30129623,0.0,0.0,0.0
171.59898,171.59898,2.266,0.0,0.0,285.57416,11490.0,100.0,0.0,-0.18964484,0.0,7.0,0.0,0.0,4000000.0,110.0,1.0,0.0,0.0,10.0,0.0,0.0,-633.5349,0.8365467,-991.565,0.12063266,0.29552364,0.0034836053,290.71207,290.708,285.4022,285.4827,343.0,342.0,389.0,388.0,89.0,89.0,89.0,89.0,0.0,0.0,0.0,0.0,0.04928913,0.049581245,0.05264453,0.05305388,0.552535,0.22575258,1.0997056,0.45686957,-122.55011,-156.23865,-20.465254,-20.264086,0.0,0.0,0.0,2.0,1.0,1.4264253,6.35751E-4,-0.0023059845,89.0,89.0,89.0,89.0,21.842827,21.842827,24.816736,24.816736,0.018154487,0.01789916,-4.5827654E-4,-4.5460786E-4,1185.4823,0.0,0.0,0.0,0.0,0.0,0.0,0.0,0.0,0.0,0.0,0.0,0.0,0.0,78.48842,0.11648482,11.497568,-8.899811E-4,0.013291569,-9.751395E-4,547837.9,119984.9,0.010073191,0.007996559,8348.812,8567.92,6164.24,6347.558,0.30122185,0.0,0.0,0.0
175.57027,175.57027,2.316,0.0,0.0,286.08942,11510.0,100.0,0.0,-0.16390719,0.0,7.0,0.0,0.0,4000000.0,110.0,1.0,0.0,0.0,10.0,0.0,0.0,-629.6065,0.84238017,-990.991,0.10898752,0.2904559,-0.0011256327,291.22406,291.2173,285.92398,285.99152,341.0,341.0,387.0,387.0,89.0,89.0,89.0,89.0,0.0,0.0,0.0,0.0,0.049304113,0.049557716,0.05271558,0.053085838,1.0234861,0.2170354,1.4354287,0.76107675,53.067493,51.257008,1.0460614,7.510185,0.0,0.0,0.0,2.0,1.0,1.4270309,5.8257434E-4,-0.0023038387,89.0,89.0,89.0,89.0,21.842827,21.842827,24.816736,24.816736,0.01809239,0.017868038,-4.5582643E-4,-4.5317877E-4,1186.6812,0.0,0.0,0.0,0.0,0.0,0.0,0.0,0.0,0.0,0.0,0.0,0.0,0.0,78.638084,0.116614126,11.463194,-0.0013557936,0.011151894,0.0011285681,547439.0,119984.9,0.009877153,0.007958706,8364.806,8561.002,6209.8867,6375.572,0.30112457,0.0,0.0,0.0
179.54858,179.54858,2.366,0.0,0.0,286.59784,11529.0,100.0,0.0,-0.16591416,0.0,7.0,0.0,0.0,4000000.0,110.0,1.0,0.0,0.0,10.0,0.0,0.0,-625.6707,0.84829146,-990.4187,0.10007491,0.2866446,0.020500846,291.70758,291.70306,286.435,286.4976,340.0,339.0,386.0,385.0,89.0,89.0,89.0,89.0,0.0,0.0,0.0,0.0,0.04944665,0.04968613,0.05278534,0.05313436,3.65898,3.608018,1.9544361,1.8543004,74.47152,83.29599,58.24416,80.68084,0.0,0.0,0.0,2.0,1.0,1.4275659,5.3461833E-4,-0.0023971796,89.0,89.0,89.0,89.0,21.842827,21.842827,24.816736,24.816736,0.017967455,0.017763663,-4.5320982E-4,-4.5321838E-4,1187.8171,0.0,0.0,0.0,0.0,0.0,0.0,0.0,0.0,0.0,0.0,0.0,0.0,0.0,78.78515,0.12166746,11.433266,-0.0016280687,0.0104495855,0.0018009761,547060.0,119984.89,0.009643261,0.007612755,8442.1875,8621.814,6262.3315,6420.111,0.30083275,0.0,0.0,0.0
183.53395,183.53395,2.416,0.0,0.0,287.09756,11549.0,100.0,0.0,-0.18223006,0.0,7.0,0.0,0.0,4000000.0,110.0,1.0,0.0,0.0,10.0,0.0,0.0,-621.72766,0.8546141,-989.84784,0.09591361,0.2812992,0.0064278883,292.20477,292.20435,286.9341,286.9993,338.0,338.0,385.0,384.0,89.0,89.0,89.0,89.0,0.0,0.0,0.0,0.0,0.04942769,0.04965033,0.052805476,0.05312867,-1.592785,-1.5036016,-0.14148651,-0.4830211,-43.666355,-28.672813,-30.61741,-16.871094,0.0,0.0,0.0,2.0,1.0,1.4281007,4.8888946E-4,-0.0024216175,89.0,89.0,89.0,89.0,21.842827,21.842827,24.816736,24.816736,0.017925302,0.017726958,-4.5023917E-4,-4.5232664E-4,1189.0299,0.0,0.0,0.0,0.0,0.0,0.0,0.0,0.0,0.0,0.0,0.0,0.0,0.0,78.929375,0.12901577,11.405781,-2.3159104E-4,0.010977526,-8.2612305E-4,546670.2,119984.91,0.009631728,0.007589467,8440.309,8608.3,6247.081,6391.869,0.30078697,0.0,0.0,0.0
187.52632,187.52632,2.466,0.0,0.0,287.5894,11569.0,100.0,0.0,-0.17507559,0.0,7.0,0.0,0.0,4000000.0,110.0,1.0,0.0,0.0,10.0,0.0,0.0,-617.7774,0.86097455,-989.27826,0.09296288,0.277371,-0.011733149,292.70078,292.7022,287.42514,287.49225,337.0,336.0,383.0,383.0,89.0,89.0,89.0,89.0,0.0,0.0,0.0,0.0,0.049372934,0.04959605,0.05279793,0.053111907,0.21636485,0.11108815,0.16137956,-0.09655952,60.899544,55.17303,16.99179,12.673435,0.0,0.0,0.0,2.0,1.0,1.428659,4.7502713E-4,-0.0023795366,89.0,89.0,89.0,89.0,21.842827,21.842827,24.816736,24.816736,0.017917272,0.017718561,-4.4939178E-4,-4.4981058E-4,1190.2438,0.0,0.0,0.0,0.0,0.0,0.0,0.0,0.0,0.0,0.0,0.0,0.0,0.0,79.071205,0.12489949,11.379452,-2.5040604E-4,0.011258735,-6.2159204E-4,546282.25,119984.9,0.0096692,0.0076547884,8414.186,8581.414,6245.07,6385.951,0.30083466,0.0,0.0,0.0
191.52554,191.52554,2.516,0.0,0.0,288.0743,11587.0,100.0,0.0,-0.18820857,0.0,7.0,0.0,0.0,4000000.0,110.0,1.0,0.0,0.0,10.0,0.0,0.0,-613.8201,0.8670942,-988.7099,0.0935646,0.273272,-0.0076116165,293.1742,293.17624,287.91003,287.97775,335.0,335.0,382.0,381.0,89.0,89.0,89.0,89.0,0.0,0.0,0.0,0.0,0.049428735,0.0496514,0.0528181,0.053125467,1.06059,1.2832134,0.4213303,0.48749146,-9.039043,2.3335216,2.2128222,14.6985035,0.0,0.0,0.0,2.0,1.0,1.4292228,4.762523E-4,-0.0023549795,89.0,89.0,89.0,89.0,21.842827,21.842827,24.816736,24.816736,0.017849132,0.01765068,-4.4695355E-4,-4.493846E-4,1191.2876,0.0,0.0,0.0,0.0,0.0,0.0,0.0,0.0,0.0,0.0,0.0,0.0,0.0,79.211044,0.12053937,11.353383,6.0096296E-4,0.0114386985,-6.104238E-4,545912.0,119984.9,0.009664441,0.007582938,8442.16,8608.438,6261.6914,6400.693,0.3007927,0.0,0.0,0.0
195.53178,195.53178,2.566,0.0,0.0,288.55127,11606.0,100.0,0.0,-0.18039045,0.0,7.0,0.0,0.0,4000000.0,110.0,1.0,0.0,0.0,10.0,0.0,0.0,-609.85596,0.8730302,-988.1428,0.09257375,0.26863325,-0.008963017,293.6455,293.64767,288.38766,288.45468,334.0,334.0,381.0,380.0,89.0,89.0,89.0,89.0,0.0,0.0,0.0,0.0,0.049439125,0.04965883,0.052846894,0.053154565,0.04738569,0.23849307,0.937879,1.0816007,17.890331,57.94912,39.629635,67.26979,0.0,0.0,0.0,2.0,1.0,1.4297849,4.8682166E-4,-0.0022985935,89.0,89.0,89.0,89.0,21.842827,21.842827,24.816736,24.816736,0.017798074,0.017602244,-4.4554615E-4,-4.4715637E-4,1192.4363,0.0,0.0,0.0,0.0,0.0,0.0,0.0,0.0,0.0,0.0,0.0,0.0,0.0,79.34861,0.11676404,11.32737,5.88887E-4,0.011294812,-8.812981E-4,545543.8,119984.9,0.009576315,0.0075593716,8452.865,8618.635,6285.991,6425.6777,0.30075264,0.0,0.0,0.0
199.54457,199.54457,2.616,0.0,0.0,289.02112,11624.0,100.0,0.0,-0.14448562,0.0,7.0,0.0,0.0,4000000.0,110.0,1.0,0.0,0.0,10.0,0.0,0.0,-605.88495,0.87876064,-987.57715,0.0874622,0.2650043,-0.008235537,294.10553,294.1071,288.86026,288.9218,333.0,332.0,379.0,379.0,89.0,89.0,89.0,89.0,0.0,0.0,0.0,0.0,0.04949061,0.049693864,0.052884594,0.053185865,1.5831738,1.2313573,1.2087821,0.9984522,73.251114,92.97876,81.08317,89.41142,0.0,0.0,0.0,2.0,1.0,1.4303209,4.670127E-4,-0.0022757053,89.0,89.0,89.0,89.0,21.842827,21.842827,24.816736,24.816736,0.017727673,0.017548695,-4.461035E-4,-4.4428415E-4,1193.4993,0.0,0.0,0.0,0.0,0.0,0.0,0.0,0.0,0.0,0.0,0.0,0.0,0.0,79.483986,0.112529665,11.302488,-6.893285E-4,0.01022557,-4.7066942E-4,545184.56,119984.9,0.009308721,0.0073629445,8480.729,8638.404,6311.1147,6446.9473,0.3005209,0.0,0.0,0.0
203.56369,203.56369,2.666,0.0,0.0,289.48474,11642.0,100.0,0.0,-0.14942777,0.0,7.0,0.0,0.0,4000000.0,110.0,1.0,0.0,0.0,10.0,0.0,0.0,-601.90735,0.88442135,-987.0127,0.08542611,0.26134926,0.008160129,294.55197,294.55362,289.32516,289.38416,331.0,331.0,378.0,377.0,89.0,89.0,89.0,89.0,0.0,0.0,0.0,0.0,0.049581565,0.049781527,0.052961677,0.053257875,1.3905017,1.4251469,1.2633203,1.2387334,-27.237831,-28.109549,-19.915401,-22.490322,0.0,0.0,0.0,2.0,1.0,1.4308227,4.4349296E-4,-0.0022851229,89.0,89.0,89.0,89.0,21.842827,21.842827,24.816736,24.816736,0.01763592,0.017464897,-4.4433482E-4,-4.4446017E-4,1194.582,0.0,0.0,0.0,0.0,0.0,0.0,0.0,0.0,0.0,0.0,0.0,0.0,0.0,79.617485,0.11481544,11.278367,-6.42907E-4,0.009865318,3.288752E-4,544835.5,119984.89,0.008918231,0.0070052943,8531.411,8682.736,6362.8555,6496.4683,0.3001423,0.0,0.0,0.0
206.2467,206.2467,2.716,0.0,0.0,289.79007,11654.0,100.0,0.0,-0.13980745,0.0,7.0,0.0,0.0,4000000.0,110.0,1.0,0.0,0.0,10.0,0.0,0.0,-599.25195,0.88829446,-986.63696,0.08145487,0.25875604,0.0042986977,294.85416,294.85403,289.63354,289.687,330.0,330.0,377.0,376.0,89.0,89.0,89.0,89.0,0.0,0.0,0.0,0.0,0.04959917,0.04978077,0.052984837,0.053258084,0.0,0.0,0.0,0.0,-46.938652,-51.37771,-18.064676,-46.0267,0.0,0.0,0.0,2.0,1.0,1.4311285,4.0678986E-4,-0.0022741556,89.0,89.0,89.0,89.0,21.842827,21.842827,24.816736,24.816736,0.017594015,0.017435621,-4.430808E-4,-4.4376825E-4,1195.2968,0.0,0.0,0.0,0.0,0.0,0.0,0.0,0.0,0.0,0.0,0.0,0.0,0.0,79.70519,0.116988115,11.26383,-6.5634213E-4,0.008939962,-0.0012760214,544600.1,119984.9,0.008795486,0.0068509006,8544.632,8686.958,6363.7593,6484.1226,0.29997635,0.0,0.0,0.0
211.61172,211.61172,2.766,0.0,0.0,288.89493,11221.0,100.0,0.0,-0.13342804,0.0,7.0,0.0,0.0,4000000.0,110.0,1.0,0.0,0.0,10.0,0.0,0.0,-593.94183,0.89694107,-985.88837,0.07588934,-0.7286776,-0.019215394,288.8677,288.89133,288.88626,288.93112,328.0,328.0,375.0,374.0,89.0,89.0,89.0,89.0,0.0,0.0,0.0,0.0,0.047737032,0.047923286,0.05350384,0.05375774,-39.53576,-39.639248,13.768225,13.684182,631.52594,622.031,121.26262,130.26144,0.0,0.0,0.0,2.0,1.0,1.4316807,4.0215984E-4,-8.614063E-4,89.0,89.0,89.0,89.0,21.842827,21.842827,24.816736,24.816736,-6.3800676E-6,-5.6648478E-5,3.9518032E-5,3.3834218E-5,1162.0712,0.0,0.0,0.0,0.0,0.0,0.0,0.0,0.0,0.0,0.0,0.0,0.0,0.0,79.46601,0.13456409,11.179061,0.004372747,0.007749794,-0.031023664,549893.0,0.0,0.008375479,0.009753901,8131.439,8266.012,6867.171,6981.605,0.30097103,0.0,0.0,0.0
215.62198,215.62198,2.816,0.0,0.0,288.70145,10786.0,100.0,0.0,-0.13497257,0.0,8.0,0.0,0.0,4000000.0,110.0,1.0,0.0,0.0,10.0,0.0,0.0,-589.97235,0.90212303,-985.3309,0.07133496,0.29808024,-0.16753276,294.44492,294.44696,288.52466,288.57578,327.0,326.0,374.0,373.0,89.0,89.0,89.0,89.0,0.0,0.0,0.0,0.0,0.048608523,0.049017046,0.05320014,0.05351759,65.78296,69.17216,-16.171484,-14.706551,3093.5254,3001.8342,-630.6811,-639.4117,0.0,0.0,0.0,2.0,1.0,1.4320883,4.8399076E-4,-0.0013531446,89.0,89.0,89.0,89.0,21.842827,21.842827,24.816736,24.816736,0.020062378,0.01991705,-4.8733762E-4,-4.8870506E-4,1108.977,0.0,0.0,0.0,0.0,0.0,0.0,0.0,0.0,0.0,0.0,0.0,0.0,0.0,79.41787,0.068496175,11.136006,-0.005545495,0.008577205,0.045393445,545932.75,119984.9,0.008977252,0.008812462,8108.9697,8205.521,6322.7085,6471.0586,0.3008976,0.0,0.0,0.0
219.63829,219.63829,2.866,0.0,0.0,289.3448,10433.0,100.0,0.0,-0.07580461,0.0,8.0,0.0,0.0,4000000.0,110.0,1.0,0.0,0.0,10.0,0.0,0.0,-585.99664,0.9051621,-984.77405,0.06216894,0.35999683,0.09051563,294.81653,294.8142,289.1812,289.22162,326.0,325.0,372.0,372.0,89.0,89.0,89.0,89.0,0.0,0.0,0.0,0.0,0.050349552,0.050455812,0.052792657,0.052986246,1.7892568,2.7711687,0.8808821,-1.168996,-1766.677,-1425.1782,541.3502,643.824,0.0,0.0,0.0,2.0,1.0,1.4324808,2.8995014E-4,-0.0024672747,89.0,89.0,89.0,89.0,21.842827,21.842827,24.816736,24.816736,0.018979969,0.01885668,-4.985348E-4,-4.932564E-4,1056.3763,0.0,0.0,0.0,0.0,0.0,0.0,0.0,0.0,0.0,0.0,0.0,0.0,0.0,79.59938,0.073156685,11.128411,-3.6876916E-4,0.0065337345,-0.007484951,537633.7,119984.9,0.008754425,0.0053022653,8870.008,8967.176,6222.4873,6305.474,0.29925728,0.0,0.0,0.0
223.6627,223.6627,2.916,0.0,0.0,289.83713,10370.0,100.0,0.0,-0.10441154,0.0,8.0,0.0,0.0,4000000.0,110.0,1.0,0.0,0.0,10.0,0.0,0.0,-582.0127,0.9098959,-984.21814,0.058317773,0.23647681,0.014812558,294.8303,294.8246,289.69705,289.7283,324.0,324.0,371.0,370.0,89.0,89.0,89.0,89.0,0.0,0.0,0.0,0.0,0.049537625,0.049675055,0.053076565,0.053269643,-21.865814,-21.487621,2.2058933,2.3118405,-467.3347,-488.02783,-446.58774,-455.09033,0.0,0.0,0.0,2.0,1.0,1.4327515,2.862529E-4,-0.0016210079,89.0,89.0,89.0,89.0,21.842827,21.842827,24.816736,24.816736,0.01727383,0.017163184,-4.3035627E-4,-4.3381826E-4,1043.9272,0.0,0.0,0.0,0.0,0.0,0.0,0.0,0.0,0.0,0.0,0.0,0.0,0.0,79.73876,0.105418585,11.118882,0.0024534492,0.005329062,-0.015347844,534525.56,119984.92,0.008828651,0.007050941,8512.746,8614.449,6441.5757,6528.741,0.30004025,0.0,0.0,0.0
227.69324,227.69324,2.966,0.0,0.0,290.25644,10387.0,100.0,0.0,-0.09559795,0.0,8.0,0.0,0.0,4000000.0,110.0,1.0,0.0,0.0,10.0,0.0,0.0,-578.02264,0.91383666,-983.66223,0.05130299,0.24010965,-0.14675823,295.32504,295.32053,290.11438,290.14474,323.0,322.0,370.0,369.0,89.0,89.0,89.0,89.0,0.0,0.0,0.0,0.0,0.049028303,0.049143888,0.05283253,0.053001367,3.113821,2.1135805,-3.506541,-4.4023986,1128.5795,1101.8782,268.7171,248.90895,0.0,0.0,0.0,2.0,1.0,1.4330118,2.5277166E-4,-0.0012967587,89.0,89.0,89.0,89.0,21.842827,21.842827,24.816736,24.816736,0.017559074,0.01745399,-4.3125605E-4,-4.334481E-4,1047.3143,0.0,0.0,0.0,0.0,0.0,0.0,0.0,0.0,0.0,0.0,0.0,0.0,0.0,79.857735,0.04645689,11.109446,-6.9570646E-4,0.0051399274,-2.668529E-4,535382.2,119984.92,0.009526051,0.008030455,8275.229,8364.52,6205.3105,6278.341,0.30084705,0.0,0.0,0.0
231.72969,231.72969,3.016,0.0,0.0,290.68332,10399.0,100.0,0.0,-0.08139966,0.0,8.0,0.0,0.0,4000000.0,110.0,1.0,0.0,0.0,10.0,0.0,0.0,-574.02655,0.91509444,-983.1072,0.048162322,0.2412486,-0.010645534,295.65994,295.66177,290.53848,290.57324,321.0,321.0,368.0,368.0,89.0,89.0,89.0,89.0,0.0,0.0,0.0,0.0,0.049670238,0.049794115,0.052938987,0.053110387,10.716318,10.905415,4.4649835,4.727617,-211.97495,-223.6291,120.310455,124.91047,0.0,0.0,0.0,2.0,1.0,1.433293,2.5696727E-4,-0.0013122559,89.0,89.0,89.0,89.0,21.842827,21.842827,24.816736,24.816736,0.017224457,0.017126372,-4.357757E-4,-4.349667E-4,1049.6829,0.0,0.0,0.0,0.0,0.0,0.0,0.0,0.0,0.0,0.0,0.0,0.0,0.0,79.978584,0.0172028,11.101353,-7.170104E-5,0.005783856,-0.0016867042,535973.75,119984.92,0.008802351,0.0067027733,8569.93,8659.531,6372.376,6450.361,0.29989338,0.0,0.0,0.0
235.77202,235.77202,3.066,0.0,0.0,291.10184,10413.0,100.0,0.0,-0.07723009,0.0,8.0,0.0,0.0,4000000.0,110.0,1.0,0.0,0.0,10.0,0.0,0.0,-570.0245,0.91632277,-982.55237,0.045960296,0.23499767,0.057725232,296.05264,296.05334,290.95963,290.98972,320.0,320.0,367.0,366.0,89.0,89.0,89.0,89.0,0.0,0.0,0.0,0.0,0.049863726,0.049964447,0.053219948,0.05337181,6.023794,6.0660386,6.1402464,6.003007,327.149,366.44333,65.17764,93.300644,0.0,0.0,0.0,2.0,1.0,1.433557,2.2456348E-4,-0.0011593103,89.0,89.0,89.0,89.0,21.842827,21.842827,24.816736,24.816736,0.01708037,0.016991958,-4.333401E-4,-4.3365016E-4,1052.4336,0.0,0.0,0.0,0.0,0.0,0.0,0.0,0.0,0.0,0.0,0.0,0.0,0.0,80.09684,0.035027675,11.094875,5.730275E-5,0.005035314,-0.0018985178,536655.8,119984.91,0.008233576,0.0063387654,8712.07,8791.303,6575.2637,6643.947,0.29944134,0.0,0.0,0.0
239.82019,239.82019,3.116,0.0,0.0,291.51154,10429.0,100.0,0.0,-0.089059874,0.0,8.0,0.0,0.0,4000000.0,110.0,1.0,0.0,0.0,10.0,0.0,0.0,-566.01654,0.91814214,-981.99756,0.045565873,0.23112012,-0.05361655,296.5208,296.5221,291.36957,291.40195,319.0,318.0,366.0,365.0,89.0,89.0,89.0,89.0,0.0,0.0,0.0,0.0,0.049525592,0.04963487,0.05304153,0.053199355,-7.6668706,-7.6239552,-5.360618,-5.285963,11.2786665,-3.6344144,-60.296055,-68.087875,0.0,0.0,0.0,2.0,1.0,1.4338181,2.2529166E-4,-9.251833E-4,89.0,89.0,89.0,89.0,21.842827,21.842827,24.816736,24.816736,0.017254457,0.017161893,-4.3009184E-4,-4.312607E-4,1055.6422,0.0,0.0,0.0,0.0,0.0,0.0,0.0,0.0,0.0,0.0,0.0,0.0,0.0,80.21267,0.028340243,11.088115,9.339696E-4,0.00547511,-0.008071106,537466.1,119984.91,0.009146649,0.0071437485,8523.59,8604.722,6322.4507,6393.6494,0.3001709,0.0,0.0,0.0
243.87334,243.87334,3.166,0.0,0.0,291.92056,10445.0,100.0,0.0,-0.07966239,0.0,8.0,0.0,1.0,4000000.0,110.0,1.0,0.0,0.0,10.0,0.0,0.0,-562.00287,0.9180638,-981.44336,0.04458022,0.23215324,-0.09389237,296.965,296.9664,291.77747,291.81012,317.0,317.0,365.0,364.0,89.0,89.0,89.0,89.0,0.0,0.0,0.0,0.0,0.04932519,0.04943207,0.052944183,0.05309639,5.1565466,5.170628,2.8695164,2.7865915,507.40683,509.49896,240.76845,243.24951,0.0,0.0,0.0,2.0,1.0,1.4340945,2.1608853E-4,-5.284548E-4,89.0,89.0,89.0,89.0,21.842827,21.842827,24.816736,24.816736,0.017377313,0.017284522,-4.3144694E-4,-4.311709E-4,1058.7761,0.0,0.0,0.0,0.0,0.0,0.0,0.0,0.0,0.0,0.0,0.0,0.0,0.0,80.328255,-0.025439134,11.081686,2.2909256E-4,0.0054579675,-0.0031886664,538235.94,119984.9,0.009083056,0.0074376687,8418.166,8497.91,6353.9854,6422.5293,0.30041027,0.0,0.0,0.0
247.93149,247.93149,3.216,0.0,0.0,292.3309,10457.0,100.0,0.0,-0.08413073,0.0,8.0,0.0,1.0,4000000.0,110.0,1.0,0.0,0.0,10.0,0.0,0.0,-557.9834,0.9163144,-980.88965,0.0437294,0.23219612,0.017818531,297.29575,297.29453,292.18826,292.21652,316.0,316.0,363.0,363.0,89.0,89.0,89.0,89.0,0.0,0.0,0.0,0.0,0.049887646,0.049978077,0.053174797,0.053314995,11.0873575,10.577291,3.8717685,3.4837422,-95.98285,-108.80378,-64.78875,-76.389305,0.0,0.0,0.0,2.0,1.0,1.4343449,1.9655106E-4,-6.337166E-4,89.0,89.0,89.0,89.0,21.842827,21.842827,24.816736,24.816736,0.017079791,0.016993536,-4.3277268E-4,-4.347602E-4,1061.1274,0.0,0.0,0.0,0.0,0.0,0.0,0.0,0.0,0.0,0.0,0.0,0.0,0.0,80.44406,-0.03505552,11.076239,-4.5195155E-4,0.0048004314,0.002846905,538812.25,119984.9,0.008159726,0.0061253584,8694.9,8769.021,6513.783,6575.951,0.2992611,0.0,0.0,0.0
251.9953,251.9953,3.266,0.0,0.0,292.73358,10471.0,100.0,0.0,0.045079995,100.0,8.0,0.0,1.0,4000000.0,110.0,1.0,0.0,0.0,10.0,0.0,0.0,-553.9582,0.9151301,-980.33594,0.02699779,0.22469248,0.020717096,297.71005,297.70645,292.60126,292.61472,315.0,314.0,362.0,361.0,89.0,89.0,89.0,89.0,0.0,0.0,0.0,0.0,0.04989877,0.049973577,0.05321656,0.0533414,-8.927285,-10.505318,-1.0485201,-2.3987887,-791.8416,-892.867,-199.87819,-289.08844,0.0,0.0,0.0,2.0,1.0,1.4345474,1.526785E-4,-3.9303303E-4,89.0,89.0,89.0,89.0,21.842827,21.842827,24.816736,24.816736,0.01702725,0.016981706,-4.3644645E-4,-4.2374962E-4,1063.9608,0.0,0.0,0.0,0.0,0.0,0.0,0.0,0.0,0.0,0.0,0.0,0.0,0.0,80.55732,-0.015833374,11.073757,-0.0018677235,0.001707697,-0.011666955,539528.6,119984.91,0.008572607,0.0063362494,8713.033,8772.686,6479.5176,6530.714,0.2995329,0.0,0.0,0.0
256.06494,256.06494,3.316,0.0,0.0,293.16443,10492.0,100.0,0.0,0.3605971,100.0,8.0,1.0,0.0,4000000.0,110.0,1.0,0.0,0.0,10.0,0.0,0.0,-549.92725,0.91417253,-979.7818,-0.033541754,0.25407887,-0.06402339,298.32065,298.2857,293.07318,292.9953,313.0,313.0,361.0,360.0,89.0,89.0,89.0,89.0,0.0,0.0,0.0,0.0,0.04900261,0.048888817,0.053154014,0.053058904,-20.788013,-24.706272,-1.5766917,-6.684288,-159.77919,-133.85558,-60.322876,-71.346756,0.0,0.0,0.0,2.0,1.0,1.4342228,-1.7094096E-4,2.808571E-4,89.0,89.0,89.0,89.0,21.842827,21.842827,24.816736,24.816736,0.01746516,0.017613605,-4.594174E-4,-4.2929934E-4,1068.118,0.0,0.0,0.0,0.0,0.0,0.0,0.0,0.0,0.0,0.0,0.0,0.0,0.0,80.67497,-0.03002735,11.096678,-0.0053979564,-0.014528089,-0.011522792,540552.6,119984.9,0.009469005,0.008586655,8232.823,8175.747,6390.5093,6332.5015,0.3011341,0.0,0.0,0.0
260.14108,260.14108,3.366,0.0,0.0,293.65668,10511.0,100.0,0.0,0.2511993,100.0,8.0,1.0,0.0,4000000.0,110.0,1.0,0.0,0.0,10.0,0.0,0.0,-545.88995,0.91202754,-979.22577,-0.070484385,0.2904823,-0.016977277,298.87726,298.83234,293.5808,293.4593,312.0,312.0,359.0,359.0,89.0,89.0,89.0,89.0,0.0,0.0,0.0,0.0,0.048682015,0.048494272,0.05310973,0.052864946,-3.4414976,-3.640428,-1.6786157,-3.2646952,75.58463,150.1098,-52.83951,34.050632,0.0,0.0,0.0,2.0,1.0,1.433251,-3.64068E-4,5.4740906E-4,89.0,89.0,89.0,89.0,21.842827,21.842827,24.816736,24.816736,0.017616717,0.017843813,-4.6152485E-4,-4.6437798E-4,1071.2236,0.0,0.0,0.0,0.0,0.0,0.0,0.0,0.0,0.0,0.0,0.0,0.0,0.0,80.80633,-0.050007332,11.145005,-8.4965164E-4,-0.020529298,-0.0045900517,541144.3,119984.89,0.009983483,0.009548035,8091.623,7958.6675,6364.1675,6249.109,0.3017454,0.0,0.0,0.0
264.22433,264.22433,3.416,0.0,0.0,294.20273,10535.0,100.0,0.0,-0.049475376,0.0,8.0,1.0,0.0,4000000.0,110.0,1.0,0.0,0.0,10.0,0.0,0.0,-541.8459,0.90963966,-978.66693,-0.06657272,0.3177568,0.008847512,299.5238,299.5216,294.09497,294.03134,311.0,310.0,358.0,357.0,89.0,89.0,89.0,89.0,0.0,0.0,0.0,0.0,0.048107438,0.04793662,0.052991543,0.052739613,-17.10914,-15.886051,-2.7240067,-1.702532,-345.11984,-259.35617,-24.622677,70.059296,0.0,0.0,0.0,2.0,1.0,1.4324433,-3.6587156E-4,0.0010727644,89.0,89.0,89.0,89.0,21.842827,21.842827,24.816736,24.816736,0.017991483,0.01815483,-4.6146885E-4,-4.9268565E-4,1074.4783,0.0,0.0,0.0,0.0,0.0,0.0,0.0,0.0,0.0,0.0,0.0,0.0,0.0,80.95161,-0.04607591,11.201843,0.0046761394,-0.009392339,-0.01460314,541551.94,119984.9,0.010807091,0.011163521,7773.2437,7640.7104,6285.482,6174.5,0.3029461,0.0,0.0,0.0
268.3155,268.3155,3.466,0.0,0.0,294.7791,10560.0,100.0,0.0,-0.17166983,0.0,8.0,1.0,0.0,4000000.0,110.0,1.0,0.0,0.0,10.0,0.0,0.0,-537.7942,0.9070409,-978.1056,-0.034642566,0.3268649,-0.0646621,300.22714,300.2625,294.62424,294.6493,309.0,309.0,357.0,356.0,89.0,89.0,89.0,89.0,0.0,0.0,0.0,0.0,0.046846613,0.046661407,0.052836165,0.052674826,-26.097893,-26.00245,-3.0264256,-1.310259,64.587585,156.11789,8.019804,7.7247615,0.0,0.0,0.0,2.0,1.0,1.4323864,-2.4326118E-4,0.00169909,89.0,89.0,89.0,89.0,21.842827,21.842827,24.816736,24.816736,0.018567434,0.018582672,-4.7131933E-4,-4.919607E-4,1077.9056,0.0,0.0,0.0,0.0,0.0,0.0,0.0,0.0,0.0,0.0,0.0,0.0,0.0,81.106995,-0.064412154,11.246812,0.0038364073,0.0053020087,-0.006865988,541993.2,119984.9,0.011647392,0.01347578,7384.2344,7335.3145,6193.517,6124.702,0.3044548,0.0,0.0,0.0
