LapDistance [m],TotalDistance [m],LapTime [s],Sector1Time [s],Sector2Time [s],Speed [km/h],EngineRevs [rpm],ThrottlePercentage [%],BrakePercentage [%],Steer [%],Clutch [%],Gear [int],DRS [0/1],CanUseDRS [0/1],KERSLevel [J],EngineTemperature [C],RacePosition [int],Sector [int],InPits [int],FuelRemaining [kg],CurrentFlag [int],CurrentLapInvalid [int],X [m],Y [m],Z [m],GForceLatitudinal [G],GForceLongitudinal [G],GForceVertical [G],WheelSpeedRearLeft [km/h],WheelSpeedRearRight [km/h],WheelSpeedFrontLeft [km/h],WheelSpeedFrontRight [km/h],BrakeTemperatureRearLeft [C],BrakeTemperatureRearRight [C],BrakeTemperatureFrontLeft [C],BrakeTemperatureFrontRight [C],TyreTemperatureRearLeft [C],TyreTemperatureRearRight [C],TyreTemperatureFrontLeft [C],TyreTemperatureFrontRight [C],TyreWearRearLeft [%],TyreWearRearRight [%],TyreWearFrontLeft [%],TyreWearFrontRight [%],SuspensionPositionRearLeft [m],SuspensionPositionRearRight [m],SuspensionPositionFrontLeft [m],SuspensionPositionFrontRight [m],SuspensionVelocityRearLeft [m/s],SuspensionVelocityRearRight [m/s],SuspensionVelocityFrontLeft [m/s],SuspensionVelocityFrontRight [m/s],SuspensionAccelerationRearLeft [m/s^2],SuspensionAccelerationRearRight [m/s^2],SuspensionAccelerationFrontLeft [m/s^2],SuspensionAccelerationFrontRight [m/s^2],MGUKHarvested [J],MGUHHarvested [J],ERSSpent [J],ERSMode [int],FuelMixMode [int],Yaw [rad],Roll [rad],Pitch [rad],TyreCarcassTemperatureRearLeft [C],TyreCarcassTemperatureRearRight [C],TyreCarcassTemperatureFrontLeft [C],TyreCarcassTemperatureFrontRight [C],TyrePressureRearLeft [PSI],TyrePressureRearRight [PSI],TyrePressureFrontLeft [PSI],TyrePressureFrontRight [PSI],WheelSlipRearLeft [%],WheelSlipRearRight [%],WheelSlipFrontLeft [%],WheelSlipFrontRight [%],Torque [Nm],Handbrake [%],RearLeftInside [C],RearLeftMiddle [C],RearLeftOutside [C],RearRightInside [C],RearRightMiddle [C],RearRightOutside [C],FrontLeftInside [C],FrontLeftMiddle [C],FrontLeftOutside [C],FrontRightInside [C],FrontRightMiddle [C],FrontRightOutside [C],WoldSpeedX [km/h],WoldSpeedY [km/h],WoldSpeedZ [km/h],LocalAngularVelocityX [rad/s],LocalAngularVelocityY [rad/s],LocalAngularVelocityZ [rad/s],IcePower [W],MgukPower [W],FrontRideHeight [m],RearRideHeight [m],LoadRearLeft [N],LoadRearRight [N],LoadFrontLeft [N],LoadFrontRight [N],Extra1 [m],Extra2 [],Extra3 [],Extra4 []
4.143851,4.143851,0.05,0.0,0.0,281.78732,11367.0,100.0,0.0,4.3381033,0.0,7.0,1.0,0.0,4000000.0,110.0,1.0,0.0,0.0,10.0,0.0,0.0,-176.8563,2.2964854,-239.69934,-2.2391005,0.4043103,0.053450704,287.49503,287.70657,282.3048,280.66843,488.0,489.0,554.0,556.0,93.0,93.0,93.0,93.0,0.0,0.0,0.0,0.0,0.05030727,0.039770592,0.056448214,0.047488626,-6.150752,12.047364,-4.315674,4.831105,-468.80984,-560.6889,-275.7981,23.375443,0.0,0.0,0.0,2.0,1.0,1.1886123,0.0040287487,-0.004503727,93.0,93.0,93.0,93.0,21.980246,21.980246,24.842789,24.842789,0.017958116,0.023823015,-4.7735815E-4,-5.278977E-4,1177.5238,0.0,0.0,0.0,0.0,0.0,0.0,0.0,0.0,0.0,0.0,0.0,0.0,0.0,73.20151,0.44494855,27.716425,0.00986938,-0.27443433,0.0062206956,550048.3,119984.91,0.014656533,0.016952397,8796.71,5429.455,7713.21,3666.6382,0.30777073,0.0,0.0,0.0
8.01629,8.01629,0.1,0.0,0.0,282.4142,11392.0,100.0,0.0,4.064381,0.0,7.0,1.0,0.0,4000000.0,110.0,1.0,0.0,0.0,10.0,0.0,0.0,-173.20224,2.3189762,-238.28505,-2.1772761,0.40430057,0.0079705985,288.1328,288.36765,282.90503,281.34366,486.0,487.0,552.0,554.0,93.0,93.0,93.0,93.0,0.0,0.0,0.0,0.0,0.050025057,0.039781954,0.056258634,0.047586676,-5.3094325,-2.511218,-2.5007126,1.8860399,40.25994,-87.07791,96.23764,48.29317,0.0,0.0,0.0,2.0,1.0,1.1752137,0.0043923194,-0.004507661,93.0,93.0,93.0,93.0,21.980246,21.980246,24.842789,24.842789,0.018083643,0.023752848,-4.7559018E-4,-5.310464E-4,1179.5168,0.0,0.0,0.0,0.0,0.0,0.0,0.0,0.0,0.0,0.0,0.0,0.0,0.0,72.973404,0.4510673,28.789383,0.0040386943,-0.26132044,0.0013115976,549770.2,119984.9,0.014540457,0.0170411,8637.498,5409.0576,7620.491,3686.0156,0.30780697,0.0,0.0,0.0
11.891072,11.891072,0.15,0.0,0.0,283.05118,11415.0,100.0,0.0,3.746929,0.0,7.0,1.0,0.0,4000000.0,110.0,1.0,0.0,0.0,10.0,0.0,0.0,-169.55959,2.3414893,-236.81802,-2.099245,0.40834138,0.008272357,288.72064,288.9346,283.50528,282.0423,484.0,485.0,550.0,552.0,93.0,93.0,93.0,93.0,0.0,0.0,0.0,0.0,0.049977098,0.03991729,0.05619367,0.047691427,1.8858163,9.647681,-2.3462622,1.3887136,225.35918,521.1531,-145.53664,-108.26735,0.0,0.0,0.0,2.0,1.0,1.1625808,0.004690968,-0.0046311617,93.0,93.0,93.0,93.0,21.980246,21.980246,24.842789,24.842789,0.01803224,0.023307713,-4.7443065E-4,-5.39576E-4,1180.9281,0.0,0.0,0.0,0.0,0.0,0.0,0.0,0.0,0.0,0.0,0.0,0.0,0.0,72.74666,0.4501963,29.82722,0.0078079454,-0.24399722,0.0077863513,549318.94,119984.9,0.014291819,0.016644107,8609.406,5512.45,7594.551,3735.8755,0.30734444,0.0,0.0,0.0
15.769101,15.769101,0.2,0.0,0.0,283.69778,11439.0,100.0,0.0,3.505154,0.0,7.0,1.0,0.0,4000000.0,110.0,1.0,0.0,0.0,10.0,0.0,0.0,-165.9281,2.363946,-235.3003,-2.0030448,0.40743196,0.0020498894,289.31973,289.53848,284.1122,282.75967,482.0,483.0,548.0,550.0,93.0,93.0,93.0,93.0,0.0,0.0,0.0,0.0,0.04990005,0.040465828,0.055919785,0.047894374,-3.0458717,7.5218077,-5.7189164,6.9625673,-58.780613,-255.77542,33.299614,190.83916,0.0,0.0,0.0,2.0,1.0,1.150891,0.0054151407,-0.004622221,93.0,93.0,93.0,93.0,21.980246,21.980246,24.842789,24.842789,0.017965043,0.02288164,-4.7868263E-4,-5.3200894E-4,1182.399,0.0,0.0,0.0,0.0,0.0,0.0,0.0,0.0,0.0,0.0,0.0,0.0,0.0,72.52626,0.44761255,30.821419,0.013260376,-0.22561161,0.0025197694,548849.2,119984.9,0.014184336,0.016257234,8542.292,5582.1113,7456.9937,3844.6694,0.30719852,0.0,0.0,0.0
19.651165,19.651165,0.266,0.0,0.0,284.35193,11464.0,100.0,0.0,3.3125355,0.0,7.0,1.0,0.0,4000000.0,110.0,1.0,0.0,0.0,10.0,0.0,0.0,-162.30739,2.3860881,-233.73404,-1.897484,0.40856087,-0.02337991,289.9602,290.15152,284.73907,283.4675,480.0,481.0,546.0,548.0,93.0,93.0,93.0,93.0,0.0,0.0,0.0,0.0,0.049685854,0.040683024,0.05571392,0.048059456,0.0,0.0,0.0,0.0,41.35966,204.19655,-108.75014,-14.322995,0.0,0.0,0.0,2.0,1.0,1.1399692,0.0060479185,-0.0044777393,93.0,93.0,93.0,93.0,21.980246,21.980246,24.842789,24.842789,0.01798599,0.02254631,-4.825882E-4,-5.2812265E-4,1183.9268,0.0,0.0,0.0,0.0,0.0,0.0,0.0,0.0,0.0,0.0,0.0,0.0,0.0,72.3156,0.43630588,31.767195,0.01186296,-0.21213736,0.0013395324,548359.9,119984.89,0.014277257,0.016252883,8412.621,5648.87,7342.912,3885.775,0.30706596,0.0,0.0,0.0
23.57156,23.57156,0.316,0.0,0.0,285.0134,11489.0,100.0,0.0,3.1447875,0.0,7.0,1.0,0.0,4000000.0,110.0,1.0,0.0,0.0,10.0,0.0,0.0,-158.69698,2.407421,-232.12178,-1.7968124,0.40731093,-0.028153986,290.60696,290.79822,285.37857,284.17645,478.0,479.0,544.0,546.0,93.0,93.0,93.0,93.0,0.0,0.0,0.0,0.0,0.049524,0.040932115,0.055533502,0.048251174,0.0,0.0,0.0,0.0,-138.6836,294.3992,37.72526,35.512444,0.0,0.0,0.0,2.0,1.0,1.129671,0.0066484557,-0.0042419434,93.0,93.0,93.0,93.0,21.980246,21.980246,24.842789,24.842789,0.017964888,0.022290984,-4.8431192E-4,-5.174137E-4,1185.4165,0.0,0.0,0.0,0.0,0.0,0.0,0.0,0.0,0.0,0.0,0.0,0.0,0.0,72.11665,0.41776538,32.664425,0.0120346695,-0.20094033,0.0013631782,547855.1,119984.91,0.014207099,0.01634159,8303.296,5706.244,7291.65,3997.628,0.3071518,0.0,0.0,0.0
27.509317,27.509317,0.35,0.0,0.0,285.68298,11513.0,100.0,0.0,2.9036517,0.0,7.0,1.0,0.0,4000000.0,110.0,1.0,0.0,0.0,10.0,0.0,0.0,-155.0961,2.4278026,-230.46591,-1.6950024,0.408606,-0.021709537,291.2334,291.37936,286.02347,284.89267,476.0,477.0,542.0,544.0,93.0,93.0,93.0,93.0,0.0,0.0,0.0,0.0,0.049554303,0.041346863,0.05533249,0.04851429,2.3985653,11.373236,-4.1466947,5.704164,120.095894,106.14841,89.626,-8.636712,0.0,0.0,0.0,2.0,1.0,1.1199334,0.007277891,-0.00415504,93.0,93.0,93.0,93.0,21.980246,21.980246,24.842789,24.842789,0.017880578,0.021840155,-4.8362516E-4,-5.2158785E-4,1186.8691,0.0,0.0,0.0,0.0,0.0,0.0,0.0,0.0,0.0,0.0,0.0,0.0,0.0,71.930695,0.39950213,33.514942,0.010967915,-0.18864898,0.0039096815,547383.06,119984.91,0.014049291,0.015944092,8299.504,5811.0654,7200.658,4123.1978,0.30694866,0.0,0.0,0.0
31.46082,31.46082,0.4,0.0,0.0,286.35794,11537.0,100.0,0.0,2.6150446,0.0,7.0,1.0,0.0,4000000.0,110.0,1.0,0.0,0.0,10.0,0.0,0.0,-151.50417,2.4474518,-228.76869,-1.5858881,0.40827948,-0.012689593,291.8674,291.98483,286.6692,285.62064,474.0,475.0,540.0,542.0,93.0,93.0,93.0,93.0,0.0,0.0,0.0,0.0,0.04952871,0.042006508,0.0551725,0.04875185,-0.6410479,14.151111,-3.574714,4.954263,100.47553,16.911333,-2.6017425,58.64649,0.0,0.0,0.0,2.0,1.0,1.1108437,0.007942811,-0.0040956736,93.0,93.0,93.0,93.0,21.980246,21.980246,24.842789,24.842789,0.017805876,0.021400394,-4.790391E-4,-5.2559044E-4,1188.291,0.0,0.0,0.0,0.0,0.0,0.0,0.0,0.0,0.0,0.0,0.0,0.0,0.0,71.75872,0.3872902,34.318558,0.01461,-0.17430504,0.005252789,546898.75,119984.91,0.013867907,0.015493348,8268.334,5933.7983,7132.379,4237.497,0.30659485,0.0,0.0,0.0
35.425465,35.425465,0.466,0.0,0.0,287.03934,11562.0,100.0,0.0,2.3325846,0.0,7.0,1.0,0.0,4000000.0,110.0,1.0,0.0,0.0,10.0,0.0,0.0,-147.92035,2.466551,-227.03275,-1.4642082,0.4077356,-0.013147807,292.50684,292.59756,287.30682,286.36777,472.0,473.0,538.0,540.0,93.0,93.0,93.0,93.0,0.0,0.0,0.0,0.0,0.04944715,0.042619526,0.0549418,0.049049336,0.0,0.0,0.0,0.0,20.746878,117.17227,-85.696556,-28.270481,0.0,0.0,0.0,2.0,1.0,1.1026065,0.008792151,-0.004027128,93.0,93.0,93.0,93.0,21.980246,21.980246,24.842789,24.842789,0.017776912,0.020913895,-4.7937717E-4,-5.2512455E-4,1189.8009,0.0,0.0,0.0,0.0,0.0,0.0,0.0,0.0,0.0,0.0,0.0,0.0,0.0,71.606155,0.37667885,35.068386,0.016443428,-0.15567163,0.006643773,546409.6,119984.9,0.0137369335,0.015159364,8193.122,6049.5576,7019.7144,4374.3564,0.30630684,0.0,0.0,0.0
39.402718,39.402718,0.5,0.0,0.0,287.7266,11588.0,100.0,0.0,1.9316094,0.0,7.0,1.0,0.0,4000000.0,110.0,1.0,0.0,0.0,10.0,0.0,0.0,-144.34348,2.4850805,-225.26094,-1.3121897,0.40699556,-0.013215731,293.1551,293.26657,287.9354,287.1395,470.0,471.0,536.0,538.0,93.0,93.0,93.0,93.0,0.0,0.0,0.0,0.0,0.04931735,0.043215528,0.054647587,0.049397115,-4.3456254,11.1676,-6.0968843,7.655918,-144.85268,-39.361435,-47.515324,44.02845,0.0,0.0,0.0,2.0,1.0,1.0954665,0.0097294105,-0.003920555,93.0,93.0,93.0,93.0,21.980246,21.980246,24.842789,24.842789,0.01780472,0.020554006,-4.7680057E-4,-5.263609E-4,1191.3539,0.0,0.0,0.0,0.0,0.0,0.0,0.0,0.0,0.0,0.0,0.0,0.0,0.0,71.479996,0.3651564,35.753765,0.01759811,-0.13117279,0.0072132926,545895.25,119984.89,0.013611354,0.0149461925,8084.816,6157.6406,6897.0366,4549.746,0.30623627,0.0,0.0,0.0
43.392017,43.392017,0.55,0.0,0.0,288.41913,11614.0,100.0,0.0,1.7397087,0.0,7.0,1.0,0.0,4000000.0,110.0,1.0,0.0,0.0,10.0,0.0,0.0,-140.77222,2.5030165,-223.4566,-1.1731886,0.40628242,-0.0026835967,293.8066,293.918,288.5846,287.89395,468.0,469.0,534.0,536.0,93.0,93.0,93.0,93.0,0.0,0.0,0.0,0.0,0.049255352,0.043842353,0.054419097,0.049727008,0.8871406,13.590081,-3.0659883,6.847903,138.76407,82.42423,116.30056,-0.026807783,0.0,0.0,0.0,2.0,1.0,1.0893948,0.010554237,-0.0038958788,93.0,93.0,93.0,93.0,21.980246,21.980246,24.842789,24.842789,0.017759189,0.020196011,-4.8389487E-4,-5.1494787E-4,1192.9135,0.0,0.0,0.0,0.0,0.0,0.0,0.0,0.0,0.0,0.0,0.0,0.0,0.0,71.38144,0.35451472,36.375896,0.013221598,-0.114283875,0.008224834,545386.2,119984.89,0.0133792255,0.014583687,8027.1973,6298.2866,6823.1875,4716.2246,0.30598354,0.0,0.0,0.0
47.393055,47.393055,0.6,0.0,0.0,289.11307,11640.0,100.0,0.0,1.8161157,0.0,7.0,1.0,0.0,4000000.0,110.0,1.0,0.0,0.0,10.0,0.0,0.0,-137.20522,2.5205445,-221.62259,-1.0757135,0.40330586,-0.0014602309,294.47723,294.56158,289.2676,288.60843,466.0,467.0,532.0,534.0,93.0,93.0,93.0,93.0,0.0,0.0,0.0,0.0,0.04928463,0.044502467,0.05419137,0.0499859,1.960024,12.168287,-3.7892904,4.6587734,98.77233,-142.8142,86.97063,-39.06635,0.0,0.0,0.0,2.0,1.0,1.0838478,0.01125248,-0.003947258,93.0,93.0,93.0,93.0,21.980246,21.980246,24.842789,24.842789,0.017650759,0.019922893,-4.974339E-4,-4.963607E-4,1194.4583,0.0,0.0,0.0,0.0,0.0,0.0,0.0,0.0,0.0,0.0,0.0,0.0,0.0,71.30477,0.3474676,36.946915,0.009195313,-0.11051313,0.004726281,544872.6,119984.9,0.013186126,0.01404168,8005.8555,6411.347,6704.3467,4817.796,0.3056202,0.0,0.0,0.0
51.40473,51.40473,0.666,0.0,0.0,289.45862,11550.0,100.0,0.0,1.8992629,0.0,7.0,1.0,0.0,4000000.0,110.0,1.0,0.0,0.0,10.0,0.0,0.0,-133.64235,2.5378256,-219.76118,-1.0344958,-0.1858409,0.04389932,289.92868,289.51035,289.7674,289.09634,464.0,465.0,530.0,532.0,93.0,93.0,93.0,93.0,0.0,0.0,0.0,0.0,0.04883968,0.04450742,0.054141305,0.05016739,0.0,0.0,0.0,0.0,-1565.6991,-1462.1927,193.17267,127.1501,0.0,0.0,0.0,2.0,1.0,1.0782042,0.011609771,-0.003678441,93.0,93.0,93.0,93.0,21.980246,21.980246,24.842789,24.842789,5.821022E-4,0.0014083572,-7.419749E-5,-3.9821643E-5,1189.088,0.0,0.0,0.0,0.0,0.0,0.0,0.0,0.0,0.0,0.0,0.0,0.0,0.0,71.153244,0.34871218,37.444435,0.014877228,-0.11350392,-0.023415308,546649.56,119984.89,0.012908445,0.014112768,8019.4824,6498.285,6730.5947,4933.415,0.30543613,0.0,0.0,0.0
55.41063,55.41063,0.716,0.0,0.0,288.5079,11062.0,100.0,0.0,1.8943144,0.0,8.0,1.0,0.0,4000000.0,110.0,1.0,0.0,0.0,10.0,0.0,0.0,-130.09755,2.5559425,-217.8808,-1.0007904,-0.4178566,0.019493816,291.2584,290.91776,288.7721,288.0916,462.0,463.0,528.0,530.0,93.0,93.0,93.0,93.0,0.0,0.0,0.0,0.0,0.046795826,0.041413214,0.054947097,0.05078624,0.0,0.0,0.0,0.0,222.20763,604.31506,-462.9894,-542.6242,0.0,0.0,0.0,2.0,1.0,1.0724324,0.011331445,-0.0019727945,93.0,93.0,93.0,93.0,21.980246,21.980246,24.842789,24.842789,0.006501649,0.007293913,-1.588604E-4,-6.567005E-5,1145.2517,0.0,0.0,0.0,0.0,0.0,0.0,0.0,0.0,0.0,0.0,0.0,0.0,0.0,70.68756,0.36838484,37.758785,0.001464949,-0.11825922,-0.016305536,549723.5,119984.92,0.012271897,0.0177033,7453.6396,6103.366,7337.6226,5431.805,0.30665207,0.0,0.0,0.0
59.414696,59.414696,0.749,0.0,0.0,289.04803,10693.0,100.0,0.0,1.7637863,0.0,8.0,1.0,0.0,4000000.0,110.0,1.0,0.0,0.0,10.0,0.0,0.0,-126.56686,2.5731726,-215.98051,-0.9547577,0.48884267,-0.14339143,295.08545,295.0893,289.2179,288.50214,460.0,461.0,526.0,528.0,93.0,93.0,93.0,93.0,0.0,0.0,0.0,0.0,0.047941133,0.04232493,0.054195665,0.05006333,47.49499,51.472034,-23.674068,-19.78263,1064.9308,1620.9526,-312.2225,-153.70398,0.0,0.0,0.0,2.0,1.0,1.0664221,0.011407422,-0.0030314922,93.0,93.0,93.0,93.0,21.980246,21.980246,24.842789,24.842789,0.019939572,0.022135803,-5.285559E-4,-5.5954116E-4,1096.1552,0.0,0.0,0.0,0.0,0.0,0.0,0.0,0.0,0.0,0.0,0.0,0.0,0.0,70.594986,0.31264168,38.248055,-0.011027126,-0.119450815,0.032682285,544313.94,119984.9,0.014165853,0.016631743,7537.9736,6287.8047,6452.9766,4588.995,0.3072796,0.0,0.0,0.0
63.431065,63.431065,0.799,0.0,0.0,289.8992,10396.0,100.0,0.0,1.6382074,0.0,8.0,1.0,0.0,4000000.0,110.0,1.0,0.0,0.0,10.0,0.0,0.0,-123.03752,2.5875368,-214.05426,-0.9471367,0.4892865,0.0038240748,295.56097,295.63095,290.05215,289.38324,458.0,459.0,524.0,526.0,93.0,93.0,93.0,93.0,0.0,0.0,0.0,0.0,0.04953476,0.045131996,0.053777218,0.049967937,13.838857,51.545795,-0.83148474,9.974464,-937.65985,-427.12827,386.3319,732.18933,0.0,0.0,0.0,2.0,1.0,1.0606574,0.011931986,-0.003848672,93.0,93.0,93.0,93.0,21.980246,21.980246,24.842789,24.842789,0.01916359,0.021412976,-5.266937E-4,-5.5807567E-4,1049.1146,0.0,0.0,0.0,0.0,0.0,0.0,0.0,0.0,0.0,0.0,0.0,0.0,0.0,70.5783,0.27885684,38.772575,0.01417499,-0.11106675,0.009955347,535838.2,119984.91,0.013394104,0.013409126,8036.007,6604.84,6511.3906,4814.508,0.30546093,0.0,0.0,0.0
67.45917,67.45917,0.849,0.0,0.0,290.5885,10403.0,100.0,0.0,1.4031957,0.0,8.0,1.0,0.0,4000000.0,110.0,1.0,0.0,0.0,10.0,0.0,0.0,-119.50989,2.602261,-212.10254,-0.8957386,0.3815709,0.07954733,295.78445,295.80807,290.7261,290.1283,456.0,457.0,522.0,524.0,93.0,93.0,93.0,93.0,0.0,0.0,0.0,0.0,0.04959676,0.046389554,0.053953636,0.0506461,-3.1547246,14.515221,1.0232626,8.628219,-359.1209,-559.18677,-366.8591,-384.8031,0.0,0.0,0.0,2.0,1.0,1.0554019,0.012718712,-0.0037173033,93.0,93.0,93.0,93.0,21.980246,21.980246,24.842789,24.842789,0.017048566,0.018911859,-4.716797E-4,-4.9757125E-4,1050.5044,0.0,0.0,0.0,0.0,0.0,0.0,0.0,0.0,0.0,0.0,0.0,0.0,0.0,70.52694,0.31107017,39.260857,0.013219322,-0.09917827,0.0037887106,536187.0,119984.91,0.012273728,0.012400232,8124.2803,6719.0264,6690.058,5212.037,0.30425453,0.0,0.0,0.0
71.49725,71.49725,0.899,0.0,0.0,291.24643,10429.0,100.0,0.0,1.1837829,0.0,8.0,1.0,0.0,4000000.0,110.0,1.0,0.0,0.0,10.0,0.0,0.0,-115.98476,2.6182203,-210.12743,-0.8141999,0.3785373,0.001969772,296.4956,296.55484,291.34277,290.83426,454.0,455.0,521.0,522.0,93.0,93.0,93.0,93.0,0.0,0.0,0.0,0.0,0.049233686,0.046227027,0.053780638,0.050764296,-10.3041525,-9.27396,-3.5648792,0.23514031,-274.84592,-164.1109,-44.913593,-65.35201,0.0,0.0,0.0,2.0,1.0,1.0508451,0.01312097,-0.003543377,93.0,93.0,93.0,93.0,21.980246,21.980246,24.842789,24.842789,0.01732275,0.019027587,-4.7129483E-4,-4.959294E-4,1055.6095,0.0,0.0,0.0,0.0,0.0,0.0,0.0,0.0,0.0,0.0,0.0,0.0,0.0,70.483734,0.32033595,39.711952,0.008209018,-0.08407157,0.0023034043,537449.44,119984.9,0.012603783,0.013057197,7896.302,6619.1562,6536.458,5180.2124,0.30481815,0.0,0.0,0.0
75.545105,75.545105,0.966,0.0,0.0,291.90723,10453.0,100.0,0.0,1.1445168,0.0,8.0,1.0,0.0,4000000.0,110.0,1.0,0.0,0.0,10.0,0.0,0.0,-112.46126,2.6337373,-208.13074,-0.7251728,0.37950352,-0.035157666,297.17474,297.24545,291.95966,291.5368,452.0,453.0,519.0,521.0,93.0,93.0,93.0,93.0,0.0,0.0,0.0,0.0,0.048955917,0.045980256,0.053531166,0.050779738,0.0,0.0,0.0,0.0,11.184811,113.618355,100.62307,174.0217,0.0,0.0,0.0,2.0,1.0,1.0469964,0.013467594,-0.003414154,93.0,93.0,93.0,93.0,21.980246,21.980246,24.842789,24.842789,0.017477412,0.018967122,-4.948466E-4,-4.949764E-4,1060.3776,0.0,0.0,0.0,0.0,0.0,0.0,0.0,0.0,0.0,0.0,0.0,0.0,0.0,70.46059,0.3004255,40.125404,0.0075587984,-0.070682935,0.0012654352,538637.5,119984.9,0.0129008,0.013440465,7757.633,6652.898,6408.825,5177.5576,0.30527115,0.0,0.0,0.0
79.602486,79.602486,0.999,0.0,0.0,292.55307,10486.0,100.0,0.0,1.2083697,0.0,8.0,1.0,0.0,4000000.0,110.0,1.0,0.0,0.0,10.0,0.0,0.0,-108.938446,2.6482792,-206.11452,-0.63761747,0.37741274,-0.017350534,298.40176,297.91605,292.61798,292.1699,450.0,451.0,517.0,519.0,93.0,93.0,93.0,93.0,0.0,0.0,0.0,0.0,0.048951868,0.046377346,0.053412274,0.051019367,3.0630825,15.611796,-3.3348796,6.551742,267.32233,424.31198,-46.254684,71.23946,0.0,0.0,0.0,2.0,1.0,1.043406,0.013988483,-0.0033767223,93.0,93.0,93.0,93.0,21.980246,21.980246,24.842789,24.842789,0.019362777,0.019064313,-5.177731E-4,-4.7213497E-4,1066.9664,0.0,0.0,0.0,0.0,0.0,0.0,0.0,0.0,0.0,0.0,0.0,0.0,0.0,70.45498,0.28411946,40.496582,0.0071658664,-0.07725301,0.0055159545,540278.75,119984.9,0.012578178,0.013054985,7736.246,6789.3867,6385.398,5328.562,0.30486298,0.0,0.0,0.0
83.66931,83.66931,1.049,0.0,0.0,293.21487,10509.0,100.0,0.0,1.1850231,0.0,8.0,1.0,0.0,4000000.0,110.0,1.0,0.0,0.0,10.0,0.0,0.0,-105.41568,2.6624615,-204.08002,-0.6506906,0.37786466,0.010822205,299.0343,298.53992,293.30463,292.8063,448.0,449.0,515.0,517.0,93.0,93.0,93.0,93.0,0.0,0.0,0.0,0.0,0.049296048,0.047090102,0.05344857,0.051123597,4.367977,10.646358,1.0375677,0.0911951,-112.77345,-282.8255,31.12703,-90.55136,0.0,0.0,0.0,2.0,1.0,1.0392901,0.014127408,-0.0034736395,93.0,93.0,93.0,93.0,21.980246,21.980246,24.842789,24.842789,0.019151084,0.018973032,-5.07901E-4,-4.814474E-4,1070.9243,0.0,0.0,0.0,0.0,0.0,0.0,0.0,0.0,0.0,0.0,0.0,0.0,0.0,70.455154,0.2840415,40.863926,-4.4055938E-4,-0.085026726,5.139529E-4,541096.06,119984.9,0.012322111,0.012352067,7885.6787,6848.195,6420.91,5362.2764,0.3043928,0.0,0.0,0.0
87.74591,87.74591,1.099,0.0,0.0,293.8694,10532.0,100.0,0.0,0.91234714,0.0,8.0,1.0,0.0,4000000.0,110.0,1.0,0.0,0.0,10.0,0.0,0.0,-101.893,2.6767309,-202.02711,-0.6369294,0.37359762,0.0030440306,299.68246,299.20502,293.94464,293.47974,446.0,447.0,513.0,515.0,93.0,93.0,93.0,93.0,0.0,0.0,0.0,0.0,0.049310196,0.047290057,0.05344028,0.051169876,-2.3096054,1.5427171,-0.8435547,0.74721867,-116.62244,-126.506386,-8.690356,15.100834,0.0,0.0,0.0,2.0,1.0,1.0351623,0.014257598,-0.0034261942,93.0,93.0,93.0,93.0,21.980246,21.980246,24.842789,24.842789,0.019142348,0.01890101,-4.905468E-4,-4.9492106E-4,1074.067,0.0,0.0,0.0,0.0,0.0,0.0,0.0,0.0,0.0,0.0,0.0,0.0,0.0,70.4524,0.28506678,41.229816,0.005945782,-0.077891305,6.268828E-4,541498.9,119984.91,0.01229859,0.012219402,7894.579,6847.5293,6408.961,5383.452,0.30433846,0.0,0.0,0.0
91.83178,91.83178,1.149,0.0,0.0,294.51904,10555.0,100.0,0.0,0.4206852,0.0,8.0,1.0,0.0,4000000.0,110.0,1.0,0.0,0.0,10.0,0.0,0.0,-98.37026,2.6908221,-199.95642,-0.559504,0.37143168,-0.011489917,300.31668,299.88733,294.53165,294.19946,444.0,445.0,511.0,513.0,93.0,93.0,93.0,93.0,0.0,0.0,0.0,0.0,0.049170546,0.04736357,0.05333712,0.051317345,-2.1088867,3.382042,-2.9624996,2.9401479,18.23902,214.01343,-110.66793,4.117183,0.0,0.0,0.0,2.0,1.0,1.0318204,0.014602207,-0.0033510923,93.0,93.0,93.0,93.0,21.980246,21.980246,24.842789,24.842789,0.019272001,0.018757692,-4.7491633E-4,-5.0768844E-4,1077.2153,0.0,0.0,0.0,0.0,0.0,0.0,0.0,0.0,0.0,0.0,0.0,0.0,0.0,70.46032,0.27804446,41.57259,0.009956322,-0.054074995,0.0057137934,541902.7,119984.9,0.012177514,0.012235905,7817.9385,6888.9395,6359.625,5461.617,0.30420494,0.0,0.0,0.0
95.92685,95.92685,1.216,0.0,0.0,295.1676,10577.0,100.0,0.0,0.19757794,0.0,8.0,1.0,0.0,4000000.0,110.0,1.0,0.0,0.0,10.0,0.0,0.0,-94.84652,2.7046003,-197.8697,-0.45352724,0.36907303,0.0031229632,300.91354,300.54263,295.1058,294.92703,442.0,443.0,509.0,511.0,93.0,93.0,93.0,93.0,0.0,0.0,0.0,0.0,0.049153287,0.047961365,0.053161003,0.051584683,0.0,0.0,0.0,0.0,-310.34494,-49.44654,-217.41985,-75.9199,0.0,0.0,0.0,2.0,1.0,1.0298156,0.015255549,-0.0033955574,93.0,93.0,93.0,93.0,21.980246,21.980246,24.842789,24.842789,0.019285228,0.01850002,-4.8475436E-4,-4.9922476E-4,1080.2263,0.0,0.0,0.0,0.0,0.0,0.0,0.0,0.0,0.0,0.0,0.0,0.0,0.0,70.492065,0.27502185,41.872627,0.012233033,-0.028810458,0.009103581,542287.06,119984.91,0.012062085,0.011892009,7783.4937,7021.465,6281.7905,5599.086,0.30401707,0.0,0.0,0.0
100.03099,100.03099,1.249,0.0,0.0,295.81345,10599.0,100.0,0.0,0.15390705,0.0,8.0,1.0,0.0,4000000.0,110.0,1.0,0.0,0.0,10.0,0.0,0.0,-91.32048,2.7182794,-195.76926,-0.34290496,0.36631823,0.008357003,301.55423,301.16815,295.71246,295.61575,440.0,441.0,507.0,509.0,93.0,93.0,93.0,93.0,0.0,0.0,0.0,0.0,0.049045023,0.048283365,0.052968998,0.051843073,-2.1196156,1.8840282,-0.95464283,6.509721,5.0693746,-206.16797,248.86873,103.03705,0.0,0.0,0.0,2.0,1.0,1.0287745,0.015911683,-0.0034028292,93.0,93.0,93.0,93.0,21.980246,21.980246,24.842789,24.842789,0.01933188,0.018273067,-4.973905E-4,-4.861931E-4,1083.2487,0.0,0.0,0.0,0.0,0.0,0.0,0.0,0.0,0.0,0.0,0.0,0.0,0.0,70.55105,0.27349293,42.124226,0.0075871195,-0.016186086,0.005440979,542675.56,119984.9,0.011844654,0.011701778,7700.837,7144.589,6240.1514,5746.9023,0.30399704,0.0,0.0,0.0
104.14415,104.14415,1.299,0.0,0.0,296.45486,10621.0,100.0,0.0,0.31539023,0.0,8.0,1.0,0.0,4000000.0,110.0,1.0,0.0,0.0,10.0,0.0,0.0,-87.790924,2.7319286,-193.65721,-0.27946773,0.36353523,0.0015877478,302.19522,301.7692,296.3599,296.25183,438.0,439.0,506.0,507.0,93.0,93.0,93.0,93.0,0.0,0.0,0.0,0.0,0.04908095,0.04842439,0.05285021,0.051948138,2.9875336,3.8120892,-2.261996,0.7478892,184.53595,22.503717,39.884445,-76.57705,0.0,0.0,0.0,2.0,1.0,1.0279335,0.01623378,-0.0034492016,93.0,93.0,93.0,93.0,21.980246,21.980246,24.842789,24.842789,0.019247487,0.01812672,-5.10704E-4,-4.7340288E-4,1086.2595,0.0,0.0,0.0,0.0,0.0,0.0,0.0,0.0,0.0,0.0,0.0,0.0,0.0,70.629005,0.27234104,42.34096,0.0042585307,-0.019465454,0.0012373881,543056.75,119984.89,0.011850394,0.011411863,7696.63,7236.2104,6147.023,5747.857,0.30368137,0.0,0.0,0.0
108.26617,108.26617,1.349,0.0,0.0,297.08917,10644.0,100.0,0.0,0.36558053,0.0,8.0,1.0,0.0,4000000.0,110.0,1.0,0.0,0.0,10.0,0.0,0.0,-84.257225,2.7454708,-191.53493,-0.25031313,0.35849255,-0.0108421445,302.8739,302.39517,297.01773,296.8638,436.0,437.0,504.0,506.0,93.0,93.0,93.0,93.0,0.0,0.0,0.0,0.0,0.048963588,0.048371736,0.052837186,0.05203424,-2.442598,-1.2054293,0.36031005,1.8051265,8.958577,27.452408,5.847215,19.00345,0.0,0.0,0.0,2.0,1.0,1.0267446,0.016374042,-0.0033339262,93.0,93.0,93.0,93.0,21.980246,21.980246,24.842789,24.842789,0.01927649,0.018134063,-5.059637E-4,-4.7345934E-4,1089.4138,0.0,0.0,0.0,0.0,0.0,0.0,0.0,0.0,0.0,0.0,0.0,0.0,0.0,70.71476,0.26829594,42.54044,0.0025275748,-0.027218735,-9.703811E-5,543456.8,119984.91,0.0116684325,0.011530812,7632.3687,7228.218,6171.7085,5813.508,0.30366802,0.0,0.0,0.0
112.397,112.397,1.399,0.0,0.0,297.71838,10665.0,100.0,0.0,0.31715843,0.0,8.0,1.0,0.0,4000000.0,110.0,1.0,0.0,0.0,10.0,0.0,0.0,-80.71917,2.7589304,-189.4028,-0.24051005,0.35578245,0.00152798,303.48065,302.98978,297.6538,297.48602,435.0,436.0,502.0,504.0,93.0,93.0,93.0,93.0,0.0,0.0,0.0,0.0,0.049101602,0.04853131,0.052859344,0.052106373,1.6412883,1.0339915,-0.9322911,-0.6323307,-89.07616,-89.572365,-39.93809,-124.49471,0.0,0.0,0.0,2.0,1.0,1.0253063,0.016404605,-0.003379345,93.0,93.0,93.0,93.0,21.980246,21.980246,24.842789,24.842789,0.019147113,0.01799781,-4.996029E-4,-4.782385E-4,1092.3041,0.0,0.0,0.0,0.0,0.0,0.0,0.0,0.0,0.0,0.0,0.0,0.0,0.0,70.80272,0.26935378,42.733097,-3.5041926E-4,-0.029178705,2.1761865E-5,543825.7,119984.9,0.01163261,0.011306807,7697.1465,7301.1895,6172.909,5830.499,0.30356026,0.0,0.0,0.0
116.5366,116.5366,1.449,0.0,0.0,298.3428,10688.0,100.0,0.0,0.28128487,0.0,8.0,1.0,0.0,4000000.0,110.0,1.0,0.0,0.0,10.0,0.0,0.0,-77.176735,2.7714796,-187.26112,-0.23762587,0.35504708,-0.041893564,304.14877,303.65872,298.2761,298.11307,433.0,434.0,500.0,502.0,93.0,93.0,93.0,93.0,0.0,0.0,0.0,0.0,0.04887679,0.048318982,0.052816384,0.052059844,2.504289,2.3970006,5.1008906,5.1797924,446.2525,333.89474,257.3579,263.983,0.0,0.0,0.0,2.0,1.0,1.0238644,0.016405934,-0.0030845404,93.0,93.0,93.0,93.0,21.980246,21.980246,24.842789,24.842789,0.019268941,0.018111885,-4.972186E-4,-4.804847E-4,1095.4845,0.0,0.0,0.0,0.0,0.0,0.0,0.0,0.0,0.0,0.0,0.0,0.0,0.0,70.89044,0.23825245,42.92345,0.0019001965,-0.028094355,-0.0027259781,544235.44,119984.9,0.010434956,0.01079579,7606.437,7212.7812,6211.495,5867.9795,0.30271244,0.0,0.0,0.0
120.685196,120.685196,1.516,0.0,0.0,298.97083,10708.0,100.0,0.0,0.26099524,0.0,8.0,1.0,0.0,4000000.0,110.0,1.0,0.0,0.0,10.0,0.0,0.0,-73.62987,2.7831264,-185.10992,-0.23208538,0.35646445,0.0060409,304.69214,304.20132,298.8975,298.74527,431.0,432.0,498.0,500.0,93.0,93.0,93.0,93.0,0.0,0.0,0.0,0.0,0.049300253,0.048784435,0.05296635,0.052215286,0.0,0.0,0.0,0.0,-151.4509,-75.93332,-61.79809,-5.6728644,0.0,0.0,0.0,2.0,1.0,1.0225017,0.016456287,-0.0030952692,93.0,93.0,93.0,93.0,21.980246,21.980246,24.842789,24.842789,0.018963214,0.0177709,-4.9963826E-4,-4.8251127E-4,1098.2083,0.0,0.0,0.0,0.0,0.0,0.0,0.0,0.0,0.0,0.0,0.0,0.0,0.0,70.97969,0.23172162,43.112743,0.0019087602,-0.026314922,0.0010702455,544569.56,119984.9,0.008986053,0.009082623,7786.2627,7410.715,6277.261,5938.4253,0.3010645,0.0,0.0,0.0
124.84249,124.84249,1.566,0.0,0.0,299.59137,10727.0,100.0,0.0,0.26163873,0.0,8.0,1.0,0.0,4000000.0,110.0,1.0,0.0,0.0,10.0,0.0,0.0,-70.07852,2.7957351,-182.94933,-0.22657323,0.34623995,0.10675386,305.2333,304.74692,299.51764,299.3706,429.0,430.0,496.0,498.0,93.0,93.0,93.0,93.0,0.0,0.0,0.0,0.0,0.04985311,0.049348366,0.05315771,0.052450392,0.0,0.0,0.0,0.0,-3140.9736,-2996.872,-1609.741,-1472.4521,0.0,0.0,0.0,2.0,1.0,1.0212035,0.0165462,-0.0029956102,93.0,93.0,93.0,93.0,21.980246,21.980246,24.842789,24.842789,0.018620528,0.017426476,-4.9660937E-4,-4.7770824E-4,1100.8319,0.0,0.0,0.0,0.0,0.0,0.0,0.0,0.0,0.0,0.0,0.0,0.0,0.0,71.06775,0.27929378,43.299377,0.006042499,-0.025375623,-0.0069003915,544903.7,119984.89,0.009800138,0.009076578,7968.24,7602.372,6301.948,5991.71,0.3012972,0.0,0.0,0.0
129.00815,129.00815,1.599,0.0,0.0,300.18018,10764.0,100.0,0.0,0.2519242,0.0,8.0,1.0,0.0,4000000.0,110.0,1.0,0.0,0.0,10.0,0.0,0.0,-66.52291,2.8080893,-180.77966,-0.21745121,0.3300299,-0.36675477,306.30368,305.7894,300.1072,299.9672,427.0,428.0,495.0,496.0,93.0,93.0,93.0,93.0,0.0,0.0,0.0,0.0,0.047697455,0.04717487,0.052302293,0.051626667,-60.110313,-59.243065,-18.665045,-19.452944,-1324.8904,-1203.668,-185.83687,-262.26642,0.0,0.0,0.0,2.0,1.0,1.0199862,0.016544232,-0.0017729998,93.0,93.0,93.0,93.0,21.980246,21.980246,24.842789,24.842789,0.020165112,0.018887741,-4.8806815E-4,-4.651488E-4,1105.9321,0.0,0.0,0.0,0.0,0.0,0.0,0.0,0.0,0.0,0.0,0.0,0.0,0.0,71.151886,0.18319938,43.476017,0.015459244,-0.024053529,-0.02582151,545546.5,119984.9,0.011957519,0.012554224,6911.562,6561.888,5588.898,5277.9727,0.3040228,0.0,0.0,0.0
133.18213,133.18213,1.649,0.0,0.0,300.7957,10779.0,100.0,0.0,0.0715859,0.0,8.0,1.0,0.0,4000000.0,110.0,1.0,0.0,0.0,10.0,0.0,0.0,-62.962875,2.8135676,-178.60126,-0.19327208,0.3499344,-0.17260581,306.73987,306.21918,300.70602,300.5896,425.0,426.0,493.0,495.0,93.0,93.0,93.0,93.0,0.0,0.0,0.0,0.0,0.04790085,0.046953447,0.05258572,0.051782027,27.732252,23.291183,8.676051,8.687451,1373.5322,1684.4404,19.580095,283.12057,0.0,0.0,0.0,2.0,1.0,1.0188459,0.01646667,-9.266138E-4,93.0,93.0,93.0,93.0,21.980246,21.980246,24.842789,24.842789,0.01969418,0.018292531,-4.885656E-4,-4.8559834E-4,1108.0175,0.0,0.0,0.0,0.0,0.0,0.0,0.0,0.0,0.0,0.0,0.0,0.0,0.0,71.24635,0.0611773,43.649555,0.0045594187,-0.01958959,-0.0032710435,545814.56,119984.9,0.010613315,0.011508994,7308.447,7072.4155,6099.499,5736.629,0.3027897,0.0,0.0,0.0
137.36467,137.36467,1.716,0.0,0.0,301.4125,10794.0,100.0,0.0,-0.037070043,0.0,8.0,1.0,0.0,4000000.0,110.0,1.0,0.0,0.0,10.0,0.0,0.0,-59.397884,2.8153849,-176.41447,-0.15589026,0.34936404,-0.024454787,307.1273,306.66895,301.2917,301.23666,423.0,424.0,491.0,493.0,93.0,93.0,93.0,93.0,0.0,0.0,0.0,0.0,0.049234796,0.04902035,0.05271022,0.05222314,0.0,0.0,0.0,0.0,-1029.8206,-898.607,-146.71681,-25.534628,0.0,0.0,0.0,2.0,1.0,1.018142,0.016943151,-8.254051E-4,93.0,93.0,93.0,93.0,21.980246,21.980246,24.842789,24.842789,0.018955898,0.017579474,-4.9149914E-4,-4.8841216E-4,1110.0857,0.0,0.0,0.0,0.0,0.0,0.0,0.0,0.0,0.0,0.0,0.0,0.0,0.0,71.34908,0.024670195,43.80982,0.0153971,-0.009124854,0.0024463832,546073.5,119984.9,0.009349612,0.008722122,7737.1016,7452.867,6144.8257,5946.9897,0.30082607,0.0,0.0,0.0
141.55566,141.55566,1.749,0.0,0.0,302.00818,10816.0,100.0,0.0,-0.2672524,0.0,8.0,1.0,0.0,4000000.0,110.0,1.0,0.0,0.0,10.0,0.0,0.0,-55.827446,2.817614,-174.22038,-0.082018286,0.32849663,-0.06749281,307.74704,307.30862,301.85278,301.87875,422.0,422.0,489.0,491.0,93.0,93.0,93.0,93.0,0.0,0.0,0.0,0.0,0.0490351,0.04887802,0.052664373,0.05239512,-30.799582,-32.87315,-7.3711567,-7.9672785,-996.69543,-1024.0001,-158.93425,-469.4804,0.0,0.0,0.0,2.0,1.0,1.0180666,0.01724497,-4.4941902E-5,93.0,93.0,93.0,93.0,21.980246,21.980246,24.842789,24.842789,0.019015525,0.017475745,-4.7785687E-4,-4.786863E-4,1113.1335,0.0,0.0,0.0,0.0,0.0,0.0,0.0,0.0,0.0,0.0,0.0,0.0,0.0,71.463066,0.04125667,43.94036,0.01862859,0.0050225635,-0.018513227,546459.0,119984.89,0.010841735,0.010326696,7576.4785,7454.127,6017.676,5886.4814,0.30240345,0.0,0.0,0.0
145.7547,145.7547,1.799,0.0,0.0,302.5913,10844.0,100.0,0.0,-0.40469834,0.0,8.0,1.0,0.0,4000000.0,110.0,1.0,0.0,0.0,10.0,0.0,0.0,-52.250984,2.816042,-172.0207,-0.0073852986,0.33837318,-0.21595435,308.5434,308.08755,302.40228,302.48798,420.0,421.0,487.0,489.0,93.0,93.0,93.0,93.0,0.0,0.0,0.0,0.0,0.047682434,0.047647264,0.052246004,0.052277315,0.50291413,-1.8261372,3.7517395,9.8678465,1322.9727,979.5828,716.6325,613.3943,0.0,0.0,0.0,2.0,1.0,1.0185753,0.01754131,0.0010547638,93.0,93.0,93.0,93.0,21.980246,21.980246,24.842789,24.842789,0.019891003,0.01811981,-4.8132864E-4,-4.8557325E-4,1116.9984,0.0,0.0,0.0,0.0,0.0,0.0,0.0,0.0,0.0,0.0,0.0,0.0,0.0,71.59318,-0.088552326,44.037926,0.010258593,0.014880356,-0.004058194,546940.44,119984.91,0.010750463,0.011637047,7116.0366,7080.9434,5929.291,5954.7812,0.30329704,0.0,0.0,0.0
149.96196,149.96196,1.849,0.0,0.0,303.19226,10856.0,100.0,0.0,-0.45648596,0.0,8.0,1.0,0.0,4000000.0,110.0,1.0,0.0,0.0,10.0,0.0,0.0,-48.66734,2.8098006,-169.81693,0.066094935,0.34278828,-0.04535174,308.88892,308.4346,302.9737,303.11407,418.0,419.0,486.0,487.0,93.0,93.0,93.0,93.0,0.0,0.0,0.0,0.0,0.049059927,0.049379144,0.05227904,0.05258122,35.807487,32.486465,-0.5420297,3.5429745,282.75842,-931.5847,122.496475,-209.70848,0.0,0.0,0.0,2.0,1.0,1.0195726,0.017981356,0.0010405779,93.0,93.0,93.0,93.0,21.980246,21.980246,24.842789,24.842789,0.019086462,0.017163437,-4.9426244E-4,-4.830327E-4,1118.6748,0.0,0.0,0.0,0.0,0.0,0.0,0.0,0.0,0.0,0.0,0.0,0.0,0.0,71.74743,-0.14388427,44.105633,0.00525658,0.023242153,-0.0018072076,547155.8,119984.9,0.010313475,0.009048824,7565.963,7702.8066,5926.414,6060.9077,0.3013363,0.0,0.0,0.0
154.17741,154.17741,1.899,0.0,0.0,303.77313,10878.0,100.0,0.0,-0.25812232,0.0,8.0,1.0,0.0,4000000.0,110.0,1.0,0.0,0.0,10.0,0.0,0.0,-45.075745,2.8024762,-167.61032,0.089542724,0.32081583,-0.055466503,309.53064,309.06317,303.57385,303.68643,416.0,417.0,484.0,486.0,93.0,93.0,93.0,93.0,0.0,0.0,0.0,0.0,0.048828088,0.049098868,0.052312713,0.052752983,-15.917346,-24.257002,0.24005769,2.0903347,-660.561,-1735.7242,38.516514,-458.18826,0.0,0.0,0.0,2.0,1.0,1.020626,0.01810326,0.0020239353,93.0,93.0,93.0,93.0,21.980246,21.980246,24.842789,24.842789,0.01909359,0.017241549,-4.9389165E-4,-4.6043636E-4,1121.738,0.0,0.0,0.0,0.0,0.0,0.0,0.0,0.0,0.0,0.0,0.0,0.0,0.0,71.90692,-0.15416873,44.15423,0.010414452,0.017837176,-0.023181487,547544.5,119984.9,0.011032726,0.010475136,7460.175,7601.2754,5961.5117,6153.3066,0.30247498,0.0,0.0,0.0
158.40077,158.40077,1.949,0.0,0.0,304.33603,10902.0,100.0,0.0,-0.18847717,0.0,8.0,1.0,0.0,4000000.0,110.0,1.0,0.0,0.0,10.0,0.0,0.0,-41.476215,2.7929788,-165.40158,0.09505288,0.3204697,-0.16137521,310.2484,309.70346,304.1544,304.22504,414.0,415.0,482.0,484.0,93.0,93.0,93.0,93.0,0.0,0.0,0.0,0.0,0.04812212,0.0484862,0.05230345,0.052703775,-4.5724955,-2.248138,-0.013634562,-1.4897435,688.13403,278.02435,-10.849534,5.833804,0.0,0.0,0.0,2.0,1.0,1.0213209,0.018070463,0.00276196,93.0,93.0,93.0,93.0,21.980246,21.980246,24.842789,24.842789,0.019571658,0.017605763,-4.9366744E-4,-4.6143794E-4,1125.066,0.0,0.0,0.0,0.0,0.0,0.0,0.0,0.0,0.0,0.0,0.0,0.0,0.0,72.06584,-0.22573338,44.193905,9.830476E-4,0.010287983,-0.0048006168,547960.0,119984.89,0.011781871,0.012070474,7178.9834,7382.4004,5925.5327,6104.095,0.3037548,0.0,0.0,0.0
162.632,162.632,1.999,0.0,0.0,304.90662,10917.0,100.0,0.0,-0.011221734,0.0,8.0,1.0,0.0,4000000.0,110.0,1.0,0.0,0.0,10.0,0.0,0.0,-37.868774,2.7802753,-163.19066,0.06204371,0.32316336,-0.032884084,310.6641,310.12177,304.7512,304.76535,412.0,413.0,480.0,482.0,93.0,93.0,93.0,93.0,0.0,0.0,0.0,0.0,0.048968308,0.049194235,0.052540362,0.052845147,16.259327,17.462744,7.417872,6.006583,-291.6499,207.442,86.19277,235.43088,0.0,0.0,0.0,2.0,1.0,1.0215969,0.017909557,0.0026806593,93.0,93.0,93.0,93.0,21.980246,21.980246,24.842789,24.842789,0.018967252,0.017174754,-5.0186366E-4,-4.594325E-4,1127.1439,0.0,0.0,0.0,0.0,0.0,0.0,0.0,0.0,0.0,0.0,0.0,0.0,0.0,72.22114,-0.26773873,44.243595,-0.0063514197,9.482767E-5,0.0031878352,548217.75,119984.9,0.010937208,0.010774684,7535.12,7695.7656,6150.45,6290.0156,0.3029909,0.0,0.0,0.0
166.87117,166.87117,2.049,0.0,0.0,305.47134,10932.0,100.0,0.0,0.06343607,0.0,8.0,1.0,0.0,4000000.0,110.0,1.0,0.0,0.0,10.0,0.0,0.0,-34.253937,2.7672813,-160.97668,0.011549622,0.31739253,0.070514314,311.1027,310.56607,305.352,305.29642,411.0,412.0,478.0,480.0,93.0,93.0,93.0,93.0,0.0,0.0,0.0,0.0,0.04965648,0.04969445,0.052877124,0.052976925,6.7732477,4.6442447,6.96592,1.2521445,-611.04736,-322.5356,57.23834,-79.47384,0.0,0.0,0.0,2.0,1.0,1.0212821,0.017597161,0.002494216,93.0,93.0,93.0,93.0,21.980246,21.980246,24.842789,24.842789,0.018377487,0.016813638,-4.940099E-4,-4.6378406E-4,1129.2532,0.0,0.0,0.0,0.0,0.0,0.0,0.0,0.0,0.0,0.0,0.0,0.0,0.0,72.36177,-0.24661303,44.314457,-0.0042971335,-0.011063167,-0.003057878,548490.0,119984.9,0.010120873,0.009338369,7894.6597,7939.835,6330.0405,6354.706,0.3019123,0.0,0.0,0.0
171.11806,171.11806,2.116,0.0,0.0,306.02127,10953.0,100.0,0.0,-0.0559396,0.0,8.0,1.0,0.0,4000000.0,110.0,1.0,0.0,0.0,10.0,0.0,0.0,-30.632431,2.7556639,-158.75879,-0.017929748,0.3099681,0.013047151,311.68527,311.16522,305.90198,305.84818,409.0,410.0,477.0,478.0,93.0,93.0,93.0,93.0,0.0,0.0,0.0,0.0,0.049450856,0.049434647,0.052954935,0.05295171,0.0,0.0,0.0,0.0,152.21533,-115.52272,-75.94674,-390.999,0.0,0.0,0.0,2.0,1.0,1.020723,0.017490743,0.0025502443,93.0,93.0,93.0,93.0,21.980246,21.980246,24.842789,24.842789,0.01844261,0.016920734,-4.797093E-4,-4.7001013E-4,1132.169,0.0,0.0,0.0,0.0,0.0,0.0,0.0,0.0,0.0,0.0,0.0,0.0,0.0,72.489685,-0.22608152,44.398182,0.0016689622,-0.009722517,-0.0023550475,548851.9,119984.9,0.010329603,0.009708804,7835.9956,7808.1953,6285.9766,6264.0625,0.30200577,0.0,0.0,0.0
175.37253,175.37253,2.149,0.0,0.0,306.56406,10974.0,100.0,0.0,-0.18802767,0.0,8.0,1.0,0.0,4000000.0,110.0,1.0,0.0,0.0,10.0,0.0,0.0,-27.00471,2.7442021,-156.53653,-0.02079451,0.3064226,-0.035305887,312.2757,311.7801,306.4256,306.40997,407.0,408.0,475.0,477.0,93.0,93.0,93.0,93.0,0.0,0.0,0.0,0.0,0.04916833,0.04913557,0.052892055,0.052925307,-3.5628674,-7.661059,-1.6792862,2.0541248,205.52425,44.05526,-105.1694,205.22919,0.0,0.0,0.0,2.0,1.0,1.0203977,0.017434062,0.002699852,93.0,93.0,93.0,93.0,21.980246,21.980246,24.842789,24.842789,0.018648166,0.017072896,-4.7194542E-4,-4.7346312E-4,1135.1024,0.0,0.0,0.0,0.0,0.0,0.0,0.0,0.0,0.0,0.0,0.0,0.0,0.0,72.612274,-0.23583563,44.48666,-0.0017673405,-0.0027227814,-6.889956E-4,549220.94,119984.89,0.010472664,0.010380402,7698.62,7667.111,6271.366,6301.55,0.30261803,0.0,0.0,0.0
179.6345,179.6345,2.199,0.0,0.0,307.10638,10992.0,100.0,0.0,-0.4153328,0.0,8.0,1.0,0.0,4000000.0,110.0,1.0,0.0,0.0,10.0,0.0,0.0,-23.370745,2.7320516,-154.31006,0.020293288,0.306138,-0.0021657709,312.76474,312.29962,306.9318,306.98895,405.0,406.0,473.0,475.0,93.0,93.0,93.0,93.0,0.0,0.0,0.0,0.0,0.04933,0.04950536,0.052796986,0.053004783,-4.419386,9.256303,-3.8447227,7.097348,-988.39386,-119.89471,-45.262268,391.294,0.0,0.0,0.0,2.0,1.0,1.0205709,0.017760511,0.0026741028,93.0,93.0,93.0,93.0,21.980246,21.980246,24.842789,24.842789,0.018555727,0.016847577,-4.6605137E-4,-4.8026216E-4,1137.6057,0.0,0.0,0.0,0.0,0.0,0.0,0.0,0.0,0.0,0.0,0.0,0.0,0.0,72.74115,-0.24563605,44.56462,0.0067228726,0.010241211,0.002534564,549530.8,119984.9,0.010378449,0.009920898,7762.121,7809.8057,6231.4307,6357.4805,0.30250454,0.0,0.0,0.0
183.90344,183.90344,2.249,0.0,0.0,307.64093,11010.0,100.0,0.0,-0.58289117,0.0,8.0,1.0,0.0,4000000.0,110.0,1.0,0.0,0.0,10.0,0.0,0.0,-19.73,2.719764,-152.08034,0.08684369,0.3023452,0.0044229636,313.2675,312.8163,307.42157,307.56644,403.0,404.0,471.0,473.0,93.0,93.0,93.0,93.0,0.0,0.0,0.0,0.0,0.049335264,0.0496868,0.05282698,0.053129576,4.0445476,10.012686,-2.1996348,-0.60215586,250.62558,295.5928,-328.1146,-201.62163,0.0,0.0,0.0,2.0,1.0,1.021477,0.01800953,0.0025770664,93.0,93.0,93.0,93.0,21.980246,21.980246,24.842789,24.842789,0.018551275,0.016646829,-4.672727E-4,-4.7667016E-4,1139.7539,0.0,0.0,0.0,0.0,0.0,0.0,0.0,0.0,0.0,0.0,0.0,0.0,0.0,72.88372,-0.24491335,44.61613,0.005390907,0.024801264,0.0056678597,549668.44,119984.9,0.01028324,0.009654303,7770.939,7943.342,6241.4937,6386.1133,0.30187416,0.0,0.0,0.0
188.17972,188.17972,2.299,0.0,0.0,308.1681,11029.0,100.0,0.0,-0.43515366,0.0,8.0,1.0,0.0,4000000.0,110.0,1.0,0.0,0.0,10.0,0.0,0.0,-16.081753,2.7077286,-149.84874,0.13059548,0.2959649,0.0052020308,313.8204,313.34424,307.93835,308.1038,402.0,403.0,470.0,471.0,93.0,93.0,93.0,93.0,0.0,0.0,0.0,0.0,0.04924176,0.049644224,0.052827824,0.053307638,-8.56407,-1.7199664,1.6625224,2.6375053,-569.33905,186.80241,-94.26623,-12.002892,0.0,0.0,0.0,2.0,1.0,1.0228456,0.018217636,0.002565384,93.0,93.0,93.0,93.0,21.980246,21.980246,24.842789,24.842789,0.01861038,0.016599588,-4.8114415E-4,-4.5914258E-4,1141.763,0.0,0.0,0.0,0.0,0.0,0.0,0.0,0.0,0.0,0.0,0.0,0.0,0.0,73.0387,-0.23786332,44.64344,0.0032634377,0.02677072,0.005610198,549688.7,119984.9,0.009917904,0.00974537,7679.078,7970.388,6300.5054,6525.301,0.30184746,0.0,0.0,0.0
192.46327,192.46327,2.349,0.0,0.0,308.6903,11047.0,100.0,0.0,-0.36886027,0.0,8.0,1.0,0.0,4000000.0,110.0,1.0,0.0,0.0,10.0,0.0,0.0,-12.4255705,2.69588,-147.61618,0.15464674,0.29420665,0.010585422,314.33365,313.84045,308.47723,308.61035,400.0,401.0,468.0,470.0,93.0,93.0,93.0,93.0,0.0,0.0,0.0,0.0,0.049339525,0.04974931,0.052744355,0.053327058,-1.8060206,-1.399666,1.7888098,2.209246,-557.45685,-48.293167,332.9694,174.96046,0.0,0.0,0.0,2.0,1.0,1.0240364,0.018319683,0.0025430918,93.0,93.0,93.0,93.0,21.980246,21.980246,24.842789,24.842789,0.018495928,0.016531246,-4.8203583E-4,-4.576249E-4,1143.6658,0.0,0.0,0.0,0.0,0.0,0.0,0.0,0.0,0.0,0.0,0.0,0.0,0.0,73.2003,-0.2350057,44.65715,0.002918232,0.021142384,-3.350405E-4,549707.6,119984.89,0.009948934,0.009477819,7723.697,8025.1807,6258.193,6517.8174,0.30205822,0.0,0.0,0.0
196.75406,196.75406,2.399,0.0,0.0,309.20447,11065.0,100.0,0.0,-0.40665647,0.0,8.0,1.0,0.0,4000000.0,110.0,1.0,0.0,0.0,10.0,0.0,0.0,-8.761254,2.68403,-145.38312,0.16440634,0.29110774,-0.0070054145,314.85867,314.3472,308.99896,309.1164,398.0,399.0,466.0,468.0,93.0,93.0,93.0,93.0,0.0,0.0,0.0,0.0,0.049307827,0.049753547,0.052730396,0.053345133,7.4536347,1.9083916,0.20317732,-1.1980532,537.2464,-15.878668,117.5478,-141.16464,0.0,0.0,0.0,2.0,1.0,1.0250063,0.018376695,0.00253129,93.0,93.0,93.0,93.0,21.980246,21.980246,24.842789,24.842789,0.018477987,0.01651272,-4.758599E-4,-4.6143736E-4,1145.5695,0.0,0.0,0.0,0.0,0.0,0.0,0.0,0.0,0.0,0.0,0.0,0.0,0.0,73.36364,-0.23872957,44.66356,2.556092E-4,0.018810147,1.1567688E-4,549726.94,119984.89,0.010041168,0.009511513,7722.0366,8023.138,6227.7554,6494.4546,0.3018875,0.0,0.0,0.0
201.05194,201.05194,2.466,0.0,0.0,309.71323,11083.0,100.0,0.0,-0.48666424,0.0,8.0,1.0,0.0,4000000.0,110.0,1.0,0.0,0.0,10.0,0.0,0.0,-5.0887294,2.6721232,-143.14987,0.17676382,0.28714886,-0.0013517813,315.35535,314.84787,309.4998,309.63254,396.0,397.0,465.0,466.0,93.0,93.0,93.0,93.0,0.0,0.0,0.0,0.0,0.049304727,0.04980904,0.052755773,0.053433735,0.0,0.0,0.0,0.0,220.35686,-103.23821,-56.822586,-58.5392,0.0,0.0,0.0,2.0,1.0,1.0260054,0.018456928,0.002496481,93.0,93.0,93.0,93.0,21.980246,21.980246,24.842789,24.842789,0.018443413,0.016437585,-4.7015116E-4,-4.641102E-4,1147.472,0.0,0.0,0.0,0.0,0.0,0.0,0.0,0.0,0.0,0.0,0.0,0.0,0.0,73.52846,-0.23771964,44.664524,5.8192876E-5,0.021752812,0.0018978708,549745.6,119984.89,0.00986055,0.009420221,7730.2944,8058.9385,6255.9375,6566.1616,0.30172825,0.0,0.0,0.0
205.35687,205.35687,2.499,0.0,0.0,310.21576,11100.0,100.0,0.0,-0.46700445,0.0,8.0,1.0,0.0,4000000.0,110.0,1.0,0.0,0.0,10.0,0.0,0.0,-1.4079307,2.6603186,-140.91672,0.18402532,0.28303248,0.0044610286,315.8518,315.3513,309.99634,310.1419,395.0,396.0,463.0,464.0,93.0,93.0,93.0,93.0,0.0,0.0,0.0,0.0,0.049313895,0.049862456,0.052767593,0.053494137,-1.6683339,-1.7014145,0.8565187,2.8983502,-68.54384,-151.54478,30.630825,115.49591,0.0,0.0,0.0,2.0,1.0,1.027161,0.018488407,0.0025029182,93.0,93.0,93.0,93.0,21.980246,21.980246,24.842789,24.842789,0.018406788,0.01638644,-4.7200927E-4,-4.5937859E-4,1149.2714,0.0,0.0,0.0,0.0,0.0,0.0,0.0,0.0,0.0,0.0,0.0,0.0,0.0,73.69419,-0.23441377,44.660496,-0.0013041829,0.023689773,-7.0048985E-4,549764.4,119984.9,0.0096989,0.009346195,7729.1807,8082.3125,6281.9062,6615.0327,0.30174446,0.0,0.0,0.0
209.66872,209.66872,2.549,0.0,0.0,310.71237,11117.0,100.0,0.0,-0.43219504,0.0,8.0,1.0,0.0,4000000.0,110.0,1.0,0.0,0.0,10.0,0.0,0.0,2.2811403,2.648598,-138.68387,0.18679293,0.28091818,0.0015292055,316.341,315.83197,310.49744,310.63397,393.0,394.0,461.0,463.0,93.0,93.0,93.0,93.0,0.0,0.0,0.0,0.0,0.04935695,0.049947567,0.05279922,0.053463604,1.502484,3.484413,0.2633035,-0.6267428,33.28621,-39.2273,37.43022,25.494392,0.0,0.0,0.0,2.0,1.0,1.0283016,0.018521033,0.0024597645,93.0,93.0,93.0,93.0,21.980246,21.980246,24.842789,24.842789,0.018338656,0.016329613,-4.7337613E-4,-4.5753046E-4,1151.0696,0.0,0.0,0.0,0.0,0.0,0.0,0.0,0.0,0.0,0.0,0.0,0.0,0.0,73.85949,-0.23396783,44.653812,0.0018799608,0.021974469,3.8093684E-4,549782.56,119984.91,0.009701575,0.009165804,7755.4805,8118.4062,6276.34,6572.9023,0.3015461,0.0,0.0,0.0
213.98756,213.98756,2.599,0.0,0.0,311.2027,11134.0,100.0,0.0,-0.34876752,0.0,8.0,1.0,0.0,4000000.0,110.0,1.0,0.0,0.0,10.0,0.0,0.0,5.978429,2.6369705,-136.45137,0.17638633,0.27696338,-0.004048192,316.8357,316.3136,310.9984,311.1139,391.0,392.0,459.0,461.0,93.0,93.0,93.0,93.0,0.0,0.0,0.0,0.0,0.04938268,0.049899254,0.05282976,0.05350536,0.29906628,1.5306472,-0.09432434,-1.3198702,-53.241837,246.15971,-148.00427,-124.14603,0.0,0.0,0.0,2.0,1.0,1.0293188,0.018506313,0.00246346,93.0,93.0,93.0,93.0,21.980246,21.980246,24.842789,24.842789,0.01829275,0.016311666,-4.753657E-4,-4.533155E-4,1152.8682,0.0,0.0,0.0,0.0,0.0,0.0,0.0,0.0,0.0,0.0,0.0,0.0,0.0,74.02214,-0.23224317,44.647953,-4.7550577E-4,0.018101994,-1.9425698E-4,549800.9,119984.914,0.009698096,0.009206365,7761.685,8118.34,6290.506,6595.534,0.30146885,0.0,0.0,0.0
218.31343,218.31343,2.666,0.0,0.0,311.68707,11151.0,100.0,0.0,-0.32657453,0.0,8.0,1.0,0.0,4000000.0,110.0,1.0,0.0,0.0,10.0,0.0,0.0,9.683716,2.6253467,-134.21895,0.16147403,0.27328056,-0.0058998605,317.3225,316.80167,311.49414,311.58728,390.0,390.0,458.0,459.0,93.0,93.0,93.0,93.0,0.0,0.0,0.0,0.0,0.049398884,0.04984286,0.052895162,0.053516857,0.0,0.0,0.0,0.0,-159.5512,186.38667,86.66216,-51.136307,0.0,0.0,0.0,2.0,1.0,1.0301204,0.018373933,0.0024783611,93.0,93.0,93.0,93.0,21.980246,21.980246,24.842789,24.842789,0.018243406,0.016329342,-4.7189146E-4,-4.5377127E-4,1154.6667,0.0,0.0,0.0,0.0,0.0,0.0,0.0,0.0,0.0,0.0,0.0,0.0,0.0,74.17965,-0.23309292,44.64726,-0.0024170908,0.014472492,2.48802E-4,549819.1,119984.9,0.00957153,0.00926498,7774.6016,8086.3613,6359.283,6627.197,0.30151176,0.0,0.0,0.0
222.64594,222.64594,2.716,0.0,0.0,312.16696,11168.0,100.0,0.0,-0.34801242,0.0,8.0,1.0,0.0,4000000.0,110.0,1.0,0.0,0.0,10.0,0.0,0.0,13.396761,2.6136737,-131.98653,0.14928715,0.27062568,0.006684621,317.78192,317.27106,311.9762,312.06564,388.0,389.0,456.0,458.0,93.0,93.0,93.0,93.0,0.0,0.0,0.0,0.0,0.049527,0.049925663,0.052938595,0.05351854,0.0,0.0,0.0,0.0,117.266174,-475.6629,172.5733,4.2110677,0.0,0.0,0.0,2.0,1.0,1.0308255,0.018323109,0.0024430752,93.0,93.0,93.0,93.0,21.980246,21.980246,24.842789,24.842789,0.018138383,0.016271587,-4.679456E-4,-4.5586718E-4,1156.4637,0.0,0.0,0.0,0.0,0.0,0.0,0.0,0.0,0.0,0.0,0.0,0.0,0.0,74.33284,-0.23220925,44.651165,-0.0014784159,0.014160614,-5.8282854E-4,549836.56,119984.91,0.0094425175,0.009046835,7836.615,8105.562,6381.4053,6636.357,0.30144215,0.0,0.0,0.0
226.98506,226.98506,2.749,0.0,0.0,312.64105,11184.0,100.0,0.0,-0.30738962,0.0,8.0,1.0,0.0,4000000.0,110.0,1.0,0.0,0.0,10.0,0.0,0.0,17.117329,2.6021109,-129.75374,0.13528386,0.26797983,0.0029202215,318.2479,317.73126,312.45392,312.53683,386.0,387.0,454.0,456.0,93.0,93.0,93.0,93.0,0.0,0.0,0.0,0.0,0.049517963,0.050018445,0.052951314,0.05351151,1.1162459,2.4524329,-2.9783695,2.3288279,66.29079,-96.3047,-265.00223,331.41373,0.0,0.0,0.0,2.0,1.0,1.0315005,0.018348867,0.0024267435,93.0,93.0,93.0,93.0,21.980246,21.980246,24.842789,24.842789,0.01808344,0.016208122,-4.6892805E-4,-4.5380834E-4,1158.1571,0.0,0.0,0.0,0.0,0.0,0.0,0.0,0.0,0.0,0.0,0.0,0.0,0.0,74.48108,-0.23044816,44.66009,-0.0014776866,0.013002149,-0.0030233962,549853.94,119984.9,0.009475613,0.008894238,7852.2456,8148.5703,6346.029,6627.07,0.3013935,0.0,0.0,0.0
231.3307,231.3307,2.799,0.0,0.0,313.10837,11201.0,100.0,0.0,-0.32761076,0.0,8.0,1.0,0.0,4000000.0,110.0,1.0,0.0,0.0,10.0,0.0,0.0,20.84519,2.5906594,-127.520424,0.12738137,0.26410094,-0.0030246987,318.7107,318.2065,312.92227,313.0021,384.0,385.0,453.0,454.0,93.0,93.0,93.0,93.0,0.0,0.0,0.0,0.0,0.049514238,0.049956974,0.05305241,0.053554412,-1.5740095,6.039664,0.55856997,-0.20183621,66.612656,625.58496,-173.6462,-58.767193,0.0,0.0,0.0,2.0,1.0,1.0321296,0.018200481,0.002401352,93.0,93.0,93.0,93.0,21.980246,21.980246,24.842789,24.842789,0.018048797,0.01621625,-4.653713E-4,-4.5424074E-4,1159.9546,0.0,0.0,0.0,0.0,0.0,0.0,0.0,0.0,0.0,0.0,0.0,0.0,0.0,74.625,-0.22902203,44.67246,-0.0029688848,0.012585051,0.0018580633,549871.5,119984.9,0.009315198,0.008941132,7865.0283,8124.289,6432.863,6655.3066,0.30117226,0.0,0.0,0.0
235.68279,235.68279,2.849,0.0,0.0,313.57205,11217.0,100.0,0.0,-0.30696896,0.0,8.0,1.0,0.0,4000000.0,110.0,1.0,0.0,0.0,10.0,0.0,0.0,24.580189,2.5792644,-125.28642,0.11934462,0.26019493,0.017844172,319.15338,318.6772,313.38638,313.46762,383.0,384.0,451.0,453.0,93.0,93.0,93.0,93.0,0.0,0.0,0.0,0.0,0.049731202,0.04990651,0.05308842,0.05355428,-1.0194628,-5.5660305,3.8346646,2.1661072,-531.6272,-412.2689,153.91855,34.774837,0.0,0.0,0.0,2.0,1.0,1.0327762,0.018244563,0.0024778843,93.0,93.0,93.0,93.0,21.980246,21.980246,24.842789,24.842789,0.017936334,0.016202886,-4.6481565E-4,-4.5218534E-4,1161.6477,0.0,0.0,0.0,0.0,0.0,0.0,0.0,0.0,0.0,0.0,0.0,0.0,0.0,74.766365,-0.2241821,44.68707,0.008543793,0.012882182,0.0023032902,549888.6,119984.91,0.009180048,0.0088177575,7930.72,8089.2163,6481.7573,6688.0576,0.30121994,0.0,0.0,0.0
240.04124,240.04124,2.899,0.0,0.0,314.02856,11233.0,100.0,0.0,-0.26147246,0.0,8.0,1.0,0.0,4000000.0,110.0,1.0,0.0,0.0,10.0,0.0,0.0,28.322153,2.567805,-123.05166,0.110620126,0.25906065,-0.0027769667,319.62314,319.1161,313.84732,313.91858,381.0,382.0,449.0,451.0,93.0,93.0,93.0,93.0,0.0,0.0,0.0,0.0,0.049685955,0.049944494,0.05308156,0.053533833,9.062289,-0.07621943,3.164783,-0.9584426,83.26915,-134.28476,269.45468,167.49051,0.0,0.0,0.0,2.0,1.0,1.0333755,0.01814365,0.0024313927,93.0,93.0,93.0,93.0,21.980246,21.980246,24.842789,24.842789,0.01795026,0.016151868,-4.6803846E-4,-4.496503E-4,1163.3408,0.0,0.0,0.0,0.0,0.0,0.0,0.0,0.0,0.0,0.0,0.0,0.0,0.0,74.90416,-0.23145224,44.703617,-0.004672232,0.010885106,-0.0022980836,549905.7,119984.9,0.0092079565,0.008789551,7898.972,8134.9326,6454.58,6647.914,0.30136967,0.0,0.0,0.0
244.40599,244.40599,2.966,0.0,0.0,314.48123,11248.0,100.0,0.0,-0.23645175,0.0,8.0,1.0,0.0,4000000.0,110.0,1.0,0.0,0.0,10.0,0.0,0.0,32.07091,2.5562947,-120.81595,0.098284535,0.25611597,0.009783007,320.04895,319.54855,314.30753,314.36398,379.0,380.0,448.0,449.0,93.0,93.0,93.0,93.0,0.0,0.0,0.0,0.0,0.049773786,0.050090864,0.05314791,0.05354456,0.0,0.0,0.0,0.0,504.5637,213.15512,-52.02144,-186.64148,0.0,0.0,0.0,2.0,1.0,1.0338498,0.018087063,0.0023394823,93.0,93.0,93.0,93.0,21.980246,21.980246,24.842789,24.842789,0.01781491,0.016081253,-4.6621307E-4,-4.4932176E-4,1164.9283,0.0,0.0,0.0,0.0,0.0,0.0,0.0,0.0,0.0,0.0,0.0,0.0,0.0,75.03803,-0.22851986,44.72465,-0.0011598552,0.008440114,-5.2484695E-4,549921.75,119984.92,0.0091674775,0.008508116,7987.8535,8183.404,6468.669,6639.4756,0.3009262,0.0,0.0,0.0
248.77687,248.77687,2.999,0.0,0.0,314.92712,11264.0,100.0,0.0,-0.24020834,0.0,8.0,1.0,0.0,4000000.0,110.0,1.0,0.0,0.0,10.0,0.0,0.0,35.82625,2.5450253,-118.57906,0.087086126,0.25089258,-0.00636331,320.51578,320.01596,314.7579,314.80618,378.0,379.0,446.0,448.0,93.0,93.0,93.0,93.0,0.0,0.0,0.0,0.0,0.04966504,0.04993188,0.053206775,0.053587254,-1.7096846,-5.932599,0.9906291,0.74677163,243.75914,-212.18954,-6.826218,-106.30934,0.0,0.0,0.0,2.0,1.0,1.0342305,0.018056346,0.002420783,93.0,93.0,93.0,93.0,21.980246,21.980246,24.842789,24.842789,0.017843688,0.016137766,-4.6177825E-4,-4.496607E-4,1166.6226,0.0,0.0,0.0,0.0,0.0,0.0,0.0,0.0,0.0,0.0,0.0,0.0,0.0,75.1673,-0.22508048,44.74969,-0.0015320701,0.007298225,-5.9256586E-4,549939.25,119984.91,0.00904559,0.008786581,7942.133,8102.5796,6524.796,6694.741,0.30101013,0.0,0.0,0.0
253.15388,253.15388,3.049,0.0,0.0,315.36877,11279.0,100.0,0.0,-0.23362437,0.0,8.0,1.0,0.0,4000000.0,110.0,1.0,0.0,0.0,10.0,0.0,0.0,39.587948,2.5336938,-116.340836,0.07857442,0.24923931,-0.0013631,320.9481,320.44495,315.20026,315.24713,376.0,377.0,444.0,446.0,93.0,93.0,93.0,93.0,0.0,0.0,0.0,0.0,0.049713917,0.05002109,0.05322339,0.053578794,-0.73939556,1.7119198,-0.23022293,2.184659,-144.66493,-37.5241,-112.78687,260.3888,0.0,0.0,0.0,2.0,1.0,1.0345844,0.018000705,0.002395749,93.0,93.0,93.0,93.0,21.980246,21.980246,24.842789,24.842789,0.017793039,0.016073056,-4.6137013E-4,-4.4922016E-4,1168.2104,0.0,0.0,0.0,0.0,0.0,0.0,0.0,0.0,0.0,0.0,0.0,0.0,0.0,75.29307,-0.22720605,44.77822,-0.002064807,0.0070998897,-6.0785166E-4,549955.44,119984.9,0.008988142,0.008641829,7963.618,8147.1885,6524.859,6699.3413,0.3010111,0.0,0.0,0.0
257.537,257.537,3.116,0.0,0.0,315.8055,11294.0,100.0,0.0,-0.17853925,0.0,8.0,1.0,0.0,4000000.0,110.0,1.0,0.0,0.0,10.0,0.0,0.0,43.355843,2.5223286,-114.10109,0.06468381,0.24670282,0.0032138731,321.3681,320.8723,315.64197,315.67944,374.0,375.0,443.0,444.0,93.0,93.0,93.0,93.0,0.0,0.0,0.0,0.0,0.049793534,0.050085083,0.053266134,0.053553287,0.0,0.0,0.0,0.0,-135.06262,164.56691,18.762049,71.11876,0.0,0.0,0.0,2.0,1.0,1.0349107,0.01794653,0.0023766756,93.0,93.0,93.0,93.0,21.980246,21.980246,24.842789,24.842789,0.017699717,0.016032655,-4.6378563E-4,-4.4607482E-4,1169.7979,0.0,0.0,0.0,0.0,0.0,0.0,0.0,0.0,0.0,0.0,0.0,0.0,0.0,75.41491,-0.2269382,44.810677,-3.5321031E-4,0.005307488,-0.0017518783,549971.3,119984.9,0.008975124,0.008473967,8014.445,8169.546,6544.001,6670.2803,0.3008833,0.0,0.0,0.0
261.9261,261.9261,3.166,0.0,0.0,316.23624,11309.0,100.0,0.0,-0.09166031,0.0,8.0,1.0,0.0,4000000.0,110.0,1.0,0.0,0.0,10.0,0.0,0.0,47.129665,2.5110211,-111.85953,0.042005032,0.24337676,-0.0043605138,321.80362,321.2985,316.0865,316.09595,373.0,374.0,441.0,443.0,93.0,93.0,93.0,93.0,0.0,0.0,0.0,0.0,0.049843512,0.04998909,0.053353414,0.053557053,0.0,0.0,0.0,0.0,200.2403,270.01794,-75.74557,-159.63164,0.0,0.0,0.0,2.0,1.0,1.0350553,0.017813293,0.0023777485,93.0,93.0,93.0,93.0,21.980246,21.980246,24.842789,24.842789,0.01764694,0.016046839,-4.649106E-4,-4.4281862E-4,1171.3859,0.0,0.0,0.0,0.0,0.0,0.0,0.0,0.0,0.0,0.0,0.0,0.0,0.0,75.53038,-0.22664739,44.85056,-0.0019777215,3.1939434E-4,-1.1726632E-4,549987.44,119984.91,0.008901936,0.008500476,8038.133,8141.621,6590.097,6672.4336,0.30068874,0.0,0.0,0.0
266.32114,266.32114,3.199,0.0,0.0,316.6641,11325.0,100.0,0.0,-0.0061736587,0.0,8.0,1.0,0.0,4000000.0,110.0,1.0,0.0,0.0,10.0,0.0,0.0,50.909058,2.499241,-109.615715,0.009117238,0.24163987,-0.025858698,322.2538,321.7442,316.5328,316.506,371.0,372.0,439.0,441.0,93.0,93.0,93.0,93.0,0.0,0.0,0.0,0.0,0.04977535,0.049835734,0.0533868,0.05351151,0.009834765,-2.753958,4.3838468,2.465397,19.5533,102.03121,146.0999,113.39037,0.0,0.0,0.0,2.0,1.0,1.0349116,0.017646914,0.0025607347,93.0,93.0,93.0,93.0,21.980246,21.980246,24.842789,24.842789,0.017644612,0.016129954,-4.6502615E-4,-4.4201367E-4,1173.079,0.0,0.0,0.0,0.0,0.0,0.0,0.0,0.0,0.0,0.0,0.0,0.0,0.0,75.637794,-0.24227196,44.90237,-0.0026073281,-0.00579295,-0.003999658,550004.25,119984.91,0.008108677,0.008265212,8009.5146,8053.3906,6648.0234,6695.9585,0.3002987,0.0,0.0,0.0
270.72214,270.72214,3.249,0.0,0.0,317.09174,11339.0,100.0,0.0,-0.014926458,0.0,8.0,1.0,0.0,4000000.0,110.0,1.0,0.0,0.0,10.0,0.0,0.0,54.69361,2.4869568,-107.36893,-0.019803956,0.24187562,0.0065972945,322.64517,322.1436,316.97018,316.92267,370.0,370.0,438.0,439.0,93.0,93.0,93.0,93.0,0.0,0.0,0.0,0.0,0.050019927,0.04999257,0.053552188,0.05356864,5.868226,-1.386702,3.724247,1.9088386,121.89299,-545.0114,127.083046,-15.516578,0.0,0.0,0.0,2.0,1.0,1.0345191,0.017495265,0.0026160479,93.0,93.0,93.0,93.0,21.980246,21.980246,24.842789,24.842789,0.017475557,0.016043872,-4.6197447E-4,-4.478381E-4,1174.5608,0.0,0.0,0.0,0.0,0.0,0.0,0.0,0.0,0.0,0.0,0.0,0.0,0.0,75.737305,-0.24588074,44.967434,-0.0029310714,-0.008856772,-0.0034160889,550019.06,119984.9,0.0070072766,0.0072384677,8134.142,8102.9272,6737.6357,6735.5586,0.2993002,0.0,0.0,0.0
275.12906,275.12906,3.299,0.0,0.0,317.5146,11351.0,100.0,0.0,-0.04746168,0.0,8.0,1.0,0.0,4000000.0,110.0,1.0,0.0,0.0,10.0,0.0,0.0,58.482952,2.4755547,-105.11862,-0.03689868,0.23707792,0.10965139,322.98996,322.4962,317.39127,317.34702,368.0,369.0,436.0,438.0,93.0,93.0,93.0,93.0,0.0,0.0,0.0,0.0,0.050512254,0.05053203,0.05385931,0.053794365,-3.2470374,-1.5731155,-4.2459364,-2.741441,-2197.292,-2279.4885,-1419.0225,-1059.003,0.0,0.0,0.0,2.0,1.0,1.0340815,0.017465424,0.0024843216,93.0,93.0,93.0,93.0,21.980246,21.980246,24.842789,24.842789,0.01720877,0.015782136,-4.5907294E-4,-4.4972883E-4,1175.832,0.0,0.0,0.0,0.0,0.0,0.0,0.0,0.0,0.0,0.0,0.0,0.0,0.0,75.82991,-0.20224746,45.041744,-5.243371E-4,-0.008051191,4.4084358E-4,550032.25,119984.91,0.007140212,0.0068452484,8336.193,8311.976,6848.252,6831.1953,0.29914093,0.0,0.0,0.0
279.54163,279.54163,3.349,0.0,0.0,317.92,11375.0,100.0,0.0,-0.08858707,0.0,8.0,1.0,0.0,4000000.0,110.0,1.0,0.0,0.0,10.0,0.0,0.0,62.276752,2.4647062,-102.86458,-0.04226522,0.2273199,-0.3061581,323.68018,323.18292,317.79166,317.7658,366.0,367.0,435.0,436.0,93.0,93.0,93.0,93.0,0.0,0.0,0.0,0.0,0.04897827,0.048988506,0.053114556,0.05302922,-51.03841,-46.861317,-23.874117,-23.690609,-1654.0376,-1312.1632,-771.04114,-663.79297,0.0,0.0,0.0,2.0,1.0,1.0337828,0.017480697,0.0030398369,93.0,93.0,93.0,93.0,21.980246,21.980246,24.842789,24.842789,0.018098373,0.016608907,-4.4939225E-4,-4.4209108E-4,1178.3727,0.0,0.0,0.0,0.0,0.0,0.0,0.0,0.0,0.0,0.0,0.0,0.0,0.0,75.91693,-0.2646227,45.115437,0.010649266,-0.0044060335,-0.017629221,550057.75,119984.9,0.008474412,0.008637543,7531.3765,7510.8857,6105.939,6068.835,0.30043983,0.0,0.0,0.0
283.9599,283.9599,3.399,0.0,0.0,318.3453,11387.0,100.0,0.0,-0.056612287,0.0,8.0,1.0,0.0,4000000.0,110.0,1.0,0.0,0.0,10.0,0.0,0.0,66.07501,2.4483707,-100.6068,-0.042446777,0.24341723,-0.13599683,323.98917,323.50916,318.20862,318.19208,365.0,365.0,433.0,434.0,93.0,93.0,93.0,93.0,0.0,0.0,0.0,0.0,0.04952468,0.0494737,0.053234283,0.053148452,20.569412,23.461504,6.888136,5.6912003,120.37753,542.9729,143.6591,47.8238,0.0,0.0,0.0,2.0,1.0,1.0336088,0.017457988,0.0037146807,93.0,93.0,93.0,93.0,21.980246,21.980246,24.842789,24.842789,0.017785985,0.016320264,-4.6247433E-4,-4.468182E-4,1179.2313,0.0,0.0,0.0,0.0,0.0,0.0,0.0,0.0,0.0,0.0,0.0,0.0,0.0,76.008484,-0.3661127,45.19191,0.0049898312,-0.0033981826,-0.006284066,549878.44,119984.91,0.007083492,0.0071726046,7866.592,7821.4385,6559.962,6516.7183,0.29880714,0.0,0.0,0.0
288.38412,288.38412,3.449,0.0,0.0,318.76947,11399.0,100.0,0.0,-0.07500622,0.0,8.0,1.0,0.0,4000000.0,110.0,1.0,0.0,0.0,10.0,0.0,0.0,69.87788,2.4292736,-98.34517,-0.03667789,0.23701346,-0.04463523,324.3349,323.8548,318.63544,318.61722,363.0,364.0,431.0,433.0,93.0,93.0,93.0,93.0,0.0,0.0,0.0,0.0,0.04989464,0.049849115,0.05345511,0.05337793,-3.2760947,-3.1598656,3.1719356,3.075823,-739.324,-541.7123,-88.48605,-45.704823,0.0,0.0,0.0,2.0,1.0,1.0334387,0.017464682,0.0043753386,93.0,93.0,93.0,93.0,21.980246,21.980246,24.842789,24.842789,0.017459106,0.016005432,-4.59717E-4,-4.471834E-4,1179.956,0.0,0.0,0.0,0.0,0.0,0.0,0.0,0.0,0.0,0.0,0.0,0.0,0.0,76.100174,-0.39313188,45.26802,0.010453854,-0.0033885785,-0.015565207,549637.2,119984.91,0.006332719,0.0061367922,8066.3857,8036.6143,6664.5117,6630.767,0.2981329,0.0,0.0,0.0
292.8141,292.8141,3.499,0.0,0.0,319.17065,11415.0,100.0,0.0,-0.052281424,0.0,8.0,1.0,0.0,4000000.0,110.0,1.0,0.0,0.0,10.0,0.0,0.0,73.685196,2.4098241,-96.07982,-0.03887748,0.22230995,-0.14983107,324.80972,324.32837,319.0411,319.0194,361.0,362.0,430.0,431.0,93.0,93.0,93.0,93.0,0.0,0.0,0.0,0.0,0.049571283,0.049550626,0.05341385,0.05335567,-26.31582,-26.485249,-12.139007,-11.51964,-545.29297,-530.4873,-406.15344,-406.73013,0.0,0.0,0.0,2.0,1.0,1.0332519,0.017505815,0.0052187443,93.0,93.0,93.0,93.0,21.980246,21.980246,24.842789,24.842789,0.017626176,0.016182683,-4.506249E-4,-4.3642125E-4,1180.9071,0.0,0.0,0.0,0.0,0.0,0.0,0.0,0.0,0.0,0.0,0.0,0.0,0.0,76.18647,-0.41063702,45.340763,0.0103859585,-0.004014085,-0.018102325,549309.1,119984.91,0.008475578,0.00852482,7884.496,7851.9062,6463.76,6438.282,0.30035782,0.0,0.0,0.0
