LapDistance [m],TotalDistance [m],LapTime [s],Sector1Time [s],Sector2Time [s],Speed [km/h],EngineRevs [rpm],ThrottlePercentage [%],BrakePercentage [%],Steer [%],Clutch [%],Gear [int],DRS [0/1],CanUseDRS [0/1],KERSLevel [J],EngineTemperature [C],RacePosition [int],Sector [int],InPits [int],FuelRemaining [kg],CurrentFlag [int],CurrentLapInvalid [int],X [m],Y [m],Z [m],GForceLatitudinal [G],GForceLongitudinal [G],GForceVertical [G],WheelSpeedRearLeft [km/h],WheelSpeedRearRight [km/h],WheelSpeedFrontLeft [km/h],WheelSpeedFrontRight [km/h],BrakeTemperatureRearLeft [C],BrakeTemperatureRearRight [C],BrakeTemperatureFrontLeft [C],BrakeTemperatureFrontRight [C],TyreTemperatureRearLeft [C],TyreTemperatureRearRight [C],TyreTemperatureFrontLeft [C],TyreTemperatureFrontRight [C],TyreWearRearLeft [%],TyreWearRearRight [%],TyreWearFrontLeft [%],TyreWearFrontRight [%],SuspensionPositionRearLeft [m],SuspensionPositionRearRight [m],SuspensionPositionFrontLeft [m],SuspensionPositionFrontRight [m],SuspensionVelocityRearLeft [m/s],SuspensionVelocityRearRight [m/s],SuspensionVelocityFrontLeft [m/s],SuspensionVelocityFrontRight [m/s],SuspensionAccelerationRearLeft [m/s^2],SuspensionAccelerationRearRight [m/s^2],SuspensionAccelerationFrontLeft [m/s^2],SuspensionAccelerationFrontRight [m/s^2],MGUKHarvested [J],MGUHHarvested [J],ERSSpent [J],ERSMode [int],FuelMixMode [int],Yaw [rad],Roll [rad],Pitch [rad],TyreCarcassTemperatureRearLeft [C],TyreCarcassTemperatureRearRight [C],TyreCarcassTemperatureFrontLeft [C],TyreCarcassTemperatureFrontRight [C],TyrePressureRearLeft [PSI],TyrePressureRearRight [PSI],TyrePressureFrontLeft [PSI],TyrePressureFrontRight [PSI],WheelSlipRearLeft [%],WheelSlipRearRight [%],WheelSlipFrontLeft [%],WheelSlipFrontRight [%],Torque [Nm],Handbrake [%],RearLeftInside [C],RearLeftMiddle [C],RearLeftOutside [C],RearRightInside [C],RearRightMiddle [C],RearRightOutside [C],FrontLeftInside [C],FrontLeftMiddle [C],FrontLeftOutside [C],FrontRightInside [C],FrontRightMiddle [C],FrontRightOutside [C],WoldSpeedX [km/h],WoldSpeedY [km/h],WoldSpeedZ [km/h],LocalAngularVelocityX [rad/s],LocalAngularVelocityY [rad/s],LocalAngularVelocityZ [rad/s],IcePower [W],MgukPower [W],FrontRideHeight [m],RearRideHeight [m],LoadRearLeft [N],LoadRearRight [N],LoadFrontLeft [N],LoadFrontRight [N],Extra1 [m],Extra2 [],Extra3 [],Extra4 []
1.2819462,1.2819462,0.016,0.0,0.0,280.39987,11525.0,100.0,0.0,3.5867994,0.0,7.0,1.0,0.0,4000000.0,110.0,1.0,0.0,0.0,10.0,0.0,0.0,-180.02345,2.26966,-239.85043,-1.9333111,0.42605782,0.014249183,286.20325,286.5129,280.8101,279.45963,495.0,496.0,559.0,562.0,93.0,93.0,93.0,93.0,0.0,0.0,0.0,0.0,0.048768263,0.03811232,0.055351473,0.047054194,0.0,0.0,0.0,0.0,109.54141,-192.62282,90.94027,-62.669815,0.0,0.0,0.0,2.0,1.0,1.1979433,0.0050479434,-0.004200697,93.0,93.0,93.0,93.0,21.980246,21.980246,24.842789,24.842789,0.018821878,0.0241062,-4.8101373E-4,-5.621672E-4,1187.5941,0.0,0.0,0.0,0.0,0.0,0.0,0.0,0.0,0.0,0.0,0.0,0.0,0.0,73.03375,0.44234163,27.065628,0.008611192,-0.22417158,0.0034189606,547147.1,119984.9,0.017015005,0.01989363,8042.9844,5266.663,7156.392,3393.044,0.3143425,0.0,0.0,0.0
5.153221,5.153221,0.05,0.0,0.0,281.08896,11553.0,100.0,0.0,3.327406,0.0,7.0,1.0,0.0,4000000.0,110.0,1.0,0.0,0.0,10.0,0.0,0.0,-176.37566,2.2916791,-238.47246,-1.8331409,0.4263366,-0.02473802,286.90005,287.21158,281.4665,280.2079,493.0,494.0,557.0,560.0,93.0,93.0,93.0,93.0,0.0,0.0,0.0,0.0,0.04845236,0.03792841,0.055150956,0.047155906,-8.824244,-5.374029,-4.9971786,1.3455747,-304.85983,-166.56517,-142.93489,-81.08317,0.0,0.0,0.0,2.0,1.0,1.1871492,0.005389534,-0.004249215,93.0,93.0,93.0,93.0,21.980246,21.980246,24.842789,24.842789,0.01894764,0.023955116,-4.848195E-4,-5.571177E-4,1189.2731,0.0,0.0,0.0,0.0,0.0,0.0,0.0,0.0,0.0,0.0,0.0,0.0,0.0,72.887985,0.43558872,27.994286,0.0057282955,-0.20891947,0.0052660014,546592.7,119984.9,0.01682385,0.019942751,7856.259,5249.2456,7060.0933,3433.2869,0.31424618,0.0,0.0,0.0
9.025942,9.025942,0.1,0.0,0.0,281.79242,11575.0,100.0,0.0,3.2158327,0.0,7.0,1.0,0.0,4000000.0,110.0,1.0,0.0,0.0,10.0,0.0,0.0,-172.73491,2.3134558,-237.04909,-1.7595575,0.4305421,0.04672654,287.49313,287.7271,282.14682,280.95697,491.0,492.0,555.0,558.0,93.0,93.0,93.0,93.0,0.0,0.0,0.0,0.0,0.04881315,0.03866972,0.055120822,0.047435798,11.711864,22.424831,0.36790964,6.5743175,211.08981,425.51904,42.41913,13.384236,0.0,0.0,0.0,2.0,1.0,1.177007,0.0057696905,-0.004500985,93.0,93.0,93.0,93.0,21.980246,21.980246,24.842789,24.842789,0.018589804,0.023102649,-4.924131E-4,-5.421937E-4,1190.5741,0.0,0.0,0.0,0.0,0.0,0.0,0.0,0.0,0.0,0.0,0.0,0.0,0.0,72.750244,0.4413723,28.88404,0.007135319,-0.19829872,0.009590155,546150.6,119984.91,0.016076107,0.018921211,8014.7295,5504.7437,7138.758,3646.8428,0.31341743,0.0,0.0,0.0
12.900857,12.900857,0.166,0.0,0.0,282.49466,11602.0,100.0,0.0,3.175397,0.0,7.0,1.0,0.0,4000000.0,110.0,1.0,0.0,0.0,10.0,0.0,0.0,-169.10095,2.3359795,-235.58224,-1.682438,0.42539293,0.03012914,288.17615,288.36255,282.84192,281.6842,489.0,490.0,553.0,556.0,93.0,93.0,93.0,93.0,0.0,0.0,0.0,0.0,0.048737243,0.039440315,0.05492373,0.047649086,0.0,0.0,0.0,0.0,-19.513062,-349.66614,-31.66348,-85.468575,0.0,0.0,0.0,2.0,1.0,1.1672337,0.0064419284,-0.0046778917,93.0,93.0,93.0,93.0,21.980246,21.980246,24.842789,24.842789,0.018482983,0.022725184,-4.959629E-4,-5.306299E-4,1192.2054,0.0,0.0,0.0,0.0,0.0,0.0,0.0,0.0,0.0,0.0,0.0,0.0,0.0,72.6166,0.45650163,29.736818,0.011231765,-0.19349144,0.0045350506,545626.25,119984.89,0.015837181,0.018262094,7965.758,5566.838,6990.202,3695.8389,0.31286716,0.0,0.0,0.0
16.778658,16.778658,0.2,0.0,0.0,283.1945,11631.0,100.0,0.0,3.0410686,0.0,7.0,1.0,0.0,4000000.0,110.0,1.0,0.0,0.0,10.0,0.0,0.0,-165.47356,2.3588443,-234.07368,-1.6130896,0.42189592,-0.0053546177,288.9161,289.08328,283.54016,282.40198,486.0,488.0,551.0,554.0,93.0,93.0,93.0,93.0,0.0,0.0,0.0,0.0,0.048498668,0.039399646,0.05475764,0.04776121,-5.728304,-4.0597467,-1.6663222,0.95240766,-64.72169,-112.11633,87.922806,-102.7286,0.0,0.0,0.0,2.0,1.0,1.157637,0.0068495567,-0.00453496,93.0,93.0,93.0,93.0,21.980246,21.980246,24.842789,24.842789,0.018588563,0.02270666,-4.923829E-4,-5.266246E-4,1193.9146,0.0,0.0,0.0,0.0,0.0,0.0,0.0,0.0,0.0,0.0,0.0,0.0,0.0,72.487144,0.45531777,30.555038,0.008164903,-0.19027485,2.2409623E-4,545046.06,119984.9,0.01575064,0.018428953,7817.5674,5529.8545,6928.6147,3741.4688,0.31290913,0.0,0.0,0.0
20.66379,20.66379,0.25,0.0,0.0,283.89398,11659.0,100.0,0.0,2.9576373,0.0,7.0,1.0,0.0,4000000.0,110.0,1.0,0.0,0.0,10.0,0.0,0.0,-161.85255,2.3814135,-232.52489,-1.5649874,0.41905755,-0.023097875,289.6101,289.75674,284.2324,283.11884,484.0,486.0,549.0,552.0,93.0,93.0,93.0,93.0,0.0,0.0,0.0,0.0,0.048411943,0.03943741,0.054620896,0.047798973,-1.4273821,-0.81874424,-3.9522345,-0.0462681,-17.152725,-179.52022,-10.82272,-3.7416809,0.0,0.0,0.0,2.0,1.0,1.148224,0.0071677724,-0.004398346,93.0,93.0,93.0,93.0,21.980246,21.980246,24.842789,24.842789,0.01855341,0.022506682,-4.905929E-4,-5.258594E-4,1195.595,0.0,0.0,0.0,0.0,0.0,0.0,0.0,0.0,0.0,0.0,0.0,0.0,0.0,72.3598,0.4451335,31.347597,0.0077011944,-0.18608029,-0.002087849,544502.4,119984.9,0.016071482,0.018567614,7774.3203,5566.1396,6832.3525,3732.226,0.31312466,0.0,0.0,0.0
24.568674,24.568674,0.316,0.0,0.0,283.09723,11200.0,100.0,0.0,2.9567902,0.0,7.0,1.0,0.0,4000000.0,110.0,1.0,0.0,0.0,10.0,0.0,0.0,-158.24672,2.4038486,-230.9407,-1.5443203,-0.5768778,0.048287794,283.3995,282.76862,283.54138,282.5441,482.0,484.0,547.0,550.0,93.0,93.0,93.0,93.0,0.0,0.0,0.0,0.0,0.04586153,0.03675252,0.05523238,0.048381247,0.0,0.0,0.0,0.0,-587.3098,-459.7975,151.55821,124.4276,0.0,0.0,0.0,2.0,1.0,1.1392838,0.0072046746,-0.002705574,93.0,93.0,93.0,93.0,21.980246,21.980246,24.842789,24.842789,-5.8868167E-4,7.324794E-4,-3.8669386E-5,1.2307409E-4,1159.8497,0.0,0.0,0.0,0.0,0.0,0.0,0.0,0.0,0.0,0.0,0.0,0.0,0.0,71.8503,0.4562423,31.957455,0.018855067,-0.17521268,-0.036155276,549870.9,0.0,0.01516445,0.021645864,7450.631,5302.5073,7479.166,4349.021,0.3139696,0.0,0.0,0.0
28.469093,28.469093,0.366,0.0,0.0,283.08728,10799.0,100.0,0.0,3.017032,0.0,8.0,1.0,0.0,4000000.0,110.0,1.0,0.0,0.0,10.0,0.0,0.0,-154.66447,2.42624,-229.32613,-1.4709941,0.41298574,-0.11911758,289.46027,289.69012,283.41367,282.3081,480.0,482.0,545.0,548.0,93.0,93.0,93.0,93.0,0.0,0.0,0.0,0.0,0.044726178,0.0357319,0.054960996,0.048353873,0.0,0.0,0.0,0.0,2317.6294,2621.8723,-882.79535,-795.50287,0.0,0.0,0.0,2.0,1.0,1.1302974,0.0075442754,-0.0025197268,93.0,93.0,93.0,93.0,21.980246,21.980246,24.842789,24.842789,0.020841619,0.024957426,-5.3243624E-4,-5.140672E-4,1110.779,0.0,0.0,0.0,0.0,0.0,0.0,0.0,0.0,0.0,0.0,0.0,0.0,0.0,71.546684,0.42528626,32.625294,-0.0036692722,-0.18678641,0.03238616,546161.56,119984.89,0.016486488,0.023113469,7286.4053,5256.077,6891.995,3908.604,0.3153267,0.0,0.0,0.0
32.38224,32.38224,0.4,0.0,0.0,283.92438,10476.0,100.0,0.0,3.196844,0.0,8.0,1.0,0.0,4000000.0,110.0,1.0,0.0,0.0,10.0,0.0,0.0,-151.08958,2.445593,-227.67485,-1.5075717,0.49461073,-0.077177025,290.111,290.2423,284.2709,283.1151,478.0,480.0,543.0,546.0,93.0,93.0,93.0,93.0,0.0,0.0,0.0,0.0,0.047057062,0.038338147,0.054203752,0.04767951,54.78613,49.953457,-2.1486728,-5.3644176,375.76422,-326.854,932.87213,591.1588,0.0,0.0,0.0,2.0,1.0,1.1207678,0.007662819,-0.003742814,93.0,93.0,93.0,93.0,21.980246,21.980246,24.842789,24.842789,0.020139962,0.024214545,-5.404746E-4,-5.6648965E-4,1064.9127,0.0,0.0,0.0,0.0,0.0,0.0,0.0,0.0,0.0,0.0,0.0,0.0,0.0,71.45121,0.36118492,33.38768,-0.011934444,-0.1941387,0.006368245,539753.56,119984.89,0.017050846,0.020005817,7657.9585,5597.3154,6579.39,3583.375,0.31438446,0.0,0.0,0.0
36.31083,36.31083,0.466,0.0,0.0,284.72836,10263.0,100.0,0.0,3.3218398,0.0,8.0,1.0,0.0,4000000.0,110.0,1.0,0.0,0.0,10.0,0.0,0.0,-147.5201,2.4633994,-225.98483,-1.5681932,0.4526596,0.053937692,290.2931,290.33826,285.11444,283.8995,476.0,478.0,541.0,544.0,93.0,93.0,93.0,93.0,0.0,0.0,0.0,0.0,0.049041536,0.04004371,0.054666333,0.047809683,0.0,0.0,0.0,0.0,-1551.242,-151.26318,-129.68478,233.49968,0.0,0.0,0.0,2.0,1.0,1.1107695,0.007311837,-0.0039674044,93.0,93.0,93.0,93.0,21.980246,21.980246,24.842789,24.842789,0.018036429,0.022063298,-5.086601E-4,-5.26379E-4,1022.9856,0.0,0.0,0.0,0.0,0.0,0.0,0.0,0.0,0.0,0.0,0.0,0.0,0.0,71.32706,0.36112565,34.172207,1.3982109E-4,-0.20454459,-2.2628787E-4,529263.8,119984.92,0.015603859,0.017511956,7972.9795,5758.17,6973.205,3843.7812,0.31241798,0.0,0.0,0.0
40.253044,40.253044,0.516,0.0,0.0,285.37183,10284.0,100.0,0.0,3.1400754,0.0,8.0,1.0,0.0,4000000.0,110.0,1.0,0.0,0.0,10.0,0.0,0.0,-143.95839,2.4822,-224.25565,-1.5815753,0.3830454,0.039726865,290.90002,290.93173,285.76025,284.5542,474.0,475.0,539.0,542.0,93.0,93.0,93.0,93.0,0.0,0.0,0.0,0.0,0.04883695,0.040405236,0.054777045,0.048102394,0.0,0.0,0.0,0.0,-213.28922,-552.5081,-105.57173,-318.47205,0.0,0.0,0.0,2.0,1.0,1.1005532,0.007569313,-0.0036814213,93.0,93.0,93.0,93.0,21.980246,21.980246,24.842789,24.842789,0.017623872,0.021454144,-4.7366548E-4,-4.9571437E-4,1027.1045,0.0,0.0,0.0,0.0,0.0,0.0,0.0,0.0,0.0,0.0,0.0,0.0,0.0,71.1478,0.38537785,34.95094,0.0063532447,-0.202576,-0.005364213,530309.7,119984.91,0.015278567,0.017428195,7978.4697,5685.56,6989.793,3946.915,0.31215572,0.0,0.0,0.0
44.207382,44.207382,0.55,0.0,0.0,286.00476,10310.0,100.0,0.0,2.8031516,0.0,8.0,1.0,0.0,4000000.0,110.0,1.0,0.0,0.0,10.0,0.0,0.0,-140.4059,2.5013137,-222.48782,-1.5477942,0.38278627,-0.034726027,291.59692,291.69022,286.362,285.2254,472.0,473.0,537.0,540.0,93.0,93.0,93.0,93.0,0.0,0.0,0.0,0.0,0.048403416,0.039823618,0.054701038,0.048016112,-7.190555,-13.644397,-2.1806357,-2.7126071,114.89241,-100.998566,-45.15498,-50.68033,0.0,0.0,0.0,2.0,1.0,1.0907311,0.0076305233,-0.003376007,93.0,93.0,93.0,93.0,21.980246,21.980246,24.842789,24.842789,0.017945062,0.021752335,-4.635917E-4,-5.1196595E-4,1032.1614,0.0,0.0,0.0,0.0,0.0,0.0,0.0,0.0,0.0,0.0,0.0,0.0,0.0,70.96306,0.37430143,35.717426,0.0039972626,-0.18947046,-0.0025261722,531576.7,119984.89,0.015676908,0.018333852,7775.414,5558.323,6899.991,3847.7917,0.31279755,0.0,0.0,0.0
48.173523,48.173523,0.6,0.0,0.0,286.64587,10331.0,100.0,0.0,2.4788501,0.0,8.0,1.0,0.0,4000000.0,110.0,1.0,0.0,0.0,10.0,0.0,0.0,-136.8625,2.5194051,-220.68219,-1.4862168,0.38707265,-0.034274727,292.20163,292.2802,286.95355,285.929,470.0,471.0,535.0,538.0,93.0,93.0,93.0,93.0,0.0,0.0,0.0,0.0,0.04831979,0.03968075,0.054591153,0.048036966,-0.6821751,1.6683339,-1.9591299,1.8417834,20.492071,257.8005,19.21802,91.19509,0.0,0.0,0.0,2.0,1.0,1.0817487,0.007873375,-0.0032314062,93.0,93.0,93.0,93.0,21.980246,21.980246,24.842789,24.842789,0.017980104,0.021359384,-4.6164516E-4,-5.223595E-4,1036.2921,0.0,0.0,0.0,0.0,0.0,0.0,0.0,0.0,0.0,0.0,0.0,0.0,0.0,70.7841,0.35116163,36.46156,0.009186968,-0.16974735,0.0021840923,532619.25,119984.914,0.01576709,0.018399632,7740.1553,5652.89,6862.6826,3882.0671,0.31289768,0.0,0.0,0.0
52.151054,52.151054,0.65,0.0,0.0,287.29285,10353.0,100.0,0.0,2.1692586,0.0,8.0,1.0,0.0,4000000.0,110.0,1.0,0.0,0.0,10.0,0.0,0.0,-133.32773,2.536475,-218.84032,-1.3860648,0.38722888,-0.018388228,292.7975,292.89667,287.54486,286.65094,468.0,469.0,533.0,536.0,93.0,93.0,93.0,93.0,0.0,0.0,0.0,0.0,0.04829498,0.040214043,0.054421674,0.048285197,-0.032410022,12.845992,-4.308298,6.576329,14.108417,59.853455,-59.73279,80.41262,0.0,0.0,0.0,2.0,1.0,1.0738348,0.008545245,-0.0031161308,93.0,93.0,93.0,93.0,21.980246,21.980246,24.842789,24.842789,0.017955078,0.020973895,-4.6363115E-4,-5.209804E-4,1040.5625,0.0,0.0,0.0,0.0,0.0,0.0,0.0,0.0,0.0,0.0,0.0,0.0,0.0,70.61983,0.3340795,37.166363,0.015071265,-0.14757101,0.005596682,533677.56,119984.914,0.015606355,0.018035501,7713.3535,5780.04,6792.8486,4025.6196,0.31266022,0.0,0.0,0.0
56.139454,56.139454,0.716,0.0,0.0,287.9467,10375.0,100.0,0.0,2.044394,0.0,8.0,1.0,0.0,4000000.0,110.0,1.0,0.0,0.0,10.0,0.0,0.0,-129.80063,2.5529013,-216.96443,-1.278883,0.38816994,-0.00868335,293.421,293.51547,288.15668,287.36136,466.0,467.0,531.0,534.0,93.0,93.0,93.0,93.0,0.0,0.0,0.0,0.0,0.048279367,0.040837057,0.054239124,0.048610263,0.0,0.0,0.0,0.0,34.560257,100.89128,-55.843575,-79.55431,0.0,0.0,0.0,2.0,1.0,1.0668973,0.009273774,-0.0031011105,93.0,93.0,93.0,93.0,21.980246,21.980246,24.842789,24.842789,0.017941942,0.020650232,-4.7457975E-4,-5.088849E-4,1044.8922,0.0,0.0,0.0,0.0,0.0,0.0,0.0,0.0,0.0,0.0,0.0,0.0,0.0,70.47617,0.3239962,37.82374,0.011669699,-0.13186711,0.007495941,534761.8,119984.91,0.015280605,0.017575568,7671.351,5905.906,6719.3906,4178.7593,0.31224442,0.0,0.0,0.0
60.138554,60.138554,0.749,0.0,0.0,288.60803,10397.0,100.0,0.0,1.8266134,0.0,8.0,1.0,0.0,4000000.0,110.0,1.0,0.0,0.0,10.0,0.0,0.0,-126.28009,2.5689485,-215.05705,-1.1610682,0.38885826,0.007816664,294.05646,294.13614,288.78867,288.06918,464.0,465.0,530.0,532.0,93.0,93.0,93.0,93.0,0.0,0.0,0.0,0.0,0.04831964,0.041565057,0.054042954,0.048903126,-0.05610287,14.536901,-3.4553556,6.3876805,-37.068123,32.374245,35.8477,35.65999,0.0,0.0,0.0,2.0,1.0,1.0606405,0.010022515,-0.0031158924,93.0,93.0,93.0,93.0,21.980246,21.980246,24.842789,24.842789,0.017903361,0.020325359,-4.7375206E-4,-5.087244E-4,1049.2548,0.0,0.0,0.0,0.0,0.0,0.0,0.0,0.0,0.0,0.0,0.0,0.0,0.0,70.35621,0.3195054,38.431152,0.014879896,-0.119062364,0.008404266,535858.25,119984.9,0.015042799,0.017044753,7653.0054,6039.464,6648.8936,4333.6504,0.3118744,0.0,0.0,0.0
64.14817,64.14817,0.799,0.0,0.0,289.27405,10421.0,100.0,0.0,1.4561449,0.0,8.0,1.0,0.0,4000000.0,110.0,1.0,0.0,0.0,10.0,0.0,0.0,-122.764824,2.584787,-213.12068,-1.0272079,0.38618094,-0.002792555,294.7302,294.81717,289.41495,288.79376,462.0,463.0,528.0,530.0,93.0,93.0,93.0,93.0,0.0,0.0,0.0,0.0,0.04815026,0.04216534,0.05376164,0.049206175,-3.821477,3.586784,-4.3880935,7.430836,-0.7241964,-880.73004,135.65271,110.76181,0.0,0.0,0.0,2.0,1.0,1.0551127,0.01084674,-0.0030274391,93.0,93.0,93.0,93.0,21.980246,21.980246,24.842789,24.842789,0.018016824,0.02016611,-4.6272858E-4,-5.1651464E-4,1053.9952,0.0,0.0,0.0,0.0,0.0,0.0,0.0,0.0,0.0,0.0,0.0,0.0,0.0,70.26339,0.3139158,38.98343,0.01424189,-0.1016338,0.0059726126,537039.56,119984.9,0.014990386,0.016916877,7536.215,6051.713,6518.744,4473.59,0.31194496,0.0,0.0,0.0
68.167984,68.167984,0.849,0.0,0.0,289.94794,10444.0,100.0,0.0,0.9962731,0.0,8.0,1.0,0.0,4000000.0,110.0,1.0,0.0,0.0,10.0,0.0,0.0,-119.25336,2.6001518,-211.15831,-0.86540115,0.3913603,-0.019119209,295.3895,295.4629,290.02267,289.54996,460.0,461.0,526.0,528.0,93.0,93.0,93.0,93.0,0.0,0.0,0.0,0.0,0.047927503,0.04267262,0.053416803,0.049493678,-3.9155777,16.981287,-9.341016,7.9078217,88.49947,397.0339,-140.29291,212.52481,0.0,0.0,0.0,2.0,1.0,1.0506479,0.01184042,-0.003017068,93.0,93.0,93.0,93.0,21.980246,21.980246,24.842789,24.842789,0.018176584,0.019769859,-4.6102557E-4,-5.2566896E-4,1058.5613,0.0,0.0,0.0,0.0,0.0,0.0,0.0,0.0,0.0,0.0,0.0,0.0,0.0,70.205215,0.30074674,39.47157,0.018362455,-0.0759839,0.009522642,538178.25,119984.91,0.015046469,0.016668612,7406.6147,6269.376,6315.8936,4581.7466,0.3118019,0.0,0.0,0.0
72.19786,72.19786,0.916,0.0,0.0,290.62802,10467.0,100.0,0.0,0.66580397,0.0,8.0,1.0,0.0,4000000.0,110.0,1.0,0.0,0.0,10.0,0.0,0.0,-115.743774,2.6149538,-209.1734,-0.695407,0.39159092,-0.009006587,296.04413,296.13544,290.63016,290.3159,458.0,459.0,524.0,526.0,93.0,93.0,93.0,93.0,0.0,0.0,0.0,0.0,0.047713324,0.043401122,0.05310993,0.04991376,0.0,0.0,0.0,0.0,-110.48017,348.63354,-111.84811,-18.614557,0.0,0.0,0.0,2.0,1.0,1.0475441,0.012954328,-0.0030343533,93.0,93.0,93.0,93.0,21.980246,21.980246,24.842789,24.842789,0.018276077,0.019451827,-4.6900156E-4,-5.161623E-4,1063.1754,0.0,0.0,0.0,0.0,0.0,0.0,0.0,0.0,0.0,0.0,0.0,0.0,0.0,70.18686,0.29213405,39.888016,0.019372253,-0.04996704,0.01307584,539336.4,119984.91,0.014743444,0.016307898,7306.663,6421.0576,6206.4893,4794.5186,0.31139088,0.0,0.0,0.0
76.23767,76.23767,0.949,0.0,0.0,291.3118,10491.0,100.0,0.0,0.5286737,0.0,8.0,1.0,0.0,4000000.0,110.0,1.0,0.0,0.0,10.0,0.0,0.0,-112.23404,2.629556,-207.16959,-0.54100287,0.3898317,0.0052624443,296.70685,296.8005,291.26773,291.05576,456.0,457.0,522.0,524.0,93.0,93.0,93.0,93.0,0.0,0.0,0.0,0.0,0.047641773,0.04425978,0.05279586,0.05033808,-2.368167,13.035088,-5.174428,6.3501296,-99.80499,-253.93808,83.68491,-167.89285,0.0,0.0,0.0,2.0,1.0,1.0455166,0.0139660835,-0.003103733,93.0,93.0,93.0,93.0,21.980246,21.980246,24.842789,24.842789,0.018275056,0.019182682,-4.800637E-4,-4.9871963E-4,1067.9027,0.0,0.0,0.0,0.0,0.0,0.0,0.0,0.0,0.0,0.0,0.0,0.0,0.0,70.207504,0.2920611,40.235046,0.015963355,-0.034098506,0.010660967,540495.2,119984.9,0.014517539,0.015829315,7264.792,6559.0854,6082.386,4992.5884,0.31110096,0.0,0.0,0.0
80.287285,80.287285,0.999,0.0,0.0,291.99493,10515.0,100.0,0.0,0.55701166,0.0,8.0,1.0,0.0,4000000.0,110.0,1.0,0.0,0.0,10.0,0.0,0.0,-108.72241,2.6441398,-205.14996,-0.42984736,0.38760853,0.0020412412,297.4015,297.46185,291.9384,291.7556,454.0,455.0,520.0,522.0,93.0,93.0,93.0,93.0,0.0,0.0,0.0,0.0,0.047486853,0.044853155,0.05253926,0.050630722,-1.9157677,7.6816225,-4.24996,3.589019,30.697872,-384.2398,28.257063,-234.96149,0.0,0.0,0.0,2.0,1.0,1.0439665,0.014731441,-0.0031415224,93.0,93.0,93.0,93.0,21.980246,21.980246,24.842789,24.842789,0.018292729,0.019027872,-4.9068744E-4,-4.8566298E-4,1071.7511,0.0,0.0,0.0,0.0,0.0,0.0,0.0,0.0,0.0,0.0,0.0,0.0,0.0,70.25883,0.2915119,40.52648,0.010430192,-0.030412862,0.0061732507,541204.8,119984.89,0.014469459,0.0155689465,7207.5225,6651.84,5962.6045,5114.01,0.31093693,0.0,0.0,0.0
84.346596,84.346596,1.049,0.0,0.0,292.67337,10539.0,100.0,0.0,0.6536532,0.0,8.0,1.0,0.0,4000000.0,110.0,1.0,0.0,0.0,10.0,0.0,0.0,-105.207726,2.6585875,-203.11671,-0.37505013,0.3843227,-0.0067358594,298.11105,298.11957,292.63376,292.41913,452.0,453.0,518.0,521.0,93.0,93.0,93.0,93.0,0.0,0.0,0.0,0.0,0.04731896,0.04508712,0.052402157,0.05078167,-2.5270877,1.7818807,-1.5979259,3.0621884,58.83426,-222.5965,63.541523,11.077522,0.0,0.0,0.0,2.0,1.0,1.0423054,0.015141517,-0.0030896664,93.0,93.0,93.0,93.0,21.980246,21.980246,24.842789,24.842789,0.018297767,0.018971946,-4.943346E-4,-4.7875868E-4,1075.034,0.0,0.0,0.0,0.0,0.0,0.0,0.0,0.0,0.0,0.0,0.0,0.0,0.0,70.32613,0.28646445,40.786556,0.004640651,-0.036514875,0.0012905272,541626.4,119984.91,0.014362823,0.015508075,7161.3726,6686.113,5916.7007,5193.0146,0.31090164,0.0,0.0,0.0
88.41577,88.41577,1.116,0.0,0.0,293.34653,10562.0,100.0,0.0,0.66781926,0.0,8.0,1.0,0.0,4000000.0,110.0,1.0,0.0,0.0,10.0,0.0,0.0,-101.68953,2.6727803,-201.07079,-0.3565979,0.38144767,0.009943194,298.77902,298.75653,293.32407,293.07553,450.0,451.0,516.0,519.0,93.0,93.0,93.0,93.0,0.0,0.0,0.0,0.0,0.047363285,0.04529061,0.05240256,0.050907653,0.0,0.0,0.0,0.0,240.8221,323.63528,83.10823,212.61868,0.0,0.0,0.0,2.0,1.0,1.0403043,0.015277159,-0.0030554533,93.0,93.0,93.0,93.0,21.980246,21.980246,24.842789,24.842789,0.018188553,0.018857913,-4.8993225E-4,-4.8075544E-4,1078.181,0.0,0.0,0.0,0.0,0.0,0.0,0.0,0.0,0.0,0.0,0.0,0.0,0.0,70.39843,0.28336525,41.03426,-2.3375862E-4,-0.042150527,4.143888E-4,542029.0,119984.9,0.014176509,0.015291805,7206.9365,6755.966,5956.2686,5287.866,0.3107443,0.0,0.0,0.0
92.494385,92.494385,1.166,0.0,0.0,294.01266,10585.0,100.0,0.0,0.552228,0.0,8.0,1.0,0.0,4000000.0,110.0,1.0,0.0,0.0,10.0,0.0,0.0,-98.16768,2.686973,-199.01268,-0.34126318,0.37762374,0.004048681,299.4379,299.4113,293.98755,293.74472,448.0,449.0,514.0,517.0,93.0,93.0,93.0,93.0,0.0,0.0,0.0,0.0,0.047559578,0.045544434,0.052418105,0.05094347,0.0,0.0,0.0,0.0,-23.952126,210.59363,-67.37708,84.54321,0.0,0.0,0.0,2.0,1.0,1.0382034,0.015313987,-0.0031343699,93.0,93.0,93.0,93.0,21.980246,21.980246,24.842789,24.842789,0.018137246,0.018766034,-4.8106888E-4,-4.8800072E-4,1081.3364,0.0,0.0,0.0,0.0,0.0,0.0,0.0,0.0,0.0,0.0,0.0,0.0,0.0,70.471886,0.28373808,41.275314,8.786687E-4,-0.040521357,0.0020884238,542434.1,119984.9,0.014109832,0.015002693,7221.7417,6785.591,5938.802,5274.832,0.31051254,0.0,0.0,0.0
96.58231,96.58231,1.199,0.0,0.0,294.67297,10609.0,100.0,0.0,0.28509814,0.0,8.0,1.0,0.0,4000000.0,110.0,1.0,0.0,0.0,10.0,0.0,0.0,-94.642006,2.7010956,-196.94289,-0.29440576,0.37382695,-0.008019547,300.09586,300.08902,294.6154,294.44022,446.0,448.0,512.0,515.0,93.0,93.0,93.0,93.0,0.0,0.0,0.0,0.0,0.04755784,0.045786604,0.052330922,0.05101215,-3.0458717,4.6272573,-2.1960585,2.080947,-154.54887,21.752728,-22.758541,36.129345,0.0,0.0,0.0,2.0,1.0,1.0364741,0.015593408,-0.0031166077,93.0,93.0,93.0,93.0,21.980246,21.980246,24.842789,24.842789,0.018194525,0.018668259,-4.7061703E-4,-4.96398E-4,1084.611,0.0,0.0,0.0,0.0,0.0,0.0,0.0,0.0,0.0,0.0,0.0,0.0,0.0,70.55232,0.28029066,41.50065,0.007824899,-0.028139552,0.002990303,542845.9,119984.9,0.014072363,0.014863111,7177.6104,6808.4355,5891.603,5302.699,0.31041336,0.0,0.0,0.0
100.67945,100.67945,1.249,0.0,0.0,295.3284,10632.0,100.0,0.0,-0.049792185,0.0,8.0,1.0,0.0,4000000.0,110.0,1.0,0.0,0.0,10.0,0.0,0.0,-91.111916,2.7149878,-194.86264,-0.20558485,0.37074727,-0.0019032513,300.72812,300.7618,295.21356,295.15454,444.0,446.0,511.0,513.0,93.0,93.0,93.0,93.0,0.0,0.0,0.0,0.0,0.047378663,0.04607802,0.052215323,0.05126381,-3.7649271,6.904453,-1.8650292,5.78843,2.2530553,82.61203,30.308952,10.3131,0.0,0.0,0.0,2.0,1.0,1.0355815,0.016145684,-0.0030864477,93.0,93.0,93.0,93.0,21.980246,21.980246,24.842789,24.842789,0.018261448,0.0185062,-4.6357192E-4,-5.0166115E-4,1087.7684,0.0,0.0,0.0,0.0,0.0,0.0,0.0,0.0,0.0,0.0,0.0,0.0,0.0,70.64973,0.27646732,41.694,0.011110827,-0.007940304,0.008636066,543248.44,119984.9,0.013701209,0.01469032,7132.7866,6878.021,5871.414,5457.5957,0.31019974,0.0,0.0,0.0
104.78575,104.78575,1.316,0.0,0.0,295.98,10654.0,100.0,0.0,-0.15596546,0.0,8.0,1.0,0.0,4000000.0,110.0,1.0,0.0,0.0,10.0,0.0,0.0,-87.576355,2.7289581,-192.77371,-0.110846,0.3674845,0.0042346623,301.31558,301.3979,295.81674,295.8562,442.0,444.0,509.0,511.0,93.0,93.0,93.0,93.0,0.0,0.0,0.0,0.0,0.047429923,0.04679872,0.051987145,0.05152571,0.0,0.0,0.0,0.0,-64.84239,-211.04958,-58.954952,-20.585945,0.0,0.0,0.0,2.0,1.0,1.0356351,0.016846444,-0.00323236,93.0,93.0,93.0,93.0,21.980246,21.980246,24.842789,24.842789,0.018137926,0.01825765,-4.7155787E-4,-4.9114146E-4,1090.7769,0.0,0.0,0.0,0.0,0.0,0.0,0.0,0.0,0.0,0.0,0.0,0.0,0.0,70.769714,0.28086266,41.846745,0.01032675,0.007931873,0.006617465,543626.0,119984.89,0.013731713,0.014215509,7137.9785,7015.3438,5725.769,5548.409,0.30997562,0.0,0.0,0.0
108.90107,108.90107,1.366,0.0,0.0,296.62393,10677.0,100.0,0.0,-0.07400821,0.0,8.0,1.0,0.0,4000000.0,110.0,1.0,0.0,0.0,10.0,0.0,0.0,-84.034256,2.7428737,-190.67819,-0.039392844,0.3641343,-0.02198953,302.00546,302.05734,296.44843,296.51318,440.0,442.0,507.0,509.0,93.0,93.0,93.0,93.0,0.0,0.0,0.0,0.0,0.047140934,0.046946265,0.051806435,0.051669925,0.0,0.0,0.0,0.0,-30.85882,-61.382343,123.931435,97.23007,0.0,0.0,0.0,2.0,1.0,1.0361791,0.017326662,-0.0031365156,93.0,93.0,93.0,93.0,21.980246,21.980246,24.842789,24.842789,0.01828602,0.018249094,-4.836054E-4,-4.7670468E-4,1093.9677,0.0,0.0,0.0,0.0,0.0,0.0,0.0,0.0,0.0,0.0,0.0,0.0,0.0,70.90901,0.273856,41.962612,0.0067715733,0.010947021,0.0010421348,544041.75,119984.9,0.013447152,0.014227199,7018.4507,7019.5625,5669.0234,5623.7295,0.3098383,0.0,0.0,0.0
113.02529,113.02529,1.399,0.0,0.0,297.26468,10699.0,100.0,0.0,0.077842794,0.0,8.0,1.0,0.0,4000000.0,110.0,1.0,0.0,0.0,10.0,0.0,0.0,-80.48492,2.7563524,-188.57747,-0.014173657,0.3620659,-0.015368975,302.64435,302.6573,297.111,297.1309,439.0,440.0,505.0,507.0,93.0,93.0,93.0,93.0,0.0,0.0,0.0,0.0,0.04709669,0.047053196,0.05178286,0.051810715,2.0118802,4.2584534,0.11801719,1.3308226,154.80368,124.81657,29.088552,-104.39156,0.0,0.0,0.0,2.0,1.0,1.0365262,0.017480241,-0.0030899048,93.0,93.0,93.0,93.0,21.980246,21.980246,24.842789,24.842789,0.01816175,0.01815979,-4.890147E-4,-4.704297E-4,1096.992,0.0,0.0,0.0,0.0,0.0,0.0,0.0,0.0,0.0,0.0,0.0,0.0,0.0,71.05746,0.26618224,42.061302,9.551419E-4,0.0026048813,4.3037202E-4,544424.0,119984.9,0.012756693,0.013680488,7064.385,7071.0254,5680.1055,5696.0293,0.3091545,0.0,0.0,0.0
117.15847,117.15847,1.449,0.0,0.0,297.90298,10718.0,100.0,0.0,0.2261776,0.0,8.0,1.0,0.0,4000000.0,110.0,1.0,0.0,0.0,10.0,0.0,0.0,-76.92816,2.7696786,-186.4718,-0.03261748,0.36196375,0.109965704,303.19925,303.17416,297.78207,297.73465,437.0,438.0,503.0,506.0,93.0,93.0,93.0,93.0,0.0,0.0,0.0,0.0,0.0478244,0.047761522,0.052103963,0.052058883,35.37945,31.714659,16.606672,13.695581,1829.5211,1648.6865,863.75165,781.7297,0.0,0.0,0.0,2.0,1.0,1.0363505,0.017378286,-0.0031702518,93.0,93.0,93.0,93.0,21.980246,21.980246,24.842789,24.842789,0.017732074,0.01781349,-4.892977E-4,-4.6867743E-4,1099.6096,0.0,0.0,0.0,0.0,0.0,0.0,0.0,0.0,0.0,0.0,0.0,0.0,0.0,71.203995,0.27985483,42.16174,-0.007824637,-0.009178836,0.0058688917,544755.7,119984.89,0.012060271,0.01277031,7348.736,7328.456,6067.953,6039.661,0.30842304,0.0,0.0,0.0
121.30068,121.30068,1.516,0.0,0.0,298.5265,10746.0,100.0,0.0,0.24919084,0.0,8.0,1.0,0.0,4000000.0,110.0,1.0,0.0,0.0,10.0,0.0,0.0,-73.36434,2.7838755,-184.36086,-0.061528817,0.3505391,-0.14932767,304.00375,303.9665,298.4216,298.33926,435.0,436.0,501.0,504.0,93.0,93.0,93.0,93.0,0.0,0.0,0.0,0.0,0.04760652,0.04750469,0.051708404,0.051548123,0.0,0.0,0.0,0.0,-2017.9731,-2085.9136,-639.69336,-581.39557,0.0,0.0,0.0,2.0,1.0,1.0356983,0.017278424,-0.0032559633,93.0,93.0,93.0,93.0,21.980246,21.980246,24.842789,24.842789,0.018219778,0.018375697,-5.0316326E-4,-4.7258666E-4,1103.4741,0.0,0.0,0.0,0.0,0.0,0.0,0.0,0.0,0.0,0.0,0.0,0.0,0.0,71.34034,0.2653444,42.271503,0.004153504,-0.0153123345,-0.010107562,545245.8,119984.9,0.012571834,0.012778101,6900.4062,6826.7827,5387.5703,5310.7017,0.30866432,0.0,0.0,0.0
125.45165,125.45165,1.549,0.0,0.0,299.1604,10767.0,100.0,0.0,0.27787223,0.0,8.0,1.0,0.0,4000000.0,110.0,1.0,0.0,0.0,10.0,0.0,0.0,-69.793846,2.7957635,-182.24402,-0.09805608,0.3578385,-0.066570126,304.57797,304.55444,299.06516,298.96338,433.0,434.0,499.0,502.0,93.0,93.0,93.0,93.0,0.0,0.0,0.0,0.0,0.047221754,0.04684968,0.05183713,0.051541984,1.5816091,-4.6310573,4.8328934,2.1017342,446.34637,388.4911,47.689674,51.49841,0.0,0.0,0.0,2.0,1.0,1.0348376,0.017072646,-0.002576828,93.0,93.0,93.0,93.0,21.980246,21.980246,24.842789,24.842789,0.017987961,0.018236153,-5.0198013E-4,-4.770514E-4,1106.3589,0.0,0.0,0.0,0.0,0.0,0.0,0.0,0.0,0.0,0.0,0.0,0.0,0.0,71.47053,0.21973562,42.39745,0.0021450226,-0.018234894,-0.0150407925,545605.0,119984.9,0.01164016,0.012295331,7107.883,6984.2363,5724.7256,5581.185,0.3077097,0.0,0.0,0.0
129.6113,129.6113,1.599,0.0,0.0,299.76865,10801.0,100.0,0.0,0.3105439,0.0,8.0,1.0,0.0,4000000.0,110.0,1.0,0.0,0.0,10.0,0.0,0.0,-66.21713,2.80579,-180.12073,-0.10444522,0.34980103,-0.09843405,305.82614,305.25903,299.6916,299.55392,431.0,432.0,498.0,500.0,93.0,93.0,93.0,93.0,0.0,0.0,0.0,0.0,0.04716628,0.046661634,0.05190324,0.051525347,-6.190538,-4.963204,-0.97520643,-0.69044524,-278.88266,-116.287155,-116.40786,-12.043116,0.0,0.0,0.0,2.0,1.0,1.0337987,0.016972885,-0.0018081665,93.0,93.0,93.0,93.0,21.980246,21.980246,24.842789,24.842789,0.019996762,0.018552115,-5.0626276E-4,-4.6682984E-4,1111.072,0.0,0.0,0.0,0.0,0.0,0.0,0.0,0.0,0.0,0.0,0.0,0.0,0.0,71.59091,0.17961249,42.525845,0.0080934,-0.024953302,-0.013988803,546204.5,119984.9,0.011501084,0.012338447,7034.552,6921.4053,5705.0967,5534.142,0.3076067,0.0,0.0,0.0
133.77945,133.77945,1.666,0.0,0.0,300.38135,10825.0,100.0,0.0,0.29258472,0.0,8.0,1.0,0.0,4000000.0,110.0,1.0,0.0,0.0,10.0,0.0,0.0,-62.634544,2.814663,-177.99069,-0.15200667,0.34193873,-0.13420251,306.4942,305.91492,300.31964,300.15314,429.0,430.0,496.0,498.0,93.0,93.0,93.0,93.0,0.0,0.0,0.0,0.0,0.047515858,0.046900444,0.051946573,0.05141975,0.0,0.0,0.0,0.0,-1053.7727,-1234.7682,-320.14844,-348.88828,0.0,0.0,0.0,2.0,1.0,1.0324107,0.016811438,-0.0012158155,93.0,93.0,93.0,93.0,21.980246,21.980246,24.842789,24.842789,0.020086965,0.018675685,-4.93769E-4,-4.6861838E-4,1114.3722,0.0,0.0,0.0,0.0,0.0,0.0,0.0,0.0,0.0,0.0,0.0,0.0,0.0,71.70296,0.15579367,42.6705,0.004037733,-0.029115424,-0.017733583,546612.25,119984.9,0.013286991,0.013810168,7019.144,6818.4355,5604.5176,5352.7227,0.3092804,0.0,0.0,0.0
137.95604,137.95604,1.716,0.0,0.0,300.98972,10851.0,100.0,0.0,0.31691924,0.0,8.0,1.0,0.0,4000000.0,110.0,1.0,0.0,0.0,10.0,0.0,0.0,-59.046753,2.8193576,-175.85297,-0.19485341,0.35267004,-0.24898854,307.22595,306.6484,300.93292,300.75424,427.0,428.0,494.0,496.0,93.0,93.0,93.0,93.0,0.0,0.0,0.0,0.0,0.045954637,0.045007296,0.05169431,0.050955877,0.0,0.0,0.0,0.0,1494.2584,1582.0607,981.3799,983.2172,0.0,0.0,0.0,2.0,1.0,1.0308932,0.016507631,-4.5776367E-5,93.0,93.0,93.0,93.0,21.980246,21.980246,24.842789,24.842789,0.020533036,0.019157926,-4.985815E-4,-4.7564085E-4,1117.9698,0.0,0.0,0.0,0.0,0.0,0.0,0.0,0.0,0.0,0.0,0.0,0.0,0.0,71.80315,0.031882837,42.832783,0.0076847966,-0.030887954,-0.023111882,547063.0,119984.9,0.013241994,0.014875424,6815.267,6553.5615,5564.5957,5213.421,0.3096342,0.0,0.0,0.0
142.14125,142.14125,1.749,0.0,0.0,301.60458,10867.0,100.0,0.0,0.40691766,0.0,8.0,1.0,0.0,4000000.0,110.0,1.0,0.0,0.0,10.0,0.0,0.0,-55.454136,2.8190322,-173.70663,-0.23438758,0.34687173,-0.094010666,307.66486,307.11078,301.5513,301.36038,425.0,427.0,492.0,495.0,93.0,93.0,93.0,93.0,0.0,0.0,0.0,0.0,0.046633486,0.045383547,0.052219305,0.051273774,24.670958,19.950047,8.537694,3.5599618,416.39954,635.8847,-246.01219,-238.58246,0.0,0.0,0.0,2.0,1.0,1.0292906,0.016218243,7.017851E-4,93.0,93.0,93.0,93.0,21.980246,21.980246,24.842789,24.842789,0.019877382,0.018611481,-5.021263E-4,-4.699101E-4,1120.1907,0.0,0.0,0.0,0.0,0.0,0.0,0.0,0.0,0.0,0.0,0.0,0.0,0.0,71.894455,-0.03211487,43.01297,2.0210864E-4,-0.03352695,-0.009348757,547342.6,119984.89,0.011801446,0.013373199,7159.138,6865.6143,5940.175,5496.6963,0.30819035,0.0,0.0,0.0
146.33493,146.33493,1.799,0.0,0.0,302.21262,10883.0,100.0,0.0,0.3597938,0.0,8.0,1.0,0.0,4000000.0,110.0,1.0,0.0,0.0,10.0,0.0,0.0,-51.85724,2.8165588,-171.55095,-0.25494465,0.3456113,0.071193516,308.1138,307.5834,302.16284,301.96408,424.0,425.0,490.0,493.0,93.0,93.0,93.0,93.0,0.0,0.0,0.0,0.0,0.048407346,0.0468654,0.052691836,0.051597483,56.427864,49.312855,21.173803,14.167874,1873.9922,1907.8416,1069.048,634.10095,0.0,0.0,0.0,2.0,1.0,1.0275534,0.015978055,9.3114376E-4,93.0,93.0,93.0,93.0,21.980246,21.980246,24.842789,24.842789,0.019264746,0.018103188,-4.9192255E-4,-4.7339336E-4,1122.4253,0.0,0.0,0.0,0.0,0.0,0.0,0.0,0.0,0.0,0.0,0.0,0.0,0.0,71.97602,-0.048542235,43.20542,-0.0018626521,-0.03441098,0.00337216,547628.25,119984.9,0.011077777,0.012043506,7570.982,7215.5664,6391.495,5860.0225,0.30752277,0.0,0.0,0.0
150.53693,150.53693,1.849,0.0,0.0,302.80228,10910.0,100.0,0.0,0.22759973,0.0,8.0,1.0,0.0,4000000.0,110.0,1.0,0.0,0.0,10.0,0.0,0.0,-48.25643,2.8134923,-169.38562,-0.24828365,0.33099437,-0.16734424,308.8675,308.35782,302.7416,302.57208,422.0,423.0,489.0,491.0,93.0,93.0,93.0,93.0,0.0,0.0,0.0,0.0,0.047938224,0.047005095,0.052146554,0.051136766,-25.02702,-27.098133,-11.12245,-14.72175,-822.83453,-2196.702,303.45163,-465.43027,0.0,0.0,0.0,2.0,1.0,1.0259577,0.016306512,0.0013628006,93.0,93.0,93.0,93.0,21.980246,21.980246,24.842789,24.842789,0.019765884,0.018600453,-4.8221252E-4,-4.7429194E-4,1126.174,0.0,0.0,0.0,0.0,0.0,0.0,0.0,0.0,0.0,0.0,0.0,0.0,0.0,72.05242,-0.09114131,43.396145,0.020355184,-0.028503573,-0.014664859,548097.4,119984.89,0.013135902,0.012753293,7143.005,6726.623,5666.828,5174.7783,0.30859566,0.0,0.0,0.0
154.74706,154.74706,1.916,0.0,0.0,303.38916,10933.0,100.0,0.0,0.17502666,0.0,8.0,1.0,0.0,4000000.0,110.0,1.0,0.0,0.0,10.0,0.0,0.0,-44.651703,2.8065615,-167.21098,-0.23404655,0.3316607,-0.15526964,309.51038,309.02612,303.30923,303.17822,420.0,421.0,487.0,489.0,93.0,93.0,93.0,93.0,0.0,0.0,0.0,0.0,0.047128342,0.045846086,0.05206674,0.05124634,0.0,0.0,0.0,0.0,729.0914,-446.34634,464.71948,-241.07693,0.0,0.0,0.0,2.0,1.0,1.0247147,0.01629858,0.0025850534,93.0,93.0,93.0,93.0,21.980246,21.980246,24.842789,24.842789,0.020020144,0.018808808,-4.8321218E-4,-4.7147248E-4,1129.3794,0.0,0.0,0.0,0.0,0.0,0.0,0.0,0.0,0.0,0.0,0.0,0.0,0.0,72.13245,-0.1770969,43.57883,0.0060115075,-0.022143733,-0.01761319,548501.1,119984.89,0.013841452,0.014772098,7064.327,6630.845,5831.883,5445.7393,0.3100605,0.0,0.0,0.0
158.96532,158.96532,1.949,0.0,0.0,303.97223,10950.0,100.0,0.0,0.052817736,0.0,8.0,1.0,0.0,4000000.0,110.0,1.0,0.0,0.0,10.0,0.0,0.0,-41.042828,2.796169,-165.02748,-0.19514544,0.32922465,-0.07962453,309.99368,309.49435,303.8681,303.78146,418.0,419.0,485.0,487.0,93.0,93.0,93.0,93.0,0.0,0.0,0.0,0.0,0.047245197,0.046172395,0.052308477,0.05143999,10.956599,17.585455,2.2367387,4.3127685,576.68823,538.7216,-233.4192,106.29594,0.0,0.0,0.0,2.0,1.0,1.0237993,0.016310362,0.0029650927,93.0,93.0,93.0,93.0,21.980246,21.980246,24.842789,24.842789,0.019759059,0.018347722,-4.8274346E-4,-4.7449695E-4,1131.7433,0.0,0.0,0.0,0.0,0.0,0.0,0.0,0.0,0.0,0.0,0.0,0.0,0.0,72.21863,-0.22961548,43.74904,0.0039685173,-0.014772698,0.0013015012,548795.9,119984.9,0.013899299,0.014655304,7192.5073,6949.5674,5959.122,5574.376,0.31018066,0.0,0.0,0.0
163.19162,163.19162,1.999,0.0,0.0,304.54993,10968.0,100.0,0.0,-0.021085486,0.0,8.0,1.0,0.0,4000000.0,110.0,1.0,0.0,0.0,10.0,0.0,0.0,-37.429436,2.78359,-162.83592,-0.15007801,0.32751092,-0.020330515,310.49832,310.00607,304.4236,304.3794,416.0,417.0,483.0,485.0,93.0,93.0,93.0,93.0,0.0,0.0,0.0,0.0,0.047889758,0.047112692,0.052360807,0.05175762,17.051249,26.45105,4.616305,11.254101,315.26678,603.7249,58.619667,185.09918,0.0,0.0,0.0,2.0,1.0,1.023258,0.016645838,0.0029816628,93.0,93.0,93.0,93.0,21.980246,21.980246,24.842789,24.842789,0.019552141,0.018040886,-4.845044E-4,-4.7466528E-4,1134.2527,0.0,0.0,0.0,0.0,0.0,0.0,0.0,0.0,0.0,0.0,0.0,0.0,0.0,72.31393,-0.2618117,43.90119,0.0021118966,-0.007842207,0.009016361,549110.06,119984.9,0.012780338,0.013420721,7292.412,7123.6523,6067.943,5811.396,0.3091421,0.0,0.0,0.0
167.42593,167.42593,2.049,0.0,0.0,305.12756,10983.0,100.0,0.0,-0.020824276,0.0,8.0,1.0,0.0,4000000.0,110.0,1.0,0.0,0.0,10.0,0.0,0.0,-33.81099,2.7707283,-160.63724,-0.11300712,0.32632065,0.05948527,310.90997,310.4657,304.99088,304.96738,414.0,416.0,481.0,484.0,93.0,93.0,93.0,93.0,0.0,0.0,0.0,0.0,0.048820443,0.04866925,0.052403558,0.052040417,6.5121794,23.59472,0.60215586,5.031153,-932.4565,-843.2731,113.49766,13.706073,0.0,0.0,0.0,2.0,1.0,1.022973,0.017040519,0.0025810003,93.0,93.0,93.0,93.0,21.980246,21.980246,24.842789,24.842789,0.018972846,0.017578134,-4.899418E-4,-4.7212996E-4,1136.3624,0.0,0.0,0.0,0.0,0.0,0.0,0.0,0.0,0.0,0.0,0.0,0.0,0.0,72.4193,-0.24736363,44.03686,0.006361245,-0.004713882,0.008875954,549380.06,119984.9,0.012003385,0.011575098,7570.2515,7371.993,6062.1045,5907.252,0.3079176,0.0,0.0,0.0
171.6682,171.6682,2.099,0.0,0.0,305.69284,11004.0,100.0,0.0,0.01795012,0.0,8.0,1.0,0.0,4000000.0,110.0,1.0,0.0,0.0,10.0,0.0,0.0,-30.187128,2.7591195,-158.43214,-0.08890497,0.31780174,0.030787135,311.5047,311.02484,305.55988,305.53244,413.0,414.0,480.0,482.0,93.0,93.0,93.0,93.0,0.0,0.0,0.0,0.0,0.048709523,0.048526037,0.05237668,0.05210897,-4.3080745,-5.682036,-0.8938461,-2.9144435,-175.26894,-36.612137,-41.56082,-163.99025,0.0,0.0,0.0,2.0,1.0,1.0227373,0.01716996,0.0025972128,93.0,93.0,93.0,93.0,21.980246,21.980246,24.842789,24.842789,0.018986147,0.017510658,-4.9040816E-4,-4.640223E-4,1139.1191,0.0,0.0,0.0,0.0,0.0,0.0,0.0,0.0,0.0,0.0,0.0,0.0,0.0,72.52921,-0.22315715,44.158413,0.0043202625,-0.0056952927,-0.003240421,549661.8,119984.89,0.01206066,0.011589684,7515.7793,7397.0273,6007.3213,5881.252,0.30782604,0.0,0.0,0.0
175.91823,175.91823,2.166,0.0,0.0,306.24707,11026.0,100.0,0.0,0.03231102,0.0,8.0,1.0,0.0,4000000.0,110.0,1.0,0.0,0.0,10.0,0.0,0.0,-26.557764,2.7479174,-156.22116,-0.08066227,0.3137127,-0.02274826,312.14355,311.65457,306.12305,306.07712,411.0,412.0,478.0,480.0,93.0,93.0,93.0,93.0,0.0,0.0,0.0,0.0,0.04833028,0.048147038,0.052322876,0.052144688,0.0,0.0,0.0,0.0,338.01193,499.62842,-14.390051,53.898987,0.0,0.0,0.0,2.0,1.0,1.0223613,0.017171932,0.002783537,93.0,93.0,93.0,93.0,21.980246,21.980246,24.842789,24.842789,0.01922266,0.017762924,-4.8585943E-4,-4.635665E-4,1141.4459,0.0,0.0,0.0,0.0,0.0,0.0,0.0,0.0,0.0,0.0,0.0,0.0,0.0,72.639336,-0.22865884,44.273544,-0.0021441788,-0.008819375,-6.14326E-5,549685.6,119984.89,0.01223461,0.012443036,7353.293,7232.8535,6004.1187,5930.4077,0.30840874,0.0,0.0,0.0
180.1759,180.1759,2.199,0.0,0.0,306.80045,11045.0,100.0,0.0,-0.0106813405,0.0,8.0,1.0,0.0,4000000.0,110.0,1.0,0.0,0.0,10.0,0.0,0.0,-22.922852,2.7360666,-154.00452,-0.07611958,0.31256112,-0.011807821,312.66574,312.18436,306.6761,306.63107,409.0,410.0,476.0,478.0,93.0,93.0,93.0,93.0,0.0,0.0,0.0,0.0,0.048464127,0.048332334,0.05227928,0.05210044,7.260069,-0.8797645,1.2170522,2.5337932,477.56726,-680.98596,333.31808,122.42941,0.0,0.0,0.0,2.0,1.0,1.0219183,0.017214147,0.002756238,93.0,93.0,93.0,93.0,21.980246,21.980246,24.842789,24.842789,0.019092819,0.017656965,-4.8250126E-4,-4.670291E-4,1143.4542,0.0,0.0,0.0,0.0,0.0,0.0,0.0,0.0,0.0,0.0,0.0,0.0,0.0,72.750984,-0.2421688,44.38563,-0.0022924393,-0.00834308,-0.0015798539,549705.5,119984.89,0.012269428,0.012200485,7418.8467,7277.1367,5996.5776,5910.2773,0.30844784,0.0,0.0,0.0
184.44067,184.44067,2.249,0.0,0.0,307.34808,11063.0,100.0,0.0,-0.03607715,0.0,8.0,1.0,0.0,4000000.0,110.0,1.0,0.0,0.0,10.0,0.0,0.0,-19.282347,2.7238877,-151.78236,-0.06753871,0.3096448,0.0017816506,313.17966,312.68365,307.21735,307.18506,407.0,408.0,474.0,477.0,93.0,93.0,93.0,93.0,0.0,0.0,0.0,0.0,0.04858511,0.048557673,0.0523042,0.052156117,4.8433986,7.2220707,-3.2600014,0.61199063,356.4655,-129.0545,-310.70706,23.254747,0.0,0.0,0.0,2.0,1.0,1.0215591,0.017299263,0.002686739,93.0,93.0,93.0,93.0,21.980246,21.980246,24.842789,24.842789,0.018966116,0.017451491,-4.8163036E-4,-4.666391E-4,1145.3575,0.0,0.0,0.0,0.0,0.0,0.0,0.0,0.0,0.0,0.0,0.0,0.0,0.0,72.86311,-0.24401486,44.4939,2.783836E-4,-0.00614909,-7.291982E-4,549724.6,119984.89,0.012225739,0.011813919,7477.0986,7391.6387,5964.6367,5919.5713,0.30798626,0.0,0.0,0.0
188.71298,188.71298,2.316,0.0,0.0,307.88745,11082.0,100.0,0.0,-0.0017284855,0.0,8.0,1.0,0.0,4000000.0,110.0,1.0,0.0,0.0,10.0,0.0,0.0,-15.636248,2.711887,-149.55487,-0.06400725,0.30408633,0.005441688,313.72473,313.21982,307.75638,307.72394,405.0,407.0,473.0,475.0,93.0,93.0,93.0,93.0,0.0,0.0,0.0,0.0,0.04853844,0.04850827,0.052438688,0.052258722,0.0,0.0,0.0,0.0,-398.4555,594.82,-351.0877,50.65351,0.0,0.0,0.0,2.0,1.0,1.0212581,0.017281542,0.002679944,93.0,93.0,93.0,93.0,21.980246,21.980246,24.842789,24.842789,0.018965632,0.017413236,-4.8284812E-4,-4.6174222E-4,1147.3672,0.0,0.0,0.0,0.0,0.0,0.0,0.0,0.0,0.0,0.0,0.0,0.0,0.0,72.9742,-0.23788422,44.59949,-2.9819785E-4,-0.0065175304,0.003753265,549745.0,119984.9,0.011804979,0.011786831,7444.385,7406.029,6083.501,6011.4883,0.30779266,0.0,0.0,0.0
192.99272,192.99272,2.366,0.0,0.0,308.4215,11101.0,100.0,0.0,0.022054806,0.0,8.0,1.0,0.0,4000000.0,110.0,1.0,0.0,0.0,10.0,0.0,0.0,-11.984624,2.7000198,-147.32214,-0.06702686,0.29997697,0.008703412,314.2526,313.76038,308.297,308.25385,404.0,405.0,471.0,473.0,93.0,93.0,93.0,93.0,0.0,0.0,0.0,0.0,0.048652783,0.048496824,0.052426208,0.05223404,0.0,0.0,0.0,0.0,-503.37006,-58.01618,270.03137,33.67513,0.0,0.0,0.0,2.0,1.0,1.0208994,0.017234,0.0027235746,93.0,93.0,93.0,93.0,21.980246,21.980246,24.842789,24.842789,0.018863535,0.017400846,-4.8067863E-4,-4.59501E-4,1149.3765,0.0,0.0,0.0,0.0,0.0,0.0,0.0,0.0,0.0,0.0,0.0,0.0,0.0,73.083885,-0.23612072,44.704487,0.0017007964,-0.008261951,-0.0010215507,549765.1,119984.92,0.011826739,0.0117542,7483.8096,7386.34,6099.31,5999.297,0.30793285,0.0,0.0,0.0
197.27985,197.27985,2.399,0.0,0.0,308.9486,11119.0,100.0,0.0,-0.07948582,0.0,8.0,1.0,0.0,4000000.0,110.0,1.0,0.0,0.0,10.0,0.0,0.0,-8.327553,2.688058,-145.0842,-0.056776054,0.2979446,-0.0051432126,314.7782,314.28073,308.81906,308.78583,402.0,403.0,469.0,471.0,93.0,93.0,93.0,93.0,0.0,0.0,0.0,0.0,0.048647262,0.048516396,0.052403625,0.05223585,3.827065,0.4032254,0.36276874,-0.85093075,20.626186,-220.46414,113.65859,-62.57592,0.0,0.0,0.0,2.0,1.0,1.0205232,0.017277913,0.002734661,93.0,93.0,93.0,93.0,21.980246,21.980246,24.842789,24.842789,0.018852763,0.017347017,-4.7425955E-4,-4.6517825E-4,1151.2814,0.0,0.0,0.0,0.0,0.0,0.0,0.0,0.0,0.0,0.0,0.0,0.0,0.0,73.193214,-0.24137825,44.806313,0.0025882584,-0.0060682823,4.1110278E-4,549784.8,119984.91,0.011910847,0.011731739,7482.6523,7398.5723,6054.0234,5971.1924,0.30788612,0.0,0.0,0.0
201.57423,201.57423,2.449,0.0,0.0,309.4702,11137.0,100.0,0.0,-0.22888738,0.0,8.0,1.0,0.0,4000000.0,110.0,1.0,0.0,0.0,10.0,0.0,0.0,-4.664944,2.6759195,-142.84134,-0.030061342,0.29467726,-0.0042355116,315.28198,314.79535,309.32053,309.32745,400.0,401.0,467.0,470.0,93.0,93.0,93.0,93.0,0.0,0.0,0.0,0.0,0.04862171,0.04859199,0.05239137,0.052336972,2.2932885,2.6077776,-1.1140107,1.4626979,171.40654,158.31737,-76.67093,-31.194088,0.0,0.0,0.0,2.0,1.0,1.0203811,0.017416012,0.0027235746,93.0,93.0,93.0,93.0,21.980246,21.980246,24.842789,24.842789,0.018836796,0.017236426,-4.674413E-4,-4.6938355E-4,1153.1853,0.0,0.0,0.0,0.0,0.0,0.0,0.0,0.0,0.0,0.0,0.0,0.0,0.0,73.30601,-0.24405189,44.89955,0.0028303424,0.0011805946,0.002834363,549804.0,119984.914,0.011750896,0.0115985,7486.474,7451.037,6056.7354,6038.9116,0.30771255,0.0,0.0,0.0
205.87581,205.87581,2.499,0.0,0.0,309.98618,11155.0,100.0,0.0,-0.38793093,0.0,8.0,1.0,0.0,4000000.0,110.0,1.0,0.0,0.0,10.0,0.0,0.0,-0.99647945,2.6637383,-140.59428,0.017011374,0.29051566,0.0130287865,315.77936,315.30807,309.80582,309.87485,398.0,399.0,466.0,468.0,93.0,93.0,93.0,93.0,0.0,0.0,0.0,0.0,0.048607916,0.048741076,0.05236659,0.052497156,-0.546053,1.4647095,0.54314727,5.1797924,39.73692,-49.70133,81.53914,87.58754,0.0,0.0,0.0,2.0,1.0,1.0207067,0.017630883,0.0027264357,93.0,93.0,93.0,93.0,21.980246,21.980246,24.842789,24.842789,0.018833287,0.017096333,-4.634099E-4,-4.6935971E-4,1155.0892,0.0,0.0,0.0,0.0,0.0,0.0,0.0,0.0,0.0,0.0,0.0,0.0,0.0,73.42778,-0.24172041,44.97516,0.0022688024,0.011867452,0.003062345,549823.06,119984.91,0.011505438,0.011480354,7474.581,7522.792,6089.3047,6156.7695,0.30761147,0.0,0.0,0.0
210.18452,210.18452,2.549,0.0,0.0,310.4958,11173.0,100.0,0.0,-0.48043406,0.0,8.0,1.0,0.0,4000000.0,110.0,1.0,0.0,0.0,10.0,0.0,0.0,2.6784225,2.651711,-138.34409,0.07557232,0.28750584,0.0036949248,316.28156,315.80777,310.285,310.41513,397.0,398.0,464.0,466.0,93.0,93.0,93.0,93.0,0.0,0.0,0.0,0.0,0.04855943,0.04889698,0.052265152,0.052559756,-1.0330974,1.2045352,-2.8849392,2.6831028,32.575428,-345.8306,-9.870528,163.69519,0.0,0.0,0.0,2.0,1.0,1.0215882,0.017972415,0.0026882887,93.0,93.0,93.0,93.0,21.980246,21.980246,24.842789,24.842789,0.018859522,0.016950667,-4.6621627E-4,-4.6527782E-4,1156.9928,0.0,0.0,0.0,0.0,0.0,0.0,0.0,0.0,0.0,0.0,0.0,0.0,0.0,73.56301,-0.23974276,45.025402,0.0066909315,0.021897355,0.0024397897,549841.94,119984.9,0.011561383,0.011320363,7437.288,7602.683,5995.7227,6149.8706,0.30760002,0.0,0.0,0.0
214.50049,214.50049,2.616,0.0,0.0,310.9978,11191.0,100.0,0.0,-0.5392432,0.0,8.0,1.0,0.0,4000000.0,110.0,1.0,0.0,0.0,10.0,0.0,0.0,6.360442,2.6397018,-136.09207,0.13653502,0.28382862,-0.012110356,316.80438,316.30908,310.76743,310.936,395.0,396.0,462.0,464.0,93.0,93.0,93.0,93.0,0.0,0.0,0.0,0.0,0.048418704,0.048934862,0.05215151,0.05268952,0.0,0.0,0.0,0.0,-32.065815,531.84174,-176.46251,81.29775,0.0,0.0,0.0,2.0,1.0,1.0228585,0.018302841,0.0026938915,93.0,93.0,93.0,93.0,21.980246,21.980246,24.842789,24.842789,0.01895616,0.016868906,-4.671471E-4,-4.6100834E-4,1158.8973,0.0,0.0,0.0,0.0,0.0,0.0,0.0,0.0,0.0,0.0,0.0,0.0,0.0,73.71193,-0.24207309,45.049175,0.005792489,0.028059956,0.0034034997,549861.2,119984.914,0.011642317,0.011412467,7355.216,7657.267,5936.088,6202.97,0.3075676,0.0,0.0,0.0
218.82352,218.82352,2.666,0.0,0.0,311.4943,11208.0,100.0,0.0,-0.55805343,0.0,8.0,1.0,0.0,4000000.0,110.0,1.0,0.0,0.0,10.0,0.0,0.0,10.05026,2.6275597,-133.8396,0.18495204,0.28015223,-0.0067906464,317.30264,316.7969,311.25278,311.44217,393.0,394.0,461.0,463.0,93.0,93.0,93.0,93.0,0.0,0.0,0.0,0.0,0.04840531,0.048975985,0.05212425,0.052812297,0.0,0.0,0.0,0.0,-82.625435,291.50244,80.466255,-224.07172,0.0,0.0,0.0,2.0,1.0,1.0243711,0.018518545,0.0026720762,93.0,93.0,93.0,93.0,21.980246,21.980246,24.842789,24.842789,0.01895611,0.016798364,-4.6967197E-4,-4.5652955E-4,1160.697,0.0,0.0,0.0,0.0,0.0,0.0,0.0,0.0,0.0,0.0,0.0,0.0,0.0,73.87341,-0.24358085,45.04932,0.0039035499,0.031111188,0.004733632,549879.8,119984.91,0.011472938,0.011383101,7333.176,7697.674,5968.425,6271.039,0.30741405,0.0,0.0,0.0
223.15356,223.15356,2.699,0.0,0.0,312.00174,11215.0,100.0,0.0,-0.50213367,0.0,8.0,1.0,0.0,4000000.0,110.0,1.0,0.0,0.0,10.0,0.0,0.0,13.748403,2.6154196,-131.58731,0.19237424,0.27871308,0.009940327,317.21106,317.2361,311.758,311.9518,391.0,392.0,459.0,461.0,93.0,93.0,93.0,93.0,0.0,0.0,0.0,0.0,0.048571605,0.049035102,0.05213941,0.05287234,2.979487,-5.052164,3.0219553,0.50447875,-234.69327,-381.97336,168.41588,-58.016174,0.0,0.0,0.0,2.0,1.0,1.0259254,0.018496053,0.0026094913,93.0,93.0,93.0,93.0,21.980246,21.980246,24.842789,24.842789,0.017008763,0.016555248,-4.6682314E-4,-4.5742685E-4,1161.4362,0.0,0.0,0.0,0.0,0.0,0.0,0.0,0.0,0.0,0.0,0.0,0.0,0.0,74.04221,-0.240526,45.043175,-0.0015644068,0.032020263,4.5607658E-4,549886.5,119984.9,0.011254757,0.01113189,7388.5527,7740.6807,5994.4194,6317.538,0.30731583,0.0,0.0,0.0
227.49051,227.49051,2.749,0.0,0.0,312.48428,11232.0,100.0,0.0,-0.517773,0.0,8.0,1.0,0.0,4000000.0,110.0,1.0,0.0,0.0,10.0,0.0,0.0,17.454988,2.6035023,-129.33568,0.23249602,0.2725496,0.007308414,317.6959,317.70245,312.23587,312.4396,390.0,391.0,457.0,459.0,93.0,93.0,93.0,93.0,0.0,0.0,0.0,0.0,0.0484609,0.0491972,0.05204975,0.052977856,-0.88445836,0.4586577,-4.0409713,5.545467,73.49252,-390.50278,-36.276882,235.18947,0.0,0.0,0.0,2.0,1.0,1.0275712,0.018778771,0.002611637,93.0,93.0,93.0,93.0,21.980246,21.980246,24.842789,24.842789,0.016995955,0.01644782,-4.6549036E-4,-4.5479482E-4,1163.2346,0.0,0.0,0.0,0.0,0.0,0.0,0.0,0.0,0.0,0.0,0.0,0.0,0.0,74.21307,-0.23617604,45.020107,0.0028743434,0.03356922,-5.249466E-4,549904.44,119984.9,0.011289438,0.011052705,7361.5386,7810.5034,5923.4795,6370.988,0.3074751,0.0,0.0,0.0
231.83408,231.83408,2.816,0.0,0.0,312.95963,11248.0,100.0,0.0,-0.421812,0.0,8.0,1.0,0.0,4000000.0,110.0,1.0,0.0,0.0,10.0,0.0,0.0,21.170233,2.5916955,-127.08554,0.24089134,0.26984185,-0.011213957,318.1854,318.17276,312.72076,312.90427,388.0,389.0,455.0,458.0,93.0,93.0,93.0,93.0,0.0,0.0,0.0,0.0,0.048423745,0.0491502,0.052050736,0.053014617,0.0,0.0,0.0,0.0,602.813,125.58101,-127.29761,-307.23358,0.0,0.0,0.0,2.0,1.0,1.0291607,0.018779017,0.0025601387,93.0,93.0,93.0,93.0,21.980246,21.980246,24.842789,24.842789,0.01698374,0.016457232,-4.69784E-4,-4.4865513E-4,1164.9299,0.0,0.0,0.0,0.0,0.0,0.0,0.0,0.0,0.0,0.0,0.0,0.0,0.0,74.387146,-0.23732893,44.987583,-0.0047826543,0.029522756,-6.1947014E-4,549922.5,119984.91,0.011319558,0.011095591,7350.955,7803.4766,5918.437,6346.894,0.3070488,0.0,0.0,0.0
236.1842,236.1842,2.866,0.0,0.0,313.4307,11265.0,100.0,0.0,-0.36003867,0.0,8.0,1.0,0.0,4000000.0,110.0,1.0,0.0,0.0,10.0,0.0,0.0,24.894146,2.5798452,-124.837006,0.23402746,0.2648073,0.0071265465,318.6756,318.6305,313.2097,313.35837,386.0,387.0,454.0,456.0,93.0,93.0,93.0,93.0,0.0,0.0,0.0,0.0,0.04845459,0.049145978,0.052184697,0.053028293,0.0,0.0,0.0,0.0,-278.8424,-241.50609,-75.06162,161.56284,0.0,0.0,0.0,2.0,1.0,1.0304668,0.018717881,0.0025810003,93.0,93.0,93.0,93.0,21.980246,21.980246,24.842789,24.842789,0.016955672,0.016435442,-4.6758054E-4,-4.4736452E-4,1166.7285,0.0,0.0,0.0,0.0,0.0,0.0,0.0,0.0,0.0,0.0,0.0,0.0,0.0,74.55932,-0.23489717,44.95561,6.899921E-4,0.023591094,0.0032305052,549940.4,119984.9,0.011027109,0.0111774625,7342.385,7801.6357,6049.738,6435.2393,0.30704594,0.0,0.0,0.0
240.54086,240.54086,2.899,0.0,0.0,313.89728,11281.0,100.0,0.0,-0.35256422,0.0,8.0,1.0,0.0,4000000.0,110.0,1.0,0.0,0.0,10.0,0.0,0.0,28.626572,2.5681732,-122.58998,0.2194939,0.26332778,0.009304652,319.11856,319.07214,313.68515,313.81702,385.0,386.0,452.0,454.0,93.0,93.0,93.0,93.0,0.0,0.0,0.0,0.0,0.048580434,0.049237706,0.052170753,0.053024452,-2.4984775,0.31113622,2.5722382,1.4077126,-505.99866,-36.303696,250.38419,212.84668,0.0,0.0,0.0,2.0,1.0,1.031573,0.018717201,0.0025402308,93.0,93.0,93.0,93.0,21.980246,21.980246,24.842789,24.842789,0.016839303,0.01634912,-4.654906E-4,-4.4968963E-4,1168.421,0.0,0.0,0.0,0.0,0.0,0.0,0.0,0.0,0.0,0.0,0.0,0.0,0.0,74.72738,-0.2313265,44.927765,-6.7346136E-4,0.02104389,-0.001364138,549957.06,119984.91,0.010955401,0.010842651,7402.6206,7852.7354,6026.9233,6407.828,0.30717278,0.0,0.0,0.0
244.90376,244.90376,2.949,0.0,0.0,314.34085,11308.0,100.0,0.0,-0.29244354,0.0,8.0,1.0,0.0,4000000.0,110.0,1.0,0.0,0.0,10.0,0.0,0.0,32.36716,2.5566347,-120.344315,0.21234123,0.2582429,-0.004383731,320.13596,319.5795,314.1467,314.24326,383.0,384.0,450.0,453.0,93.0,93.0,93.0,93.0,0.0,0.0,0.0,0.0,0.04862361,0.049237896,0.05219494,0.05299491,5.0818915,4.345849,-0.4778802,-2.5753675,225.42622,254.08563,12.177226,-163.29286,0.0,0.0,0.0,2.0,1.0,1.0324849,0.01868601,0.0025002956,93.0,93.0,93.0,93.0,21.980246,21.980246,24.842789,24.842789,0.01857024,0.016578112,-4.707881E-4,-4.423557E-4,1171.2784,0.0,0.0,0.0,0.0,0.0,0.0,0.0,0.0,0.0,0.0,0.0,0.0,0.0,74.88761,-0.23094904,44.900272,0.001553331,0.014400175,3.3493788E-4,549985.6,119984.9,0.011134671,0.010821325,7424.577,7838.0034,6000.359,6350.4287,0.30699158,0.0,0.0,0.0
249.27284,249.27284,3.016,0.0,0.0,314.79874,11324.0,100.0,0.0,-0.2385195,0.0,8.0,1.0,0.0,4000000.0,110.0,1.0,0.0,0.0,10.0,0.0,0.0,36.11568,2.545092,-118.09966,0.16398954,0.2589819,-0.0088009965,320.5917,320.0219,314.6253,314.68054,381.0,382.0,449.0,451.0,93.0,93.0,93.0,93.0,0.0,0.0,0.0,0.0,0.04868096,0.049112797,0.05228394,0.052984007,0.0,0.0,0.0,0.0,253.7235,-33.822666,30.979511,-113.73906,0.0,0.0,0.0,2.0,1.0,1.0330138,0.018435633,0.0025024414,93.0,93.0,93.0,93.0,21.980246,21.980246,24.842789,24.842789,0.018506655,0.016580302,-4.671333E-4,-4.4603043E-4,1172.9718,0.0,0.0,0.0,0.0,0.0,0.0,0.0,0.0,0.0,0.0,0.0,0.0,0.0,75.042274,-0.23170152,44.88957,-0.0075848806,0.0077894516,-0.0026904508,550002.56,119984.91,0.010969322,0.010858998,7463.0225,7774.5776,6072.963,6375.183,0.3069706,0.0,0.0,0.0
253.64824,253.64824,3.066,0.0,0.0,315.25275,11339.0,100.0,0.0,-0.23133445,0.0,8.0,1.0,0.0,4000000.0,110.0,1.0,0.0,0.0,10.0,0.0,0.0,39.87161,2.5335445,-115.85506,0.12400593,0.25589874,0.0075853346,321.013,320.46545,315.0877,315.12744,379.0,381.0,447.0,449.0,93.0,93.0,93.0,93.0,0.0,0.0,0.0,0.0,0.048802685,0.049208153,0.052388977,0.052940793,0.0,0.0,0.0,0.0,51.37771,-214.96562,-7.537007,139.31392,0.0,0.0,0.0,2.0,1.0,1.0333252,0.018235657,0.0024700165,93.0,93.0,93.0,93.0,21.980246,21.980246,24.842789,24.842789,0.01835511,0.016525831,-4.6253475E-4,-4.480695E-4,1174.5603,0.0,0.0,0.0,0.0,0.0,0.0,0.0,0.0,0.0,0.0,0.0,0.0,0.0,75.18502,-0.2293306,44.896564,-0.0047954824,0.005585172,-0.0023581663,550018.9,119984.914,0.010821081,0.010635026,7546.0854,7791.9834,6131.7046,6380.0684,0.30692482,0.0,0.0,0.0
258.02988,258.02988,3.116,0.0,0.0,315.70102,11355.0,100.0,0.0,-0.2826323,0.0,8.0,1.0,0.0,4000000.0,110.0,1.0,0.0,0.0,10.0,0.0,0.0,43.634438,2.5220923,-113.60979,0.102184474,0.25316587,-0.0016121585,321.44962,320.9204,315.533,315.57996,378.0,379.0,445.0,447.0,93.0,93.0,93.0,93.0,0.0,0.0,0.0,0.0,0.0488325,0.049202446,0.052435786,0.05287411,0.0,0.0,0.0,0.0,176.52957,-263.20514,100.66329,117.064995,0.0,0.0,0.0,2.0,1.0,1.0336375,0.018138029,0.0024956465,93.0,93.0,93.0,93.0,21.980246,21.980246,24.842789,24.842789,0.0183019,0.016507743,-4.5770986E-4,-4.505524E-4,1176.2535,0.0,0.0,0.0,0.0,0.0,0.0,0.0,0.0,0.0,0.0,0.0,0.0,0.0,75.31937,-0.22931986,44.914425,-9.406615E-4,0.0072911615,-0.003141901,550035.6,119984.91,0.010806529,0.010565743,7574.0522,7774.9062,6138.6875,6332.589,0.30685234,0.0,0.0,0.0
262.41766,262.41766,3.149,0.0,0.0,316.1441,11370.0,100.0,0.0,-0.23807843,0.0,8.0,1.0,0.0,4000000.0,110.0,1.0,0.0,0.0,10.0,0.0,0.0,47.403812,2.510555,-111.36343,0.08588865,0.25086796,-0.011795497,321.88943,321.3637,315.974,316.0245,376.0,377.0,444.0,446.0,93.0,93.0,93.0,93.0,0.0,0.0,0.0,0.0,0.048839327,0.049174145,0.052498996,0.05287361,1.3739614,4.7452745,-0.4445761,-1.0789185,123.5023,389.05438,-186.21233,-7.2285495,0.0,0.0,0.0,2.0,1.0,1.034019,0.018048342,0.0025008917,93.0,93.0,93.0,93.0,21.980246,21.980246,24.842789,24.842789,0.018278627,0.016486026,-4.609611E-4,-4.4644906E-4,1177.8431,0.0,0.0,0.0,0.0,0.0,0.0,0.0,0.0,0.0,0.0,0.0,0.0,0.0,75.44793,-0.23293117,44.939102,-0.0012149094,0.0075553595,-1.4446786E-4,550052.3,119984.91,0.010638561,0.010470974,7577.47,7777.8574,6158.4663,6329.416,0.30655098,0.0,0.0,0.0
266.81158,266.81158,3.199,0.0,0.0,316.58417,11385.0,100.0,0.0,-0.20926706,0.0,8.0,1.0,0.0,4000000.0,110.0,1.0,0.0,0.0,10.0,0.0,0.0,51.179504,2.4989405,-109.11571,0.07381535,0.24828918,0.03246175,322.28842,321.77753,316.4176,316.46063,375.0,376.0,442.0,444.0,93.0,93.0,93.0,93.0,0.0,0.0,0.0,0.0,0.049079165,0.049287945,0.052658148,0.05294999,8.040591,6.9990005,7.622614,2.5002656,358.94656,577.1979,376.5821,24.00577,0.0,0.0,0.0,2.0,1.0,1.0343723,0.01795415,0.0024768114,93.0,93.0,93.0,93.0,21.980246,21.980246,24.842789,24.842789,0.018111309,0.016393946,-4.6093465E-4,-4.44622E-4,1179.1101,0.0,0.0,0.0,0.0,0.0,0.0,0.0,0.0,0.0,0.0,0.0,0.0,0.0,75.572525,-0.22793506,44.968803,-6.5424154E-4,0.006185138,0.003505672,549918.5,119984.9,0.0102975145,0.010200349,7692.404,7842.527,6338.4683,6446.1133,0.3062811,0.0,0.0,0.0
271.21155,271.21155,3.249,0.0,0.0,317.017,11400.0,100.0,0.0,-0.15742409,0.0,8.0,1.0,0.0,4000000.0,110.0,1.0,0.0,0.0,10.0,0.0,0.0,54.961296,2.4877706,-106.86636,0.05655638,0.24339065,2.1731947E-4,322.71835,322.2251,316.8602,316.8856,373.0,374.0,440.0,443.0,93.0,93.0,93.0,93.0,0.0,0.0,0.0,0.0,0.04906646,0.04918828,0.0526044,0.05290594,0.738725,-9.258091,0.13656913,-1.1151283,115.75072,-455.0367,143.22993,-31.851229,0.0,0.0,0.0,2.0,1.0,1.0346005,0.017920688,0.0024706125,93.0,93.0,93.0,93.0,21.980246,21.980246,24.842789,24.842789,0.018051768,0.016431225,-4.5937372E-4,-4.428764E-4,1180.006,0.0,0.0,0.0,0.0,0.0,0.0,0.0,0.0,0.0,0.0,0.0,0.0,0.0,75.69148,-0.2219556,45.004032,-7.877231E-5,0.0033143337,-0.00250758,549612.2,119984.91,0.01039674,0.010193676,7688.6924,7766.8105,6225.8506,6356.448,0.3064909,0.0,0.0,0.0
275.61746,275.61746,3.316,0.0,0.0,317.44882,11418.0,100.0,0.0,-0.12571548,0.0,8.0,1.0,0.0,4000000.0,110.0,1.0,0.0,0.0,10.0,0.0,0.0,58.748905,2.475009,-104.61514,0.03981489,0.24816844,-0.07638983,323.22745,322.70663,317.29742,317.3102,371.0,372.0,439.0,441.0,93.0,93.0,93.0,93.0,0.0,0.0,0.0,0.0,0.04865224,0.048891876,0.052480876,0.052759964,0.0,0.0,0.0,0.0,1691.0521,749.6505,360.94482,371.62003,0.0,0.0,0.0,2.0,1.0,1.0347112,0.017896524,0.0028173923,93.0,93.0,93.0,93.0,21.980246,21.980246,24.842789,24.842789,0.01827555,0.016609034,-4.6205407E-4,-4.4480435E-4,1181.1268,0.0,0.0,0.0,0.0,0.0,0.0,0.0,0.0,0.0,0.0,0.0,0.0,0.0,75.80664,-0.27785632,45.044743,-0.0055669965,0.001160197,-0.0054302476,549267.0,119984.9,0.00879609,0.00932432,7526.212,7630.458,6217.0444,6340.337,0.30516052,0.0,0.0,0.0
280.02933,280.02933,3.366,0.0,0.0,317.88962,11430.0,100.0,0.0,-0.10596154,0.0,8.0,1.0,0.0,4000000.0,110.0,1.0,0.0,0.0,10.0,0.0,0.0,62.54223,2.46091,-102.36162,0.022400826,0.2487851,0.0051320917,323.55795,323.05164,317.7464,317.74377,370.0,371.0,437.0,439.0,93.0,93.0,93.0,93.0,0.0,0.0,0.0,0.0,0.049229734,0.049404193,0.05268965,0.05281919,0.0,0.0,0.0,0.0,-360.11337,-578.37805,-260.91187,-76.55023,0.0,0.0,0.0,2.0,1.0,1.034693,0.017785408,0.002959609,93.0,93.0,93.0,93.0,21.980246,21.980246,24.842789,24.842789,0.017855186,0.016284602,-4.6333022E-4,-4.476214E-4,1181.8573,0.0,0.0,0.0,0.0,0.0,0.0,0.0,0.0,0.0,0.0,0.0,0.0,0.0,75.91899,-0.28223288,45.095333,0.005442438,-0.0012076524,-0.009672862,549029.7,119984.91,0.0075908485,0.007383401,7781.573,7841.3994,6263.402,6324.2607,0.30330086,0.0,0.0,0.0
284.44724,284.44724,3.416,0.0,0.0,318.3082,11448.0,100.0,0.0,-0.084805325,0.0,8.0,1.0,0.0,4000000.0,110.0,1.0,0.0,0.0,10.0,0.0,0.0,66.34094,2.4482992,-100.10537,0.003926024,0.2292291,-0.10343477,324.07523,323.56253,318.17596,318.1611,368.0,369.0,436.0,438.0,93.0,93.0,93.0,93.0,0.0,0.0,0.0,0.0,0.048916902,0.04900833,0.052650277,0.05273201,0.0,0.0,0.0,0.0,-1122.5579,-1041.8503,-627.4491,-542.9595,0.0,0.0,0.0,2.0,1.0,1.0345757,0.017711792,0.0036587715,93.0,93.0,93.0,93.0,21.980246,21.980246,24.842789,24.842789,0.018049262,0.016499383,-4.501849E-4,-4.358906E-4,1182.9484,0.0,0.0,0.0,0.0,0.0,0.0,0.0,0.0,0.0,0.0,0.0,0.0,0.0,76.02124,-0.25781205,45.15102,0.011425924,-0.0029165947,-0.02208874,548672.5,119984.9,0.010144014,0.009990809,7564.633,7609.253,6042.2236,6077.1484,0.3058262,0.0,0.0,0.0
288.87073,288.87073,3.449,0.0,0.0,318.71423,11473.0,100.0,0.0,-0.027159756,0.0,8.0,1.0,0.0,4000000.0,110.0,1.0,0.0,0.0,10.0,0.0,0.0,70.14446,2.4311955,-97.846275,-0.019891724,0.24152991,-0.37103948,324.808,324.27158,318.58896,318.55774,366.0,367.0,434.0,436.0,93.0,93.0,93.0,93.0,0.0,0.0,0.0,0.0,0.04685408,0.04687381,0.051993977,0.051989105,-24.707167,-23.88887,-0.014081596,-1.3804435,2129.4321,2420.613,1352.5172,1445.7776,0.0,0.0,0.0,2.0,1.0,1.0343493,0.017585274,0.005050063,93.0,93.0,93.0,93.0,21.980246,21.980246,24.842789,24.842789,0.019143682,0.01755532,-4.5412596E-4,-4.3714716E-4,1184.4512,0.0,0.0,0.0,0.0,0.0,0.0,0.0,0.0,0.0,0.0,0.0,0.0,0.0,76.11554,-0.43122974,45.211792,0.009669884,-0.0058265356,-0.01985458,548172.44,119984.9,0.010979196,0.012400679,6935.449,6938.3174,5792.275,5786.385,0.30743313,0.0,0.0,0.0
293.30005,293.30005,3.499,0.0,0.0,319.14587,11478.0,100.0,0.0,-0.028513057,0.0,8.0,1.0,0.0,4000000.0,110.0,1.0,0.0,0.0,10.0,0.0,0.0,73.95281,2.4066522,-95.583824,-0.03285823,0.24346557,-0.12294795,324.93497,324.42825,319.01718,318.98297,365.0,366.0,432.0,434.0,93.0,93.0,93.0,93.0,0.0,0.0,0.0,0.0,0.048513707,0.04847925,0.052492894,0.052453466,55.049656,53.780968,9.821802,9.03122,1064.9844,1058.158,-53.0809,-104.4184,0.0,0.0,0.0,2.0,1.0,1.0340339,0.017530572,0.005415082,93.0,93.0,93.0,93.0,21.980246,21.980246,24.842789,24.842789,0.018175395,0.01668653,-4.591264E-4,-4.4400126E-4,1184.745,0.0,0.0,0.0,0.0,0.0,0.0,0.0,0.0,0.0,0.0,0.0,0.0,0.0,76.21192,-0.52722347,45.2833,-0.0023051149,-0.0066310368,0.0013314759,548069.56,119984.9,0.008897584,0.009250109,7529.0244,7498.578,6237.047,6214.4385,0.30485344,0.0,0.0,0.0
