LapDistance [m],TotalDistance [m],LapTime [s],Sector1Time [s],Sector2Time [s],Speed [km/h],EngineRevs [rpm],ThrottlePercentage [%],BrakePercentage [%],Steer [%],Clutch [%],Gear [int],DRS [0/1],CanUseDRS [0/1],KERSLevel [J],EngineTemperature [C],RacePosition [int],Sector [int],InPits [int],FuelRemaining [kg],CurrentFlag [int],CurrentLapInvalid [int],X [m],Y [m],Z [m],GForceLatitudinal [G],GForceLongitudinal [G],GForceVertical [G],WheelSpeedRearLeft [km/h],WheelSpeedRearRight [km/h],WheelSpeedFrontLeft [km/h],WheelSpeedFrontRight [km/h],BrakeTemperatureRearLeft [C],BrakeTemperatureRearRight [C],BrakeTemperatureFrontLeft [C],BrakeTemperatureFrontRight [C],TyreTemperatureRearLeft [C],TyreTemperatureRearRight [C],TyreTemperatureFrontLeft [C],TyreTemperatureFrontRight [C],TyreWearRearLeft [%],TyreWearRearRight [%],TyreWearFrontLeft [%],TyreWearFrontRight [%],SuspensionPositionRearLeft [m],SuspensionPositionRearRight [m],SuspensionPositionFrontLeft [m],SuspensionPositionFrontRight [m],SuspensionVelocityRearLeft [m/s],SuspensionVelocityRearRight [m/s],SuspensionVelocityFrontLeft [m/s],SuspensionVelocityFrontRight [m/s],SuspensionAccelerationRearLeft [m/s^2],SuspensionAccelerationRearRight [m/s^2],SuspensionAccelerationFrontLeft [m/s^2],SuspensionAccelerationFrontRight [m/s^2],MGUKHarvested [J],MGUHHarvested [J],ERSSpent [J],ERSMode [int],FuelMixMode [int],Yaw [rad],Roll [rad],Pitch [rad],TyreCarcassTemperatureRearLeft [C],TyreCarcassTemperatureRearRight [C],TyreCarcassTemperatureFrontLeft [C],TyreCarcassTemperatureFrontRight [C],TyrePressureRearLeft [PSI],TyrePressureRearRight [PSI],TyrePressureFrontLeft [PSI],TyrePressureFrontRight [PSI],WheelSlipRearLeft [%],WheelSlipRearRight [%],WheelSlipFrontLeft [%],WheelSlipFrontRight [%],Torque [Nm],Handbrake [%],RearLeftInside [C],RearLeftMiddle [C],RearLeftOutside [C],RearRightInside [C],RearRightMiddle [C],RearRightOutside [C],FrontLeftInside [C],FrontLeftMiddle [C],FrontLeftOutside [C],FrontRightInside [C],FrontRightMiddle [C],FrontRightOutside [C],WoldSpeedX [km/h],WoldSpeedY [km/h],WoldSpeedZ [km/h],LocalAngularVelocityX [rad/s],LocalAngularVelocityY [rad/s],LocalAngularVelocityZ [rad/s],IcePower [W],MgukPower [W],FrontRideHeight [m],RearRideHeight [m],LoadRearLeft [N],LoadRearRight [N],LoadFrontLeft [N],LoadFrontRight [N],Extra1 [m],Extra2 [],Extra3 [],Extra4 []
2.1577616,2.1577616,0.033,0.0,0.0,266.91364,10789.0,100.0,0.0,1.3643829,0.0,7.0,1.0,0.0,4000000.0,110.0,1.0,0.0,0.0,10.0,0.0,0.0,-350.68954,-13.787588,209.0606,-0.6852314,0.472728,-0.081088796,272.98596,273.0198,267.01773,266.49365,267.0,266.0,348.0,349.0,89.0,89.0,89.0,89.0,0.0,0.0,0.0,0.0,0.0377944,0.034277294,0.053466998,0.050690714,0.0,0.0,0.0,0.0,-59.49142,-25.655363,190.7855,117.78919,0.0,0.0,0.0,2.0,1.0,-3.058989,0.012846978,0.0040382147,89.0,89.0,89.0,89.0,21.02244,21.02244,23.278507,23.278507,0.021932673,0.023821672,-5.384456E-4,-5.4545153E-4,1109.4152,0.0,0.0,0.0,0.0,0.0,0.0,0.0,0.0,0.0,0.0,0.0,0.0,0.0,-6.5443482,0.0026653886,-73.85329,-0.016978081,-0.08882326,6.793062E-4,545996.56,119984.89,0.015199414,0.024679713,7185.1943,6204.9893,6403.4307,5144.536,0.311306,0.0,0.0,0.0
5.871859,5.871859,0.083,0.0,0.0,267.7347,10822.0,100.0,0.0,1.3563694,0.0,7.0,1.0,0.0,4000000.0,110.0,1.0,0.0,0.0,10.0,0.0,0.0,-351.0085,-13.7887125,205.36116,-0.6741621,0.4689134,-0.11962629,273.79752,273.84225,267.83163,267.319,266.0,265.0,347.0,348.0,89.0,89.0,89.0,89.0,0.0,0.0,0.0,0.0,0.037371144,0.033823416,0.05336856,0.050715882,0.0,0.0,0.0,0.0,140.92322,141.41943,-431.58078,-298.18115,0.0,0.0,0.0,2.0,1.0,-3.0633812,0.012730717,0.0044858456,89.0,89.0,89.0,89.0,21.02244,21.02244,23.278507,23.278507,0.02187414,0.023751227,-5.4045906E-4,-5.464861E-4,1113.9567,0.0,0.0,0.0,0.0,0.0,0.0,0.0,0.0,0.0,0.0,0.0,0.0,0.0,-6.232111,-0.048942477,-74.10915,-0.007560111,-0.08698438,0.008081821,546559.94,119984.89,0.015623787,0.025404857,7189.4863,6214.9023,6240.099,5053.2437,0.31174278,0.0,0.0,0.0
9.597493,9.597493,0.133,0.0,0.0,268.55063,10851.0,100.0,0.0,1.3700546,0.0,7.0,1.0,0.0,4000000.0,110.0,1.0,0.0,0.0,10.0,0.0,0.0,-351.3119,-13.792177,201.64902,-0.6740352,0.4647651,-0.024002533,274.5257,274.56747,268.6468,268.13623,265.0,264.0,346.0,347.0,89.0,89.0,89.0,89.0,0.0,0.0,0.0,0.0,0.03791647,0.03417789,0.05362621,0.050920486,0.0,0.0,0.0,0.0,461.6751,517.1298,-24.756802,-3.8221548,0.0,0.0,0.0,2.0,1.0,-3.0677223,0.012316487,0.004768014,89.0,89.0,89.0,89.0,21.02244,21.02244,23.278507,23.278507,0.021470511,0.023352213,-5.392386E-4,-5.391142E-4,1117.9675,0.0,0.0,0.0,0.0,0.0,0.0,0.0,0.0,0.0,0.0,0.0,0.0,0.0,-5.9199853,-0.08039163,-74.36208,-1.6362284E-4,-0.087014206,0.0066895923,547061.9,119984.9,0.014803509,0.024754155,7386.222,6381.8496,6550.409,5317.775,0.31115913,0.0,0.0,0.0
13.334492,13.334492,0.183,0.0,0.0,269.3562,10879.0,100.0,0.0,1.4456904,0.0,7.0,1.0,0.0,4000000.0,110.0,1.0,0.0,0.0,10.0,0.0,0.0,-351.59952,-13.79625,197.92433,-0.6823912,0.45906878,0.020222146,275.25864,275.28152,269.46033,268.93082,264.0,263.0,345.0,346.0,89.0,89.0,89.0,89.0,0.0,0.0,0.0,0.0,0.038903505,0.03510534,0.053829134,0.051102966,0.0,0.0,0.0,0.0,102.031166,-36.665836,-71.30652,-221.88573,0.0,0.0,0.0,2.0,1.0,-3.0721726,0.011930771,0.0045107603,89.0,89.0,89.0,89.0,21.02244,21.02244,23.278507,23.278507,0.021104159,0.022973899,-5.39545E-4,-5.353983E-4,1121.8762,0.0,0.0,0.0,0.0,0.0,0.0,0.0,0.0,0.0,0.0,0.0,0.0,0.0,-5.6030197,-0.079916626,-74.61104,0.0075912867,-0.09051778,0.0074689733,547561.56,119984.89,0.013985752,0.023358598,7545.5947,6530.6943,6634.437,5388.851,0.31008816,0.0,0.0,0.0
17.08272,17.08272,0.233,0.0,0.0,270.15128,10910.0,100.0,0.0,1.5963488,0.0,7.0,1.0,0.0,4000000.0,110.0,1.0,0.0,0.0,10.0,0.0,0.0,-351.8711,-13.799986,194.18729,-0.7082879,0.45214418,0.027143782,276.04645,276.04474,270.27444,269.7058,263.0,262.0,344.0,345.0,89.0,89.0,89.0,89.0,0.0,0.0,0.0,0.0,0.03962722,0.03578587,0.053935096,0.05109147,0.0,0.0,0.0,0.0,-284.05933,-519.4231,7.6577063,-80.385796,0.0,0.0,0.0,2.0,1.0,-3.0768733,0.011529172,0.0043319464,89.0,89.0,89.0,89.0,21.02244,21.02244,23.278507,23.278507,0.02092741,0.022828836,-5.4147304E-4,-5.301599E-4,1126.172,0.0,0.0,0.0,0.0,0.0,0.0,0.0,0.0,0.0,0.0,0.0,0.0,0.0,-5.2753243,-0.070224814,-74.85634,0.0011450895,-0.09741126,0.009059715,548096.44,119984.9,0.013509159,0.022352839,7604.755,6572.582,6681.8594,5381.4785,0.3094015,0.0,0.0,0.0
20.841948,20.841948,0.283,0.0,0.0,270.93405,10941.0,100.0,0.0,1.6772574,0.0,7.0,1.0,0.0,4000000.0,110.0,1.0,0.0,0.0,10.0,0.0,0.0,-352.1259,-13.803251,190.43808,-0.7401056,0.44492546,0.020659974,276.8451,276.82648,271.0764,270.4676,262.0,261.0,342.0,343.0,89.0,89.0,89.0,89.0,0.0,0.0,0.0,0.0,0.03989636,0.035907008,0.054055363,0.051080078,0.0,0.0,0.0,0.0,-360.71683,-394.88815,-269.7095,-249.96841,0.0,0.0,0.0,2.0,1.0,-3.0819259,0.0111704515,0.0043495893,89.0,89.0,89.0,89.0,21.02244,21.02244,23.278507,23.278507,0.020854114,0.022819102,-5.369002E-4,-5.27709E-4,1130.4944,0.0,0.0,0.0,0.0,0.0,0.0,0.0,0.0,0.0,0.0,0.0,0.0,0.0,-4.9321284,-0.061286207,-75.09765,-6.5111596E-4,-0.104201965,0.007768418,548641.2,119984.89,0.013504543,0.022226326,7623.71,6554.4395,6729.566,5372.703,0.30932617,0.0,0.0,0.0
24.611805,24.611805,0.333,0.0,0.0,271.7043,10973.0,100.0,0.0,1.7031046,0.0,7.0,1.0,0.0,4000000.0,110.0,1.0,0.0,0.0,10.0,0.0,0.0,-352.36307,-13.806519,186.67691,-0.77210885,0.44034165,-0.02082649,277.6503,277.6385,271.85916,271.2234,260.0,260.0,341.0,342.0,89.0,89.0,89.0,89.0,0.0,0.0,0.0,0.0,0.03973282,0.03561401,0.05404771,0.050962944,0.0,0.0,0.0,0.0,127.445145,15.85184,-29.034906,-42.72758,0.0,0.0,0.0,2.0,1.0,-3.0872653,0.010792306,0.0044822693,89.0,89.0,89.0,89.0,21.02244,21.02244,23.278507,23.278507,0.02089324,0.022960575,-5.324187E-4,-5.2925694E-4,1134.952,0.0,0.0,0.0,0.0,0.0,0.0,0.0,0.0,0.0,0.0,0.0,0.0,0.0,-4.571663,-0.07149827,-75.3348,-0.002936352,-0.10851405,0.009630523,549198.25,119984.89,0.013861889,0.022556247,7593.17,6469.828,6707.8594,5299.448,0.30963993,0.0,0.0,0.0
28.389256,28.389256,0.383,0.0,0.0,272.4637,11003.0,100.0,0.0,1.8137112,0.0,7.0,1.0,0.0,4000000.0,110.0,1.0,0.0,0.0,10.0,0.0,0.0,-352.5816,-13.810487,182.90399,-0.8144249,0.43350822,-0.026852088,278.41724,278.4053,272.63168,271.9665,259.0,258.0,340.0,341.0,89.0,89.0,89.0,89.0,0.0,0.0,0.0,0.0,0.039720584,0.035409644,0.054136492,0.050868504,0.0,0.0,0.0,0.0,-34.64072,-17.555063,-68.34268,21.202862,0.0,0.0,0.0,2.0,1.0,-3.0928245,0.010352557,0.0046977997,89.0,89.0,89.0,89.0,21.02244,21.02244,23.278507,23.278507,0.020815497,0.022976255,-5.3231634E-4,-5.233142E-4,1139.0144,0.0,0.0,0.0,0.0,0.0,0.0,0.0,0.0,0.0,0.0,0.0,0.0,0.0,-4.1904645,-0.087350026,-75.568214,-0.0046276352,-0.11375289,0.010635558,549661.25,119984.89,0.014225442,0.022901865,7618.8125,6444.97,6758.3447,5268.4077,0.3099079,0.0,0.0,0.0
32.177322,32.177322,0.433,0.0,0.0,273.207,11034.0,100.0,0.0,2.1544435,0.0,7.0,1.0,0.0,4000000.0,110.0,1.0,0.0,0.0,10.0,0.0,0.0,-352.78036,-13.815292,179.11955,-0.8831992,0.4236346,-0.07437807,279.1934,279.19406,273.40198,272.67294,258.0,257.0,339.0,340.0,89.0,89.0,89.0,89.0,0.0,0.0,0.0,0.0,0.039748605,0.03510218,0.054163676,0.05079809,0.0,0.0,0.0,0.0,-715.1841,-506.32053,-583.0317,-362.88943,0.0,0.0,0.0,2.0,1.0,-3.098773,0.009661558,0.004896164,89.0,89.0,89.0,89.0,21.02244,21.02244,23.278507,23.278507,0.020779973,0.023184685,-5.451401E-4,-5.060975E-4,1142.292,0.0,0.0,0.0,0.0,0.0,0.0,0.0,0.0,0.0,0.0,0.0,0.0,0.0,-3.7805846,-0.10967483,-75.79653,-0.003515339,-0.12589297,0.024383597,549694.2,119984.89,0.014278983,0.023159267,7582.138,6315.1523,6691.3936,5174.4272,0.31006622,0.0,0.0,0.0
35.976067,35.976067,0.483,0.0,0.0,273.93805,11059.0,100.0,0.0,2.6950955,0.0,7.0,1.0,0.0,4000000.0,110.0,1.0,0.0,0.0,10.0,0.0,0.0,-352.95737,-13.821208,175.32375,-1.0165647,0.41868368,0.067406446,279.85474,279.777,274.20386,273.31573,257.0,256.0,338.0,339.0,89.0,89.0,89.0,89.0,0.0,0.0,0.0,0.0,0.040720537,0.035252005,0.054810066,0.05073942,0.0,0.0,0.0,0.0,895.87103,1213.7129,197.57147,533.53156,0.0,0.0,0.0,2.0,1.0,-3.105797,0.00835612,0.0049905777,89.0,89.0,89.0,89.0,21.02244,21.02244,23.278507,23.278507,0.020187357,0.022895306,-5.515814E-4,-4.867293E-4,1144.9348,0.0,0.0,0.0,0.0,0.0,0.0,0.0,0.0,0.0,0.0,0.0,0.0,0.0,-3.313234,-0.11343659,-76.02165,0.0053657275,-0.15448758,0.025750112,549720.5,119984.9,0.013704835,0.022612609,7977.295,6513.174,7262.5293,5392.994,0.30958366,0.0,0.0,0.0
39.78525,39.78525,0.533,0.0,0.0,274.63995,11087.0,100.0,0.0,2.9181042,0.0,7.0,1.0,0.0,4000000.0,110.0,1.0,0.0,0.0,10.0,0.0,0.0,-353.1092,-13.826477,171.5169,-1.1450274,0.40537992,0.026050577,280.6029,280.4686,274.9744,273.93387,256.0,255.0,336.0,337.0,89.0,89.0,89.0,89.0,0.0,0.0,0.0,0.0,0.041600436,0.03542468,0.0551318,0.0504416,0.0,0.0,0.0,0.0,-575.4008,-14.054774,19.016846,167.61125,0.0,0.0,0.0,2.0,1.0,-3.114242,0.0073122988,0.0047489405,89.0,89.0,89.0,89.0,21.02244,21.02244,23.278507,23.278507,0.020058388,0.02304432,-5.3454033E-4,-4.946326E-4,1147.897,0.0,0.0,0.0,0.0,0.0,0.0,0.0,0.0,0.0,0.0,0.0,0.0,0.0,-2.778539,-0.10108099,-76.2382,0.0038272059,-0.17965563,0.016968962,549750.8,119984.91,0.013870584,0.022381695,8026.7007,6391.5605,7277.4688,5121.223,0.30969238,0.0,0.0,0.0
43.604706,43.604706,0.583,0.0,0.0,275.32346,11114.0,100.0,0.0,2.8071785,0.0,7.0,1.0,0.0,4000000.0,110.0,1.0,0.0,0.0,10.0,0.0,0.0,-353.23264,-13.831366,167.69945,-1.2448686,0.3997247,0.03759086,281.27344,281.1507,275.6745,274.5885,255.0,254.0,335.0,336.0,89.0,89.0,89.0,89.0,0.0,0.0,0.0,0.0,0.041955758,0.035356704,0.055432167,0.05029782,0.0,0.0,0.0,0.0,245.28801,327.32336,141.95592,196.74,0.0,0.0,0.0,2.0,1.0,-3.1234736,0.006623304,0.0045238733,89.0,89.0,89.0,89.0,21.02244,21.02244,23.278507,23.278507,0.019935293,0.0230763,-5.1609264E-4,-5.110324E-4,1150.7521,0.0,0.0,0.0,0.0,0.0,0.0,0.0,0.0,0.0,0.0,0.0,0.0,0.0,-2.1870542,-0.09316687,-76.4474,0.007021093,-0.18597098,0.010675614,549779.3,119984.91,0.013277588,0.021993702,8149.665,6357.7534,7466.9453,5114.4717,0.30935383,0.0,0.0,0.0
47.434372,47.434372,0.633,0.0,0.0,275.99625,11139.0,100.0,0.0,2.5567653,0.0,7.0,1.0,0.0,4000000.0,110.0,1.0,0.0,0.0,10.0,0.0,0.0,-353.32562,-13.835514,163.87172,-1.2890859,0.3974188,0.06659126,281.86896,281.78647,276.31638,275.28717,254.0,253.0,334.0,335.0,89.0,89.0,89.0,89.0,0.0,0.0,0.0,0.0,0.04256773,0.035723623,0.05566399,0.050303333,0.0,0.0,0.0,0.0,493.11066,862.7324,-129.42996,264.07687,0.0,0.0,0.0,2.0,1.0,-3.1325228,0.006414943,0.003992915,89.0,89.0,89.0,89.0,21.02244,21.02244,23.278507,23.278507,0.019743782,0.022793008,-5.0709106E-4,-5.242664E-4,1153.3951,0.0,0.0,0.0,0.0,0.0,0.0,0.0,0.0,0.0,0.0,0.0,0.0,0.0,-1.5631099,-0.07183588,-76.64965,0.012409904,-0.17522144,-6.8983115E-4,549805.3,119984.9,0.012367458,0.020642646,8305.159,6459.9756,7571.036,5141.995,0.3083105,0.0,0.0,0.0
51.273502,51.273502,0.683,0.0,0.0,276.6627,11165.0,100.0,0.0,2.5071857,0.0,7.0,1.0,0.0,4000000.0,110.0,1.0,0.0,0.0,10.0,0.0,0.0,-353.38705,-13.838562,160.03406,-1.2969248,0.39556617,0.030897448,282.5024,282.48193,276.94885,275.98843,253.0,252.0,333.0,334.0,89.0,89.0,89.0,89.0,0.0,0.0,0.0,0.0,0.0429075,0.03604403,0.055578638,0.050254658,0.0,0.0,0.0,0.0,398.18732,199.34175,608.60657,466.22153,0.0,0.0,0.0,2.0,1.0,-3.140938,0.0062912037,0.0036239624,89.0,89.0,89.0,89.0,21.02244,21.02244,23.278507,23.278507,0.019685285,0.022713054,-5.1458547E-4,-5.181167E-4,1156.1462,0.0,0.0,0.0,0.0,0.0,0.0,0.0,0.0,0.0,0.0,0.0,0.0,0.0,-0.9291614,-0.05656978,-76.84511,0.0014834603,-0.16379611,0.0055760466,549833.3,119984.9,0.01121016,0.019262083,8312.586,6454.2725,7508.118,5087.0107,0.30677986,0.0,0.0,0.0
55.120712,55.120712,0.733,0.0,0.0,277.3243,11190.0,100.0,0.0,2.63276,0.0,7.0,1.0,0.0,4000000.0,110.0,1.0,0.0,0.0,10.0,0.0,0.0,-353.41663,-13.840891,156.18678,-1.3005643,0.39034012,0.011364303,283.15222,283.13434,277.61072,276.64844,252.0,251.0,332.0,333.0,89.0,89.0,89.0,89.0,0.0,0.0,0.0,0.0,0.043270044,0.0361711,0.05559475,0.050215393,0.0,0.0,0.0,0.0,-206.6776,28.994678,-547.42535,-372.31735,0.0,0.0,0.0,2.0,1.0,3.1340554,0.005988426,0.0036196709,89.0,89.0,89.0,89.0,21.02244,21.02244,23.278507,23.278507,0.019568345,0.022611551,-5.194551E-4,-5.0992006E-4,1158.7928,0.0,0.0,0.0,0.0,0.0,0.0,0.0,0.0,0.0,0.0,0.0,0.0,0.0,-0.2894995,-0.04252803,-77.03397,-0.006959413,-0.16456133,0.004227337,549860.75,119984.91,0.011130491,0.01842446,8341.69,6469.8115,7428.3647,4993.5015,0.3056364,0.0,0.0,0.0
58.976578,58.976578,0.783,0.0,0.0,277.97137,11221.0,100.0,0.0,2.7112966,0.0,7.0,1.0,0.0,4000000.0,110.0,1.0,0.0,0.0,10.0,0.0,0.0,-353.41425,-13.843585,152.3303,-1.3071653,0.37830412,-0.03288853,283.8998,283.93115,278.27228,277.287,251.0,250.0,331.0,332.0,89.0,89.0,89.0,89.0,0.0,0.0,0.0,0.0,0.042744886,0.03557089,0.055420727,0.050153777,0.0,0.0,0.0,0.0,-120.57866,-193.91028,450.57083,374.78503,0.0,0.0,0.0,2.0,1.0,3.1257389,0.0056535793,0.004673004,89.0,89.0,89.0,89.0,21.02244,21.02244,23.278507,23.278507,0.019799938,0.023071777,-5.1457033E-4,-4.925267E-4,1162.0715,0.0,0.0,0.0,0.0,0.0,0.0,0.0,0.0,0.0,0.0,0.0,0.0,0.0,0.35147884,-0.06542724,-77.21344,-0.023929536,-0.16899045,0.0109662255,549893.1,119984.9,0.012318612,0.02037979,8138.8545,6230.644,7452.439,5065.913,0.3076315,0.0,0.0,0.0
62.84132,62.84132,0.833,0.0,0.0,278.5994,11251.0,100.0,0.0,2.8281143,0.0,7.0,1.0,0.0,4000000.0,110.0,1.0,0.0,0.0,10.0,0.0,0.0,-353.37955,-13.848503,148.46516,-1.3316193,0.37207645,-0.15032431,284.63617,284.7034,278.92172,277.8833,250.0,249.0,329.0,330.0,89.0,89.0,89.0,89.0,0.0,0.0,0.0,0.0,0.041464027,0.034151327,0.05533092,0.04995734,0.0,0.0,0.0,0.0,231.75624,153.20776,-89.55895,57.88207,0.0,0.0,0.0,2.0,1.0,3.1170335,0.004986195,0.0055924654,89.0,89.0,89.0,89.0,21.02244,21.02244,23.278507,23.278507,0.020108169,0.02369586,-5.121154E-4,-4.9151015E-4,1165.2456,0.0,0.0,0.0,0.0,0.0,0.0,0.0,0.0,0.0,0.0,0.0,0.0,0.0,1.003482,-0.13312015,-77.3821,-0.0139489835,-0.17811093,0.016558837,549924.9,119984.9,0.013377225,0.022614738,7913.853,5954.9,7296.7617,4861.291,0.30924416,0.0,0.0,0.0
66.71527,66.71527,0.883,0.0,0.0,279.2242,11271.0,100.0,0.0,2.9139028,0.0,7.0,1.0,0.0,4000000.0,110.0,1.0,0.0,0.0,10.0,0.0,0.0,-353.31168,-13.856841,144.59175,-1.3803868,0.36954674,-0.07605165,285.19202,285.1862,279.5606,278.4836,249.0,248.0,328.0,329.0,89.0,89.0,89.0,89.0,0.0,0.0,0.0,0.0,0.041513663,0.033971824,0.05556246,0.049923867,0.0,0.0,0.0,0.0,220.61166,764.4161,-21.792953,-39.522343,0.0,0.0,0.0,2.0,1.0,3.1079273,0.0044014426,0.0059206486,89.0,89.0,89.0,89.0,21.02244,21.02244,23.278507,23.278507,0.019777574,0.0232417,-5.1233725E-4,-4.92779E-4,1167.3635,0.0,0.0,0.0,0.0,0.0,0.0,0.0,0.0,0.0,0.0,0.0,0.0,0.0,1.6782446,-0.18925092,-77.54389,-0.0042314306,-0.18481056,0.010973351,549946.8,119984.91,0.013494834,0.022356482,8134.6343,6145.9116,7486.298,4916.159,0.30911922,0.0,0.0,0.0
70.59874,70.59874,0.933,0.0,0.0,279.83356,11293.0,100.0,0.0,2.8393784,0.0,7.0,1.0,0.0,4000000.0,110.0,1.0,0.0,0.0,10.0,0.0,0.0,-353.2095,-13.86688,140.71051,-1.410761,0.36130717,-0.008074762,285.73898,285.73413,280.17157,279.08875,248.0,247.0,327.0,328.0,89.0,89.0,89.0,89.0,0.0,0.0,0.0,0.0,0.042449567,0.034659993,0.055860285,0.050081834,0.0,0.0,0.0,0.0,-140.9769,-265.18997,-80.07734,-116.90408,0.0,0.0,0.0,2.0,1.0,3.0986476,0.0037832244,0.005966902,89.0,89.0,89.0,89.0,21.02244,21.02244,23.278507,23.278507,0.019507378,0.022969864,-5.0457317E-4,-4.946761E-4,1169.6913,0.0,0.0,0.0,0.0,0.0,0.0,0.0,0.0,0.0,0.0,0.0,0.0,0.0,2.3727,-0.20598754,-77.69505,0.0025833396,-0.18538755,0.011195429,549969.94,119984.9,0.013134462,0.021663627,8311.817,6228.8745,7683.376,5054.1104,0.3089304,0.0,0.0,0.0
74.49197,74.49197,0.983,0.0,0.0,280.43387,11316.0,100.0,0.0,2.7413962,0.0,7.0,1.0,0.0,4000000.0,110.0,1.0,0.0,0.0,10.0,0.0,0.0,-353.07236,-13.877626,136.82199,-1.4177521,0.35993242,-0.029117886,286.31308,286.33688,280.75806,279.70444,247.0,246.0,326.0,327.0,89.0,89.0,89.0,89.0,0.0,0.0,0.0,0.0,0.04273321,0.035095267,0.05583889,0.050040845,0.0,0.0,0.0,0.0,967.55316,-490.0127,1324.4478,-13.531744,0.0,0.0,0.0,2.0,1.0,3.0895095,0.0029561783,0.0059461594,89.0,89.0,89.0,89.0,21.02244,21.02244,23.278507,23.278507,0.019424299,0.022875331,-5.0283E-4,-4.980809E-4,1172.1263,0.0,0.0,0.0,0.0,0.0,0.0,0.0,0.0,0.0,0.0,0.0,0.0,0.0,3.0735848,-0.22535972,-77.83731,-0.0033642913,-0.18002613,0.023934687,549994.7,119984.91,0.012570612,0.020827757,8356.176,6245.411,7676.4297,4995.751,0.30828667,0.0,0.0,0.0
78.39545,78.39545,1.033,0.0,0.0,281.02603,11334.0,100.0,0.0,2.697865,0.0,7.0,1.0,0.0,4000000.0,110.0,1.0,0.0,0.0,10.0,0.0,0.0,-352.9001,-13.888079,132.92654,-1.4156463,0.34914055,0.12211613,286.81714,286.73178,281.3389,280.30576,246.0,245.0,325.0,326.0,89.0,89.0,89.0,89.0,0.0,0.0,0.0,0.0,0.04418559,0.03654077,0.056478843,0.05026055,0.0,0.0,0.0,0.0,-1563.3119,-10.20584,-1520.1954,-621.95056,0.0,0.0,0.0,2.0,1.0,3.0805867,0.0031579114,0.005555749,89.0,89.0,89.0,89.0,21.02244,21.02244,23.278507,23.278507,0.01909905,0.022089034,-5.0105277E-4,-4.929961E-4,1174.0315,0.0,0.0,0.0,0.0,0.0,0.0,0.0,0.0,0.0,0.0,0.0,0.0,0.0,3.7791603,-0.1823373,-77.97104,0.015445938,-0.17690748,-0.024143467,550013.75,119984.9,0.013083408,0.020071276,8568.1455,6610.449,7993.6836,5192.3564,0.30808163,0.0,0.0,0.0
82.311295,82.311295,1.083,0.0,0.0,281.59784,11359.0,100.0,0.0,2.6374335,0.0,7.0,1.0,0.0,4000000.0,110.0,1.0,0.0,0.0,10.0,0.0,0.0,-352.69272,-13.896491,129.02473,-1.3935126,0.3406933,0.032929633,287.457,287.37924,281.9006,280.89642,245.0,244.0,324.0,325.0,89.0,89.0,89.0,89.0,0.0,0.0,0.0,0.0,0.043758035,0.03699922,0.056189068,0.050120253,0.0,0.0,0.0,0.0,-206.65076,-697.1999,166.39082,472.0553,0.0,0.0,0.0,2.0,1.0,3.0718825,0.004581673,0.0052443743,89.0,89.0,89.0,89.0,21.02244,21.02244,23.278507,23.278507,0.019343294,0.022227488,-4.9764913E-4,-4.870234E-4,1176.679,0.0,0.0,0.0,0.0,0.0,0.0,0.0,0.0,0.0,0.0,0.0,0.0,0.0,4.475837,-0.16100204,-78.0933,0.0039338106,-0.17203458,-0.024812527,550040.8,119984.89,0.014966998,0.021666104,8332.904,6502.8955,7778.246,5055.4155,0.31041336,0.0,0.0,0.0
86.23937,86.23937,1.133,0.0,0.0,282.15448,11390.0,100.0,0.0,2.5686364,0.0,7.0,1.0,0.0,4000000.0,110.0,1.0,0.0,0.0,10.0,0.0,0.0,-352.4508,-13.904649,125.117065,-1.3443456,0.33007517,-0.28436446,288.2435,288.13623,282.45212,281.45917,244.0,243.0,322.0,323.0,89.0,89.0,89.0,89.0,0.0,0.0,0.0,0.0,0.04226093,0.035974234,0.055743087,0.04948131,0.0,0.0,0.0,0.0,-3699.7715,-2479.246,-2188.307,-1746.1848,0.0,0.0,0.0,2.0,1.0,3.0633378,0.006375944,0.0050735474,89.0,89.0,89.0,89.0,21.02244,21.02244,23.278507,23.278507,0.020164177,0.022947166,-4.9610937E-4,-4.994474E-4,1179.4086,0.0,0.0,0.0,0.0,0.0,0.0,0.0,0.0,0.0,0.0,0.0,0.0,0.0,5.1599298,-0.19877994,-78.205956,-0.0041350834,-0.16931316,-0.046473946,549816.25,119984.91,0.015597179,0.02266033,7616.8584,6013.886,7070.134,4229.158,0.31057835,0.0,0.0,0.0
90.17225,90.17225,1.183,0.0,0.0,282.73636,11398.0,100.0,0.0,2.455966,0.0,7.0,1.0,0.0,4000000.0,110.0,1.0,0.0,0.0,10.0,0.0,0.0,-352.1748,-13.914689,121.20372,-1.3596117,0.34582108,0.19535698,288.4836,288.28162,283.01654,282.05356,243.0,242.0,321.0,322.0,89.0,89.0,89.0,89.0,0.0,0.0,0.0,0.0,0.043015398,0.03739296,0.05674977,0.050487842,0.0,0.0,0.0,0.0,1749.2561,2594.9429,-467.89786,177.13301,0.0,0.0,0.0,2.0,1.0,3.0549772,0.008969936,0.004477024,89.0,89.0,89.0,89.0,21.02244,21.02244,23.278507,23.278507,0.019026695,0.021391908,-5.04807E-4,-4.966978E-4,1179.9006,0.0,0.0,0.0,0.0,0.0,0.0,0.0,0.0,0.0,0.0,0.0,0.0,0.0,5.841619,-0.17121448,-78.32014,0.040088654,-0.16533871,-0.05443201,549659.56,119984.9,0.011664828,0.01934895,8572.908,6975.4897,8384.003,5572.1895,0.30692577,0.0,0.0,0.0
94.11051,94.11051,1.233,0.0,0.0,283.28314,11409.0,100.0,0.0,2.4583516,0.0,7.0,1.0,0.0,4000000.0,110.0,1.0,0.0,0.0,10.0,0.0,0.0,-351.86472,-13.916268,117.28503,-1.336481,0.32566723,0.36699432,288.80093,288.53763,283.5435,282.62268,242.0,241.0,320.0,321.0,89.0,89.0,89.0,89.0,0.0,0.0,0.0,0.0,0.048508976,0.042826246,0.057256166,0.051113624,0.0,0.0,0.0,0.0,-4704.272,-3676.7583,-1370.8231,-966.3864,0.0,0.0,0.0,2.0,1.0,3.046933,0.011157937,0.0012460947,89.0,89.0,89.0,89.0,21.02244,21.02244,23.278507,23.278507,0.018186338,0.020137552,-5.0190766E-4,-4.866161E-4,1180.5504,0.0,0.0,0.0,0.0,0.0,0.0,0.0,0.0,0.0,0.0,0.0,0.0,0.0,6.5199394,0.066328466,-78.41916,0.05424855,-0.1583608,-0.041573197,549432.0,119984.9,0.014329536,0.016894868,9134.97,7604.917,8209.765,5420.846,0.307333,0.0,0.0,0.0
98.05433,98.05433,1.283,0.0,0.0,283.80325,11439.0,100.0,0.0,2.4139307,0.0,7.0,1.0,0.0,4000000.0,110.0,1.0,0.0,0.0,10.0,0.0,0.0,-351.52136,-13.9092655,113.36171,-1.2907625,0.307545,0.20821263,289.5032,289.34674,284.06503,283.16168,241.0,240.0,319.0,320.0,89.0,89.0,89.0,89.0,0.0,0.0,0.0,0.0,0.04705719,0.041760024,0.056546688,0.05088906,0.0,0.0,0.0,0.0,-175.12137,-677.6735,21.390608,667.74927,0.0,0.0,0.0,2.0,1.0,3.0391421,0.013981208,-3.5762787E-5,89.0,89.0,89.0,89.0,21.02244,21.02244,23.278507,23.278507,0.018785328,0.021028906,-4.9264013E-4,-4.7025763E-4,1182.3916,0.0,0.0,0.0,0.0,0.0,0.0,0.0,0.0,0.0,0.0,0.0,0.0,0.0,7.1731806,0.19081509,-78.50698,0.02438073,-0.1553531,-0.044421993,548845.75,119984.9,0.01677775,0.020627314,8595.607,7056.5957,7979.217,5495.324,0.311615,0.0,0.0,0.0
102.004074,102.004074,1.333,0.0,0.0,284.33246,11464.0,100.0,0.0,2.315427,0.0,7.0,1.0,0.0,4000000.0,110.0,1.0,0.0,0.0,10.0,0.0,0.0,-351.146,-13.899485,109.4342,-1.2598469,0.34500325,-0.031723104,290.13144,290.0033,284.58655,283.69543,240.0,239.0,318.0,319.0,89.0,89.0,89.0,89.0,0.0,0.0,0.0,0.0,0.044136457,0.038242973,0.05575972,0.050423577,0.0,0.0,0.0,0.0,4579.992,7225.119,3081.3345,4341.007,0.0,0.0,0.0,2.0,1.0,3.0314212,0.016088506,-0.0010993481,89.0,89.0,89.0,89.0,21.02244,21.02244,23.278507,23.278507,0.019294573,0.02166529,-5.051527E-4,-4.968907E-4,1183.8944,0.0,0.0,0.0,0.0,0.0,0.0,0.0,0.0,0.0,0.0,0.0,0.0,0.0,7.804989,0.17189954,-78.59446,0.024301307,-0.1527797,-0.035826977,548344.9,119984.91,0.014366534,0.020126006,8316.092,6817.2227,7644.8804,5276.9824,0.3090849,0.0,0.0,0.0
105.96087,105.96087,1.383,0.0,0.0,284.85333,11460.0,100.0,0.0,2.3728046,0.0,7.0,1.0,0.0,4000000.0,110.0,1.0,0.0,0.0,10.0,0.0,0.0,-350.73874,-13.883088,105.502266,-1.2735958,0.2935567,0.91327214,290.01184,289.89197,285.08197,284.22083,239.0,238.0,317.0,318.0,89.0,89.0,89.0,89.0,0.0,0.0,0.0,0.0,0.05129686,0.0459713,0.058164533,0.05308777,0.0,0.0,0.0,0.0,-9821.564,-6914.7734,-7061.598,-6963.872,0.0,0.0,0.0,2.0,1.0,3.023897,0.016694274,-0.0048244,89.0,89.0,89.0,89.0,21.02244,21.02244,23.278507,23.278507,0.016987411,0.01921024,-5.007821E-4,-4.814853E-4,1183.6516,0.0,0.0,0.0,0.0,0.0,0.0,0.0,0.0,0.0,0.0,0.0,0.0,0.0,8.450079,0.53040326,-78.67164,0.10602344,-0.14918917,-0.010917403,548423.8,119984.914,0.013266699,0.014974222,10144.253,8131.289,9122.154,6865.7354,0.30648994,0.0,0.0,0.0
109.9269,109.9269,1.433,0.0,0.0,285.32095,11491.0,100.0,0.0,2.0668042,0.0,7.0,1.0,0.0,4000000.0,110.0,1.0,0.0,0.0,10.0,0.0,0.0,-350.29977,-13.848007,101.567055,-1.1800052,0.26850766,0.36121532,290.74915,290.7343,285.54648,284.74033,238.0,237.0,316.0,317.0,89.0,89.0,89.0,89.0,0.0,0.0,0.0,0.0,0.048537046,0.045302868,0.05609526,0.052333716,0.0,0.0,0.0,0.0,120.76629,-3225.3289,669.0502,-399.8637,0.0,0.0,0.0,2.0,1.0,3.0167093,0.01819527,-0.0076652765,89.0,89.0,89.0,89.0,21.02244,21.02244,23.278507,23.278507,0.017808814,0.020201644,-4.6332186E-4,-4.7083118E-4,1185.5348,0.0,0.0,0.0,0.0,0.0,0.0,0.0,0.0,0.0,0.0,0.0,0.0,0.0,9.064638,0.8049671,-78.73163,0.023241336,-0.13748278,0.0050076772,547814.44,119984.89,0.020411458,0.021065095,9291.29,7336.3574,7562.7744,5916.7456,0.3135109,0.0,0.0,0.0
113.90693,113.90693,1.483,0.0,0.0,285.7567,11543.0,100.0,0.0,1.9749436,0.0,7.0,1.0,0.0,4000000.0,110.0,1.0,0.0,0.0,10.0,0.0,0.0,-349.83127,-13.80531,97.6291,-1.0660703,0.25095052,-0.66593206,291.96225,292.18646,285.96512,285.1865,237.0,236.0,315.0,315.0,89.0,89.0,89.0,89.0,0.0,0.0,0.0,0.0,0.04419265,0.038187243,0.054532886,0.050234377,0.0,0.0,0.0,0.0,-10958.285,-9864.653,-5851.949,-5622.8613,0.0,0.0,0.0,2.0,1.0,3.0099359,0.016661592,-0.009321928,89.0,89.0,89.0,89.0,21.02244,21.02244,23.278507,23.278507,0.02077001,0.024006294,-4.7224577E-4,-4.7530854E-4,1188.6626,0.0,0.0,0.0,0.0,0.0,0.0,0.0,0.0,0.0,0.0,0.0,0.0,0.0,9.62957,0.79323065,-78.786606,0.01750228,-0.13268809,0.02660571,546785.4,119984.89,0.021720907,0.02603347,6772.7905,5122.825,5677.8125,3718.3647,0.3164196,0.0,0.0,0.0
117.888374,117.888374,1.533,0.0,0.0,286.20187,11474.0,100.0,3.0687733,1.8845111,0.0,7.0,1.0,0.0,4000000.0,110.0,1.0,0.0,0.0,10.0,0.0,0.0,-349.3349,-13.7633705,93.687744,-1.1096599,0.14918855,0.72179383,290.38528,290.20996,286.18127,285.443,236.0,236.0,314.0,315.0,89.0,89.0,89.0,89.0,0.0,0.0,0.0,0.0,0.04830389,0.041811183,0.057666257,0.053185314,0.0,0.0,0.0,0.0,6954.391,6221.2754,-1215.3359,-1073.098,0.0,0.0,0.0,2.0,1.0,3.00354,0.015645716,-0.012913108,89.0,89.0,89.0,89.0,21.02244,21.02244,23.278507,23.278507,0.014103415,0.01577475,-0.0011794273,-0.0012924598,1184.5178,0.0,0.0,0.0,0.0,0.0,0.0,0.0,0.0,0.0,0.0,0.0,0.0,0.0,10.190621,0.96914333,-78.83872,0.12820603,-0.1231854,0.032479458,548155.5,0.0,0.009298395,0.014698863,9702.408,8033.103,9350.189,7334.0957,0.30480957,0.0,0.0,0.0
121.863914,121.863914,1.583,0.0,0.0,285.45416,11386.0,73.46914,14.862262,2.1575687,0.0,7.0,0.0,1.0,4000000.0,110.0,1.0,0.0,0.0,10.0,0.0,0.0,-348.81134,-13.692403,89.7515,-1.0803057,-0.7542335,1.3477099,287.05603,286.5323,284.6774,283.93948,242.0,241.0,319.0,320.0,89.0,89.0,89.0,89.0,0.0,0.0,0.0,0.0,0.052208617,0.05090282,0.058103487,0.055789985,0.0,0.0,0.0,0.0,6547.7944,-22264.438,-1491.5491,-2749.264,0.0,0.0,0.0,2.0,1.0,2.9975889,0.017886167,-0.019848585,89.0,89.0,89.0,89.0,21.02244,21.02244,23.278507,23.278507,0.0042268354,0.0037527443,-0.0037510628,-0.00397749,1179.1461,0.0,0.0,0.0,0.0,0.0,0.0,0.0,0.0,0.0,0.0,0.0,0.0,0.0,10.706437,1.7717139,-78.54671,0.053163778,-0.11671289,0.03168271,549887.0,0.0,0.012198804,0.011278935,12093.105,10276.244,9185.426,8178.5195,0.30489063,0.0,0.0,0.0
125.815636,125.815636,1.633,0.0,0.0,283.5474,11249.0,45.804535,23.351616,1.9262744,0.0,7.0,0.0,1.0,4000000.0,110.0,1.0,0.0,0.0,10.0,0.0,0.0,-348.2646,-13.594993,85.839134,-1.0065936,-1.2287238,0.23257458,283.81015,283.34668,282.19687,281.32767,254.0,253.0,328.0,329.0,89.0,89.0,89.0,89.0,0.0,0.0,0.0,0.0,0.04804012,0.04449893,0.05704982,0.05365252,0.0,0.0,0.0,0.0,2794.285,275.22168,-195.61351,312.236,0.0,0.0,0.0,2.0,1.0,2.9916804,0.01593685,-0.022155523,89.0,89.0,89.0,89.0,21.02244,21.02244,23.278507,23.278507,1.238478E-4,6.038593E-4,-0.0058753155,-0.0065403357,1165.0343,0.0,0.0,0.0,0.0,0.0,0.0,0.0,0.0,0.0,0.0,0.0,0.0,0.0,11.128549,2.0290537,-77.94662,0.05547815,-0.11857057,0.040209178,549922.9,0.0,0.018492516,0.023671761,9203.686,7378.7905,8635.262,7066.2188,0.31347752,0.0,0.0,0.0
129.74043,129.74043,1.683,0.0,0.0,280.53146,11030.0,22.674906,41.183525,1.37355,0.0,7.0,0.0,1.0,4000000.0,110.0,1.0,0.0,0.0,10.0,0.0,0.0,-347.69928,-13.494621,81.96382,-0.8989495,-1.9872589,-0.024832368,278.63306,278.1245,278.00674,277.0802,273.0,272.0,345.0,345.0,89.0,89.0,89.0,89.0,0.0,0.0,0.0,0.0,0.04550611,0.04048949,0.055838045,0.052223053,0.0,0.0,0.0,0.0,11293.306,11631.934,5986.2207,6027.607,0.0,0.0,0.0,2.0,1.0,2.986243,0.015088109,-0.026245594,89.0,89.0,89.0,89.0,21.02244,21.02244,23.278507,23.278507,-0.0072574927,-0.0073397253,-0.010119539,-0.01150434,1141.868,0.0,0.0,0.0,0.0,0.0,0.0,0.0,0.0,0.0,0.0,0.0,0.0,0.0,11.447821,1.9610063,-77.054985,0.08395226,-0.09785816,0.02116487,549689.44,0.0,0.012192259,0.018764839,8992.681,7690.539,8631.784,6989.04,0.30757713,0.0,0.0,0.0
133.60493,133.60493,1.733,0.0,0.0,276.24316,10797.0,2.3804073,53.360497,1.5319326,0.0,7.0,0.0,1.0,4000000.0,110.0,1.0,0.0,0.0,10.0,0.0,0.0,-347.12048,-13.384553,78.14301,-0.83307016,-2.5873923,1.7624873,273.0463,272.69186,273.0559,272.45493,299.0,298.0,367.0,368.0,89.0,89.0,89.0,89.0,0.0,0.0,0.0,0.0,0.053227406,0.053161103,0.0586321,0.056350805,0.0,0.0,0.0,0.0,-28944.719,-21059.55,-5990.0425,-5739.364,0.0,0.0,0.0,2.0,1.0,2.9819267,0.016498769,-0.032399893,89.0,89.0,89.0,89.0,21.02244,21.02244,23.278507,23.278507,-0.011899935,-0.011864319,-0.012240939,-0.012806116,1110.5093,0.0,0.0,0.0,0.0,0.0,0.0,0.0,0.0,0.0,0.0,0.0,0.0,0.0,11.6805525,2.537715,-75.797516,0.09868302,-0.076170444,-0.04775527,546130.06,0.0,0.0019919204,0.004254947,12650.734,10535.244,10708.025,9788.547,0.2955475,0.0,0.0,0.0
137.38998,137.38998,1.783,0.0,0.0,270.9768,10517.0,0.0,72.30361,1.124854,0.0,7.0,0.0,1.0,4000000.0,110.0,1.0,0.0,0.0,10.0,0.0,0.0,-346.5331,-13.242117,74.39202,-0.6654879,-3.1806126,0.46954322,265.91144,265.5626,265.84198,265.11472,330.0,329.0,396.0,396.0,89.0,89.0,89.0,89.0,0.0,0.0,0.0,0.0,0.04862431,0.047335148,0.056625776,0.054663017,0.0,0.0,0.0,0.0,-2160.9753,70.23376,-1407.3011,-1727.7847,0.0,0.0,0.0,2.0,1.0,2.9786847,0.016511718,-0.03463137,89.0,89.0,89.0,89.0,21.02244,21.02244,23.278507,23.278507,-0.018865328,-0.019057194,-0.019528665,-0.020920489,1072.0336,0.0,0.0,0.0,0.0,0.0,0.0,0.0,0.0,0.0,0.0,0.0,0.0,0.0,11.789611,3.000407,-74.28174,0.016157389,-0.058804795,0.01710634,541244.5,0.0,0.005964921,0.013274337,9261.919,8124.91,9088.066,8217.002,0.30169487,0.0,0.0,0.0
141.09224,141.09224,1.833,0.0,0.0,264.01324,10141.0,0.0,100.0,1.1301818,0.0,7.0,0.0,1.0,4000000.0,110.0,1.0,0.0,0.0,10.0,0.0,0.0,-345.94382,-13.091418,70.72788,-0.5625346,-4.1929383,0.20460734,256.44943,255.86806,256.16397,254.99193,371.0,370.0,437.0,437.0,89.0,89.0,89.0,89.0,0.0,0.0,0.0,0.0,0.045253485,0.041445002,0.05530879,0.052984614,0.0,0.0,0.0,0.0,-585.2849,-406.98483,2513.4844,1847.2369,0.0,0.0,0.0,2.0,1.0,2.9757385,0.015833274,-0.03634107,89.0,89.0,89.0,89.0,21.02244,21.02244,23.278507,23.278507,-0.028858978,-0.0301072,-0.029922158,-0.033294987,999.309,0.0,0.0,0.0,0.0,0.0,0.0,0.0,0.0,0.0,0.0,0.0,0.0,0.0,11.760505,3.0200057,-72.324875,0.061482757,-0.05996128,-0.0020730952,523234.1,0.0,0.006585179,0.019319339,7490.9307,6483.71,9465.286,8347.375,0.30503082,0.0,0.0,0.0
144.68811,144.68811,1.883,0.0,0.0,256.63217,9854.0,0.0,100.0,1.1055361,0.0,7.0,0.0,1.0,4000000.0,110.0,1.0,0.0,0.0,10.0,0.0,0.0,-345.35797,-12.938506,67.16647,-0.5116065,-4.135329,0.24516295,249.1083,248.72063,248.36382,247.2528,410.0,409.0,476.0,476.0,89.0,89.0,89.0,89.0,0.0,0.0,0.0,0.0,0.04396372,0.040508356,0.05420968,0.052559335,0.0,0.0,0.0,0.0,-1358.2302,-1817.612,-61.261707,-1321.1488,0.0,0.0,0.0,2.0,1.0,2.9728348,0.015860043,-0.038792253,89.0,89.0,89.0,89.0,21.02244,21.02244,23.278507,23.278507,-0.029575234,-0.03007594,-0.032680467,-0.03578923,937.055,0.0,0.0,0.0,0.0,0.0,0.0,0.0,0.0,0.0,0.0,0.0,0.0,0.0,11.675039,3.0865593,-70.2564,0.023596978,-0.056143478,0.018188544,504928.1,0.0,0.0057503777,0.017904969,7584.709,6752.919,8513.898,7745.9688,0.30389023,0.0,0.0,0.0
148.17018,148.17018,1.933,0.0,0.0,249.34274,9555.0,0.0,100.0,0.7905026,0.0,7.0,0.0,1.0,4000000.0,110.0,1.0,0.0,0.0,10.0,0.0,0.0,-344.77725,-12.78382,63.70752,-0.4258745,-4.1104207,0.1267795,241.71959,240.96703,240.70905,239.89627,445.0,444.0,511.0,511.0,89.0,89.0,89.0,89.0,0.0,0.0,0.0,0.0,0.04156244,0.03773877,0.053071517,0.052159525,0.0,0.0,0.0,0.0,-624.87415,-940.69055,465.49734,-164.40599,0.0,0.0,0.0,2.0,1.0,2.9702864,0.014313392,-0.03871751,89.0,89.0,89.0,89.0,21.02244,21.02244,23.278507,23.278507,-0.03090431,-0.032734945,-0.03513554,-0.03724439,866.6564,0.0,0.0,0.0,0.0,0.0,0.0,0.0,0.0,0.0,0.0,0.0,0.0,0.0,11.553775,3.0901442,-68.221466,-0.031540215,-0.045806,0.038030114,481607.5,0.0,0.006401068,0.019570068,7068.82,6108.677,7913.9746,7527.866,0.30438328,0.0,0.0,0.0
151.54118,151.54118,1.983,0.0,0.0,242.13919,11087.0,0.0,100.0,0.5449378,0.0,7.0,0.0,1.0,4000000.0,110.0,1.0,0.0,0.0,10.0,0.0,0.0,-344.20383,-12.631269,60.3493,-0.33357078,-4.0743766,-0.1660847,233.50357,232.80927,232.61621,231.94519,477.0,476.0,543.0,543.0,89.0,89.0,89.0,89.0,0.0,0.0,0.0,0.0,0.036607545,0.033297043,0.051972117,0.05136724,0.0,0.0,0.0,0.0,-633.93994,-690.5882,98.46393,-249.39175,0.0,0.0,0.0,2.0,1.0,2.9684305,0.012116327,-0.036950827,89.0,89.0,89.0,89.0,21.02244,21.02244,23.278507,23.278507,-0.036043327,-0.0375256,-0.03955254,-0.04148235,1147.8965,0.0,0.0,0.0,0.0,0.0,0.0,0.0,0.0,0.0,0.0,0.0,0.0,0.0,11.386372,2.9895,-66.22266,-0.059315544,-0.030326549,0.043980394,549750.56,0.0,0.009104222,0.02532921,6050.336,5224.2886,7121.5547,6862.335,0.30856037,0.0,0.0,0.0
154.80333,154.80333,2.033,0.0,0.0,235.02042,10321.0,0.0,100.0,0.25585043,0.0,6.0,0.0,1.0,4000000.0,110.0,1.0,0.0,0.0,10.0,0.0,0.0,-343.64017,-12.484427,57.09029,-0.22508472,-3.9682748,-0.060255527,226.53947,226.04945,226.01627,225.19255,506.0,505.0,572.0,572.0,89.0,89.0,89.0,89.0,0.0,0.0,0.0,0.0,0.032942798,0.030282756,0.052178632,0.051362075,0.0,0.0,0.0,0.0,-2380.9429,-1748.525,-2239.604,-4022.6694,0.0,0.0,0.0,2.0,1.0,2.9674623,0.010353089,-0.034998417,89.0,89.0,89.0,89.0,21.02244,21.02244,23.278507,23.278507,-0.035818096,-0.03760529,-0.03791397,-0.04064646,1034.2749,0.0,0.0,0.0,0.0,0.0,0.0,0.0,0.0,0.0,0.0,0.0,0.0,0.0,11.167763,2.902165,-64.25564,-0.019237049,-0.014891724,0.02236464,532097.5,0.0,0.011842787,0.031736083,5493.5137,5072.923,7441.006,6988.1084,0.31428242,0.0,0.0,0.0
157.95934,157.95934,2.083,0.0,0.0,227.97423,9962.0,0.0,100.0,0.3494124,0.0,6.0,0.0,1.0,4000000.0,110.0,1.0,0.0,0.0,10.0,0.0,0.0,-343.08844,-12.344896,53.928333,-0.15634596,-4.0158267,-0.2996415,218.6149,218.40395,217.20651,216.40135,532.0,531.0,598.0,598.0,89.0,89.0,89.0,89.0,0.0,0.0,0.0,0.0,0.028087629,0.027330723,0.050706215,0.050036155,0.0,0.0,0.0,0.0,1186.6964,1013.63336,29.075087,1273.6333,0.0,0.0,0.0,2.0,1.0,2.9668794,0.010822392,-0.0340302,89.0,89.0,89.0,89.0,21.02244,21.02244,23.278507,23.278507,-0.04104868,-0.041552886,-0.046608787,-0.050673258,963.11914,0.0,0.0,0.0,0.0,0.0,0.0,0.0,0.0,0.0,0.0,0.0,0.0,0.0,10.91009,2.6875944,-62.321354,-0.039989922,-0.013214986,-0.013283977,513346.34,0.0,0.017486436,0.03610518,4884.8047,4812.8916,6343.095,6131.3496,0.31750488,0.0,0.0,0.0
161.10211,161.10211,2.133,0.0,0.0,220.85722,9618.0,0.0,100.0,0.48748645,0.0,6.0,0.0,1.0,4000000.0,110.0,1.0,0.0,0.0,10.0,0.0,0.0,-342.55002,-12.215731,50.863743,-0.15042204,-4.03859,-0.19491954,211.3267,210.60709,211.09415,210.63165,557.0,556.0,622.0,622.0,89.0,89.0,89.0,89.0,0.0,0.0,0.0,0.0,0.025920732,0.024663541,0.050468136,0.050176457,0.0,0.0,0.0,0.0,433.08972,734.0803,203.27118,446.38663,0.0,0.0,0.0,2.0,1.0,2.96614,0.010720827,-0.03125584,89.0,89.0,89.0,89.0,21.02244,21.02244,23.278507,23.278507,-0.043216832,-0.046097036,-0.044713926,-0.046564937,881.295,0.0,0.0,0.0,0.0,0.0,0.0,0.0,0.0,0.0,0.0,0.0,0.0,0.0,10.639794,2.5019066,-60.367733,-0.04635962,-0.017616633,-0.009445317,486534.38,0.0,0.019624433,0.040621746,4715.8374,4344.509,6595.8555,6469.9917,0.321249,0.0,0.0,0.0
164.25372,164.25372,2.183,0.0,0.0,213.8684,9271.0,0.0,100.0,0.62713945,0.0,6.0,0.0,1.0,4000000.0,110.0,1.0,0.0,0.0,10.0,0.0,0.0,-342.0251,-12.094767,47.89625,-0.15228361,-3.8697724,-0.31826466,203.73999,202.9322,202.87672,202.72287,579.0,578.0,644.0,643.0,89.0,89.0,89.0,89.0,0.0,0.0,0.0,0.0,0.023745896,0.02285489,0.049959652,0.049953997,0.0,0.0,0.0,0.0,-344.22797,-425.8074,-2440.944,-1094.1132,0.0,0.0,0.0,2.0,1.0,2.96491,0.0095742205,-0.030413032,89.0,89.0,89.0,89.0,21.02244,21.02244,23.278507,23.278507,-0.04772713,-0.0504024,-0.051150072,-0.050999634,792.5439,0.0,0.0,0.0,0.0,0.0,0.0,0.0,0.0,0.0,0.0,0.0,0.0,0.0,10.373523,2.3333607,-58.44863,-0.013373142,-0.029238313,0.04549323,453914.2,0.0,0.02080033,0.04375726,4286.076,4021.2856,5873.2686,5943.039,0.32420254,0.0,0.0,0.0
167.32643,167.32643,2.233,0.0,0.0,206.70824,10798.0,0.0,100.0,0.8787744,0.0,6.0,0.0,1.0,4000000.0,110.0,1.0,0.0,0.0,10.0,0.0,0.0,-341.5133,-11.980962,45.025776,-0.19323963,-4.069432,0.14634992,197.85689,197.56108,198.45905,197.00555,599.0,598.0,663.0,663.0,89.0,89.0,89.0,89.0,0.0,0.0,0.0,0.0,0.024785906,0.023166558,0.051083814,0.049855426,0.0,0.0,0.0,0.0,2164.6763,3343.7554,49.52705,13.826785,0.0,0.0,0.0,2.0,1.0,2.9634051,0.008363415,-0.03045082,89.0,89.0,89.0,89.0,21.02244,21.02244,23.278507,23.278507,-0.043305047,-0.04412325,-0.040257636,-0.04645497,1110.6388,0.0,0.0,0.0,0.0,0.0,0.0,0.0,0.0,0.0,0.0,0.0,0.0,0.0,10.111094,2.2614958,-56.476437,0.012264122,-0.03524438,-0.017102804,546143.2,0.0,0.018866088,0.042507198,5107.996,4732.4185,7052.09,6402.492,0.3230543,0.0,0.0,0.0
170.319,170.319,2.283,0.0,0.0,199.92848,10096.0,0.0,100.0,1.2825093,0.0,5.0,0.0,1.0,4000000.0,110.0,1.0,0.0,0.0,10.0,0.0,0.0,-341.01382,-11.868171,42.25136,-0.24999794,-3.8686388,0.0740097,191.75758,191.2276,191.26167,189.21927,618.0,617.0,681.0,681.0,89.0,89.0,89.0,89.0,0.0,0.0,0.0,0.0,0.02461302,0.024350954,0.050788924,0.0495306,0.0,0.0,0.0,0.0,-27.117117,-1689.8988,867.25195,79.514114,0.0,0.0,0.0,2.0,1.0,2.9611342,0.009445139,-0.031049013,89.0,89.0,89.0,89.0,21.02244,21.02244,23.278507,23.278507,-0.041099396,-0.042242367,-0.044329103,-0.05267533,990.6404,0.0,0.0,0.0,0.0,0.0,0.0,0.0,0.0,0.0,0.0,0.0,0.0,0.0,9.884925,2.2445812,-54.602776,0.011454491,-0.053106733,-0.011689531,521007.16,0.0,0.018715177,0.042433817,4692.0776,4467.758,6595.342,5975.5605,0.3233919,0.0,0.0,0.0
173.23126,173.23126,2.333,0.0,0.0,193.11876,9702.0,0.0,100.0,2.1531496,0.0,5.0,0.0,0.0,4000000.0,110.0,1.0,0.0,0.0,10.0,0.0,0.0,-340.5247,-11.756204,39.571198,-0.3694687,-3.8333333,0.07306677,184.42514,183.66473,184.8668,181.87866,635.0,634.0,698.0,697.0,89.0,89.0,89.0,89.0,0.0,0.0,0.0,0.0,0.023675194,0.023193022,0.050972957,0.049137425,0.0,0.0,0.0,0.0,-359.70438,67.81299,-300.23303,-553.4604,0.0,0.0,0.0,2.0,1.0,2.957738,0.01039051,-0.03211963,89.0,89.0,89.0,89.0,21.02244,21.02244,23.278507,23.278507,-0.045748092,-0.047330715,-0.043529153,-0.05565644,900.88635,0.0,0.0,0.0,0.0,0.0,0.0,0.0,0.0,0.0,0.0,0.0,0.0,0.0,9.697288,2.2299736,-52.71318,0.035788078,-0.08342212,-0.011690589,493044.1,0.0,0.017632326,0.043120697,4445.2197,4154.605,6638.8887,5732.5986,0.32552147,0.0,0.0,0.0
176.093,176.093,2.383,0.0,0.0,186.30998,9358.0,0.0,100.0,4.0521283,0.0,5.0,0.0,0.0,4000000.0,110.0,1.0,0.0,0.0,10.0,0.0,0.0,-340.0429,-11.644571,36.986046,-0.61819535,-3.7740796,0.1453857,178.23598,176.80833,178.48749,172.36365,650.0,649.0,713.0,712.0,89.0,89.0,89.0,89.0,0.0,0.0,0.0,0.0,0.02370504,0.022931328,0.0513056,0.048185404,0.0,0.0,0.0,0.0,14.061469,-2017.3828,-618.9197,-2829.2473,0.0,0.0,0.0,2.0,1.0,2.9520485,0.01053957,-0.033521056,89.0,89.0,89.0,89.0,21.02244,21.02244,23.278507,23.278507,-0.04500843,-0.04838814,-0.043347422,-0.06859391,815.5771,0.0,0.0,0.0,0.0,0.0,0.0,0.0,0.0,0.0,0.0,0.0,0.0,0.0,9.599606,2.241263,-50.805256,0.017350366,-0.14275786,0.0058035376,462763.38,0.0,0.01994966,0.043126695,4712.248,4062.0742,6691.1714,5117.579,0.32561493,0.0,0.0,0.0
178.95146,178.95146,2.433,0.0,0.0,182.0902,9316.0,0.0,100.0,6.408263,0.0,5.0,0.0,0.0,4000000.0,110.0,1.0,0.0,0.0,10.0,0.0,0.0,-339.56003,-11.53983,34.47937,-1.0315669,-2.2287784,-0.19304788,177.47112,176.56226,177.9822,176.61232,665.0,664.0,727.0,726.0,89.0,89.0,89.0,89.0,0.0,0.0,0.0,0.0,0.022874743,0.020247081,0.049585063,0.044555366,0.0,0.0,0.0,0.0,6486.432,3428.7212,1512.6316,-325.33835,0.0,0.0,0.0,2.0,1.0,2.9432876,0.009324584,-0.03398049,89.0,89.0,89.0,89.0,21.02244,21.02244,23.278507,23.278507,-0.027470067,-0.02633461,-0.023505582,-0.021914683,804.53033,0.0,0.0,0.0,0.0,0.0,0.0,0.0,0.0,0.0,0.0,0.0,0.0,0.0,9.773413,2.0114372,-49.586617,0.01262015,-0.21717659,0.042642027,458553.44,0.0,0.016760273,0.038556952,4758.829,3467.6387,5846.2334,3553.0981,0.32074928,0.0,0.0,0.0
181.69736,181.69736,2.483,0.0,0.0,177.34569,9096.0,0.0,100.0,8.385881,0.0,5.0,0.0,0.0,4000000.0,110.0,1.0,0.0,0.0,10.0,0.0,0.0,-339.06525,-11.4428835,32.037193,-1.2034919,-2.4875312,-0.121562295,175.11426,174.23973,175.85886,175.87276,679.0,678.0,740.0,739.0,89.0,89.0,89.0,89.0,0.0,0.0,0.0,0.0,0.025274323,0.021109,0.04926563,0.043975215,0.0,0.0,0.0,0.0,-1318.9695,-84.93209,-978.0942,1808.0366,0.0,0.0,0.0,2.0,1.0,2.9313047,0.010605869,-0.030766487,89.0,89.0,89.0,89.0,21.02244,21.02244,23.278507,23.278507,-0.015764806,-0.013158938,-0.008085267,-0.027317952,746.83496,0.0,0.0,0.0,0.0,0.0,0.0,0.0,0.0,0.0,0.0,0.0,0.0,0.0,10.027068,1.8833512,-48.19464,-0.111480236,-0.27740282,-0.063338526,435964.56,0.0,0.019458648,0.035144173,4920.4146,3465.948,5600.7334,3295.545,0.30910683,0.0,0.0,0.0
184.21649,184.21649,2.533,0.0,0.0,173.6409,10204.0,0.0,100.0,10.530275,0.0,4.0,0.0,0.0,4000000.0,110.0,1.0,0.0,0.0,10.0,0.0,0.0,-338.55145,-11.353909,29.65515,-1.367274,-2.4673548,-0.48651555,168.86923,164.58327,165.76262,157.7332,692.0,691.0,752.0,750.0,89.0,89.0,89.0,89.0,0.0,0.0,0.0,0.0,0.02506606,0.016879229,0.048231725,0.04282371,0.0,0.0,0.0,0.0,-152.68466,-1599.2137,1368.597,733.9596,0.0,0.0,0.0,2.0,1.0,2.9157522,0.008730304,-0.022564411,89.0,89.0,89.0,89.0,21.02244,21.02244,23.278507,23.278507,-0.029288579,-0.041171618,-0.04530998,-0.071641214,1011.5382,0.0,0.0,0.0,0.0,0.0,0.0,0.0,0.0,0.0,0.0,0.0,0.0,0.0,10.470542,1.6571002,-47.054226,-0.20327659,-0.32917082,-0.028647449,526367.25,0.0,0.027392652,0.045286875,4716.259,1804.4236,4821.289,2533.5122,0.31938648,0.0,0.0,0.0
186.52316,186.52316,2.583,0.0,0.0,169.54735,9782.0,0.0,100.0,13.794213,0.0,4.0,0.0,0.0,4000000.0,110.0,1.0,0.0,0.0,10.0,0.0,0.0,-338.0179,-11.280536,27.336037,-1.5081551,-2.149822,-0.8229152,162.24129,159.35062,164.97249,156.51744,704.0,702.0,764.0,761.0,89.0,89.0,89.0,89.0,0.0,0.0,0.0,0.0,0.0183664,0.009164414,0.047619905,0.04333508,0.0,0.0,0.0,0.0,3463.2346,2879.7563,71.46743,-4063.6401,0.0,0.0,0.0,2.0,1.0,2.8956244,0.007005239,-0.015322328,89.0,89.0,89.0,89.0,21.02244,21.02244,23.278507,23.278507,-0.052631315,-0.04794046,-0.03004272,-0.05779908,919.8509,0.0,0.0,0.0,0.0,0.0,0.0,0.0,0.0,0.0,0.0,0.0,0.0,0.0,10.878229,1.2769837,-45.805157,-0.09683298,-0.49095368,0.077648684,499306.0,0.0,0.0321767,0.05697249,3402.1492,559.3234,4583.3843,2551.525,0.32991695,0.0,0.0,0.0
188.76692,188.76692,2.633,0.0,0.0,164.9859,9487.0,0.0,100.0,17.784931,0.0,4.0,0.0,0.0,4000000.0,110.0,1.0,0.0,0.0,10.0,0.0,0.0,-337.45978,-11.224577,25.08249,-2.2094018,-2.71194,-0.2611058,159.72916,151.27902,159.7368,151.1384,715.0,713.0,774.0,771.0,89.0,89.0,89.0,89.0,0.0,0.0,0.0,0.0,0.020151079,0.007490725,0.049576078,0.04291465,0.0,0.0,0.0,0.0,3531.7915,1450.1311,1683.153,-83.02777,0.0,0.0,0.0,2.0,1.0,2.8683689,5.177332E-4,-0.012872338,89.0,89.0,89.0,89.0,21.02244,21.02244,23.278507,23.278507,-0.043919344,-0.06464798,-0.036745615,-0.062409908,850.4984,0.0,0.0,0.0,0.0,0.0,0.0,0.0,0.0,0.0,0.0,0.0,0.0,0.0,11.465352,1.0277599,-44.360172,-0.076095864,-0.6096847,0.17463392,476016.06,0.0,0.029600445,0.055456616,5267.635,1070.7289,6062.2197,3021.6943,0.33596897,0.0,0.0,0.0
190.93558,190.93558,2.683,0.0,0.0,160.2023,9350.0,0.0,100.0,21.61555,0.0,4.0,0.0,0.0,4000000.0,110.0,1.0,0.0,0.0,10.0,0.0,0.0,-336.86646,-11.174548,22.906767,-2.7008967,-2.5015361,-0.015061218,155.22467,152.36667,156.91939,146.98938,725.0,723.0,784.0,780.0,89.0,89.0,89.0,89.0,0.0,0.0,0.0,0.0,0.02545162,0.007566395,0.051757403,0.042217337,0.0,0.0,0.0,0.0,-767.31305,3269.4265,-1729.5283,-208.08574,0.0,0.0,0.0,2.0,1.0,2.83477,-0.0072177355,-0.013753295,89.0,89.0,89.0,89.0,21.02244,21.02244,23.278507,23.278507,-0.04146688,-0.036214948,-0.025533384,-0.06602474,813.4589,0.0,0.0,0.0,0.0,0.0,0.0,0.0,0.0,0.0,0.0,0.0,0.0,0.0,12.260683,0.9877785,-42.766888,0.007866081,-0.71151316,0.10898549,461956.44,0.0,0.02804527,0.052493323,6331.592,1146.6807,6903.9873,2564.9106,0.3313656,0.0,0.0,0.0
193.02753,193.02753,2.733,0.0,0.0,155.85658,9180.0,0.0,100.0,25.421215,0.0,4.0,0.0,0.0,4000000.0,110.0,1.0,0.0,0.0,10.0,0.0,0.0,-336.2289,-11.124719,20.81057,-3.0415368,-2.1041548,0.04063077,152.26741,149.64581,152.94568,146.55515,735.0,733.0,793.0,789.0,89.0,89.0,89.0,89.0,0.0,0.0,0.0,0.0,0.027816918,0.009833671,0.05177995,0.04119376,0.0,0.0,0.0,0.0,2541.6206,-1956.5203,2265.7688,-2521.2493,0.0,0.0,0.0,2.0,1.0,2.7986917,-0.013060908,-0.0149770975,89.0,89.0,89.0,89.0,21.02244,21.02244,23.278507,23.278507,-0.03374964,-0.025535004,-0.024277473,-0.033951815,768.6888,0.0,0.0,0.0,0.0,0.0,0.0,0.0,0.0,0.0,0.0,0.0,0.0,0.0,13.228179,1.0065418,-41.210785,-0.036756497,-0.74459827,0.15104303,444615.78,0.0,0.026758987,0.048595868,6942.4194,1097.741,6886.078,2036.4939,0.33222198,0.0,0.0,0.0
195.03789,195.03789,2.783,0.0,0.0,151.76817,8930.0,0.0,100.0,28.376627,0.0,4.0,0.0,0.0,4000000.0,110.0,1.0,0.0,0.0,10.0,0.0,0.0,-335.54245,-11.074014,18.790709,-2.9857268,-1.9878607,-0.035192586,148.27072,145.71999,148.9834,140.88557,744.0,741.0,801.0,797.0,89.0,89.0,89.0,89.0,0.0,0.0,0.0,0.0,0.02755494,0.009155427,0.052177925,0.04015942,0.0,0.0,0.0,0.0,-1502.1575,1972.2046,-1607.4343,-359.46967,0.0,0.0,0.0,2.0,1.0,2.7610765,-0.016730485,-0.015468597,89.0,89.0,89.0,89.0,21.02244,21.02244,23.278507,23.278507,-0.034723006,-0.025165992,-0.021900414,-0.050990134,705.7544,0.0,0.0,0.0,0.0,0.0,0.0,0.0,0.0,0.0,0.0,0.0,0.0,0.0,14.181597,1.014318,-39.68798,0.0048980974,-0.7656573,0.017434381,419642.2,0.0,0.027698256,0.049574263,6377.148,1005.047,7024.3896,1607.615,0.3302269,0.0,0.0,0.0
196.97935,196.97935,2.833,0.0,0.0,147.80128,9520.0,0.0,100.0,31.453186,0.0,4.0,0.0,0.0,4000000.0,110.0,1.0,0.0,0.0,10.0,0.0,0.0,-334.809,-11.023618,16.8469,-3.0248098,-1.9509026,-0.045916967,144.72485,142.4639,143.95662,136.12576,753.0,750.0,809.0,804.0,89.0,89.0,89.0,89.0,0.0,0.0,0.0,0.0,0.026350588,0.009216846,0.051367614,0.040404532,0.0,0.0,0.0,0.0,-747.203,354.96683,-281.51126,-53.456436,0.0,0.0,0.0,2.0,1.0,2.7232533,-0.017637212,-0.015172362,89.0,89.0,89.0,89.0,21.02244,21.02244,23.278507,23.278507,-0.030905925,-0.018878354,-0.026577948,-0.054405775,858.6341,0.0,0.0,0.0,0.0,0.0,0.0,0.0,0.0,0.0,0.0,0.0,0.0,0.0,15.110039,1.0027226,-38.161095,-0.035517734,-0.76978153,0.06231714,478903.7,0.0,0.02882376,0.050471786,6090.976,925.34326,6627.123,1852.0863,0.3316059,0.0,0.0,0.0
198.8561,198.8561,2.883,0.0,0.0,143.96733,9992.0,0.0,100.0,32.848392,0.0,3.0,0.0,0.0,4000000.0,110.0,1.0,0.0,0.0,10.0,0.0,0.0,-334.03146,-10.974276,14.979317,-2.807044,-1.8179697,-0.17628065,142.38379,135.20213,139.18202,131.95308,761.0,758.0,817.0,811.0,89.0,89.0,89.0,89.0,0.0,0.0,0.0,0.0,0.025808737,0.006709207,0.050422765,0.040426377,0.0,0.0,0.0,0.0,-316.4202,16.307829,-991.3174,-23.415668,0.0,0.0,0.0,2.0,1.0,2.6851676,-0.020326274,-0.014517546,89.0,89.0,89.0,89.0,21.02244,21.02244,23.278507,23.278507,-0.02539131,-0.03588138,-0.03133777,-0.05512374,970.3617,0.0,0.0,0.0,0.0,0.0,0.0,0.0,0.0,0.0,0.0,0.0,0.0,0.0,15.940955,0.9595288,-36.66387,-0.025386175,-0.77273667,0.030132525,515653.8,0.0,0.03196229,0.052827682,6070.464,320.50543,5973.1523,1702.2307,0.33629704,0.0,0.0,0.0
200.67293,200.67293,2.933,0.0,0.0,140.2489,9629.0,0.0,100.0,33.827965,0.0,3.0,0.0,0.0,4000000.0,110.0,1.0,0.0,0.0,10.0,0.0,0.0,-333.2155,-10.929452,13.183467,-2.8203764,-2.0647454,-0.13535814,137.65903,129.74454,134.02586,124.87885,768.0,765.0,823.0,817.0,89.0,89.0,89.0,89.0,0.0,0.0,0.0,0.0,0.023963107,0.005979703,0.049980845,0.04035778,0.0,0.0,0.0,0.0,198.35608,70.47337,2110.9385,869.8805,0.0,0.0,0.0,2.0,1.0,2.6481698,-0.020928932,-0.013091683,89.0,89.0,89.0,89.0,21.02244,21.02244,23.278507,23.278507,-0.033331215,-0.049191304,-0.04127537,-0.07510123,883.8323,0.0,0.0,0.0,0.0,0.0,0.0,0.0,0.0,0.0,0.0,0.0,0.0,0.0,16.662586,0.8609217,-35.20433,-0.06172165,-0.7370324,0.04358568,487377.72,0.0,0.029556137,0.054227404,5749.2725,509.37793,6071.633,1858.0154,0.33562374,0.0,0.0,0.0
202.42365,202.42365,2.983,0.0,0.0,136.19145,9264.0,0.0,92.57936,35.299458,0.0,3.0,0.0,0.0,4000000.0,110.0,1.0,0.0,0.0,10.0,0.0,0.0,-332.36368,-10.886428,11.465773,-2.88272,-2.0929494,-0.045472436,133.46924,123.30339,129.94756,118.04594,775.0,771.0,829.0,823.0,89.0,89.0,89.0,89.0,0.0,0.0,0.0,0.0,0.023218919,0.00482545,0.051597677,0.04051308,0.0,0.0,0.0,0.0,759.01807,-767.8693,-919.12585,388.5582,0.0,0.0,0.0,2.0,1.0,2.6095588,-0.025136799,-0.013199568,89.0,89.0,89.0,89.0,21.02244,21.02244,23.278507,23.278507,-0.032807913,-0.06970701,-0.04296815,-0.09026709,790.65735,0.0,0.0,0.0,0.0,0.0,0.0,0.0,0.0,0.0,0.0,0.0,0.0,0.0,17.371494,0.8620309,-33.595676,-0.0137564875,-0.8055076,0.09106049,453175.88,0.0,0.025457183,0.054173127,5919.9546,324.581,6575.8613,1840.4968,0.33441544,0.0,0.0,0.0
204.13557,204.13557,3.033,0.0,0.0,132.46371,9137.0,0.0,73.43787,36.48956,0.0,3.0,0.0,0.0,4000000.0,110.0,1.0,0.0,0.0,10.0,0.0,0.0,-331.4773,-10.844024,9.8264885,-2.8183055,-1.9694743,-0.0881461,130.23743,126.14094,128.76414,115.3408,780.0,776.0,834.0,827.0,89.0,89.0,89.0,89.0,0.0,0.0,0.0,0.0,0.02258945,0.004055988,0.05163773,0.040480528,0.0,0.0,0.0,0.0,-782.0717,-96.19574,1175.9474,1158.7275,0.0,0.0,0.0,2.0,1.0,2.570934,-0.026551947,-0.014030576,89.0,89.0,89.0,89.0,21.02244,21.02244,23.278507,23.278507,-0.034761187,-0.04178512,-0.036520164,-0.10548752,757.5653,0.0,0.0,0.0,0.0,0.0,0.0,0.0,0.0,0.0,0.0,0.0,0.0,0.0,18.041277,0.83670187,-32.05806,-0.0053348877,-0.7338515,-0.008790946,440244.03,0.0,0.023448018,0.052469723,6076.298,600.58344,6066.6694,1267.6714,0.33115387,0.0,0.0,0.0
205.8822,205.8822,3.083,0.0,0.0,128.67935,8962.0,0.0,57.40245,37.466206,0.0,3.0,0.0,0.0,4000000.0,110.0,1.0,0.0,0.0,10.0,0.0,0.0,-330.5548,-10.799305,8.267382,-3.1987748,-1.9292319,0.29333472,127.503136,121.9925,125.97161,115.11384,784.0,780.0,836.0,829.0,89.0,89.0,89.0,89.0,0.0,0.0,0.0,0.0,0.023530984,0.0036037625,0.055212785,0.041494016,0.0,0.0,0.0,0.0,-2497.002,-8772.86,-1610.6665,-6111.372,0.0,0.0,0.0,2.0,1.0,2.5329664,-0.03120645,-0.0145225525,89.0,89.0,89.0,89.0,21.02244,21.02244,23.278507,23.278507,-0.029842472,-0.023169713,-0.021455785,-0.063690886,713.3436,0.0,0.0,0.0,0.0,0.0,0.0,0.0,0.0,0.0,0.0,0.0,0.0,0.0,18.818815,0.98247606,-30.373335,-0.019945469,-0.8032242,0.1184928,422640.25,0.0,0.024356773,0.051846683,6553.492,321.28033,7702.6123,1820.2551,0.3313694,0.0,0.0,0.0
207.61806,207.61806,3.133,0.0,0.0,126.13489,8870.0,0.0,38.235413,37.52158,0.0,3.0,0.0,0.0,4000000.0,110.0,1.0,0.0,0.0,10.0,0.0,0.0,-329.59705,-10.751854,6.7833667,-2.347898,-1.074008,-0.413043,124.979805,123.45293,124.64644,109.95049,786.0,782.0,838.0,830.0,89.0,89.0,89.0,89.0,0.0,0.0,0.0,0.0,0.018726332,0.0029102438,0.051159088,0.040529445,0.0,0.0,0.0,0.0,-2276.8325,2089.235,1442.0626,1141.7493,0.0,0.0,0.0,2.0,1.0,2.4979603,-0.026283767,-0.0146359205,89.0,89.0,89.0,89.0,21.02244,21.02244,23.278507,23.278507,-0.02095377,-0.007355214,-0.00875074,-0.10502586,691.6404,0.0,0.0,0.0,0.0,0.0,0.0,0.0,0.0,0.0,0.0,0.0,0.0,0.0,19.449383,0.8778836,-29.130312,0.052094154,-0.587859,-0.17115313,414031.84,0.0,0.035637826,0.05705419,5028.661,988.2844,4603.9814,0.0,0.3372612,0.0,0.0,0.0
209.36996,209.36996,3.183,0.0,0.0,124.21855,8803.0,0.0,13.034257,38.69577,0.0,3.0,0.0,0.0,4000000.0,110.0,1.0,0.0,0.0,10.0,0.0,0.0,-328.60822,-10.712755,5.3551626,-2.4613256,-0.92606616,-0.3233968,123.846634,122.65897,123.16368,109.95049,785.0,782.0,837.0,830.0,89.0,89.0,89.0,89.0,0.0,0.0,0.0,0.0,0.011866216,0.0026570524,0.052807126,0.040451284,0.0,0.0,0.0,0.0,929.0904,-145.61542,4268.212,-500.82202,0.0,0.0,0.0,2.0,1.0,2.4733326,-0.02049193,-0.009119511,89.0,89.0,89.0,89.0,21.02244,21.02244,23.278507,23.278507,-0.01165903,-0.0022863382,-0.0017267355,-0.09398333,676.02216,0.0,0.0,0.0,0.0,0.0,0.0,0.0,0.0,0.0,0.0,0.0,0.0,0.0,20.083897,0.7088873,-28.04889,-0.05650916,-0.4367635,-0.13245791,407762.47,0.0,0.03773901,0.06303078,4327.8745,1260.4147,5549.105,0.0,0.34239388,0.0,0.0,0.0
211.26065,211.26065,3.233,0.0,0.0,122.22857,8754.0,4.4205384,0.6901087,37.831562,0.0,3.0,0.0,0.0,4000000.0,110.0,1.0,0.0,0.0,10.0,0.0,0.0,-327.58475,-10.677781,3.9851897,-2.852248,-0.9049685,0.02086564,123.001236,121.7553,122.392746,115.67333,784.0,780.0,836.0,828.0,89.0,89.0,89.0,89.0,0.0,0.0,0.0,0.0,0.00869418,0.0013449993,0.057371277,0.04153973,0.0,0.0,0.0,0.0,4569.4404,-374.78665,3214.6938,-12598.013,0.0,0.0,0.0,2.0,1.0,2.4481184,-0.019361943,-0.0066030025,89.0,89.0,89.0,89.0,21.02244,21.02244,23.278507,23.278507,-0.006618846,0.008722339,2.1580284E-4,-0.03698418,664.65424,0.0,0.0,0.0,0.0,0.0,0.0,0.0,0.0,0.0,0.0,0.0,0.0,0.0,20.83474,0.71993273,-26.798498,0.039389182,-0.5824349,0.015686432,403149.62,0.0,0.03311525,0.06655817,4841.3145,1289.0488,7577.2295,344.74725,0.34882545,0.0,0.0,0.0
213.86993,213.86993,3.283,0.0,0.0,121.06496,8820.0,17.57229,0.0,35.47887,0.0,3.0,0.0,0.0,4000000.0,110.0,1.0,0.0,0.0,10.0,0.0,0.0,-326.5255,-10.645262,2.6713634,-2.5098948,-0.47453153,-0.20373635,123.38991,122.072014,121.73276,118.77819,782.0,778.0,834.0,826.0,89.0,89.0,89.0,89.0,0.0,0.0,0.0,0.0,0.012174114,-0.0026143356,0.053404044,0.042456906,0.0,0.0,0.0,0.0,5500.8677,-4378.9175,10753.443,-789.2937,0.0,0.0,0.0,2.0,1.0,2.4162314,-0.02602432,-0.010276198,89.0,89.0,89.0,89.0,21.02244,21.02244,23.278507,23.278507,0.003393254,0.023561867,2.2121363E-4,0.0038259036,679.9686,0.0,0.0,0.0,0.0,0.0,0.0,0.0,0.0,0.0,0.0,0.0,0.0,0.0,21.537758,0.5967209,-25.82032,-0.048108835,-0.63255364,0.16056901,409352.38,0.0,0.030592764,0.06378431,5525.5635,730.0719,5609.7417,392.2413,0.3448162,0.0,0.0,0.0
216.78879,216.78879,3.333,0.0,0.0,120.38768,8949.0,30.838484,0.0,34.617928,0.0,3.0,0.0,0.0,4000000.0,110.0,1.0,0.0,0.0,10.0,0.0,0.0,-325.4265,-10.615195,1.4063132,-2.8110883,-0.2696638,0.15355168,123.46319,124.711975,121.508156,117.95472,780.0,776.0,832.0,825.0,89.0,89.0,89.0,89.0,0.0,0.0,0.0,0.0,0.01732312,-2.2522418E-4,0.0543229,0.04306462,0.0,0.0,0.0,0.0,-2927.0273,1629.6802,-2417.743,6738.848,0.0,0.0,0.0,2.0,1.0,2.3836536,-0.022801073,-0.01418817,89.0,89.0,89.0,89.0,21.02244,21.02244,23.278507,23.278507,0.008356212,0.04980355,-5.251721E-4,0.0038833027,710.2527,0.0,0.0,0.0,0.0,0.0,0.0,0.0,0.0,0.0,0.0,0.0,0.0,0.0,22.398426,0.62866354,-24.823725,0.16916907,-0.7105131,-0.026798546,421420.25,0.0,0.023618136,0.056539916,6078.49,762.2539,6178.291,1218.0234,0.33155918,0.0,0.0,0.0
220.10687,220.10687,3.383,0.0,0.0,120.2635,9016.0,44.670788,0.0,33.613842,0.0,3.0,0.0,0.0,4000000.0,110.0,1.0,0.0,0.0,10.0,0.0,0.0,-324.27768,-10.577523,0.1935344,-3.2295165,0.09390688,0.59999996,123.82947,125.85306,121.895325,117.50388,778.0,774.0,831.0,823.0,89.0,89.0,89.0,89.0,0.0,0.0,0.0,0.0,0.02854089,0.010333916,0.053506266,0.04516048,0.0,0.0,0.0,0.0,2804.0276,4249.507,-1181.4861,2107.8806,0.0,0.0,0.0,2.0,1.0,2.3470929,-0.033901226,-0.018832803,89.0,89.0,89.0,89.0,21.02244,21.02244,23.278507,23.278507,0.017102638,0.045327075,-5.770908E-4,-2.3531192E-4,726.4668,0.0,0.0,0.0,0.0,0.0,0.0,0.0,0.0,0.0,0.0,0.0,0.0,0.0,23.480852,0.89986,-23.745228,-0.2818892,-0.8151398,0.39656267,427837.53,0.0,0.017705694,0.043549027,8026.0713,2498.4792,5962.4995,2157.625,0.29520035,0.0,0.0,0.0
223.18478,223.18478,3.433,0.0,0.0,120.65609,9139.0,53.400475,0.0,33.43712,0.0,3.0,0.0,0.0,4000000.0,110.0,1.0,0.0,0.0,10.0,0.0,0.0,-323.07883,-10.527917,-0.97127527,-2.5829484,0.37963068,0.21741506,125.62252,124.38146,121.95372,117.59718,776.0,772.0,829.0,821.0,89.0,89.0,89.0,89.0,0.0,0.0,0.0,0.0,0.034851626,0.010074616,0.05301791,0.042245686,0.0,0.0,0.0,0.0,1273.5931,-12263.055,9618.762,-9628.017,0.0,0.0,0.0,2.0,1.0,2.3086848,-0.04453922,-0.01834166,89.0,89.0,89.0,89.0,21.02244,21.02244,23.278507,23.278507,0.01950609,0.06003947,-1.13628055E-4,-0.0027626627,758.0664,0.0,0.0,0.0,0.0,0.0,0.0,0.0,0.0,0.0,0.0,0.0,0.0,0.0,24.437796,1.0802478,-22.911163,-0.09922959,-0.7075122,-0.056632996,440438.8,0.0,0.02579435,0.035155047,8369.919,2793.4683,5305.4995,0.0,0.31901455,0.0,0.0,0.0
225.89682,225.89682,3.483,0.0,0.0,120.541145,9195.0,66.09903,0.0,33.02759,0.0,3.0,0.0,0.0,4000000.0,110.0,1.0,0.0,0.0,10.0,0.0,0.0,-321.84006,-10.476987,-2.0985649,-1.3466575,-0.15686798,-0.9232254,125.088394,130.75885,121.97568,117.62035,774.0,770.0,827.0,820.0,89.0,89.0,89.0,89.0,0.0,0.0,0.0,0.0,0.018835828,-1.3876474E-4,0.04917503,0.042678103,0.0,0.0,0.0,0.0,-2933.6113,-1013.6874,-602.156,374.89227,0.0,0.0,0.0,2.0,1.0,2.2711399,-0.03425091,-0.011370897,89.0,89.0,89.0,89.0,21.02244,21.02244,23.278507,23.278507,0.01869427,0.10199946,4.7823874E-4,-0.0011596588,772.6466,0.0,0.0,0.0,0.0,0.0,0.0,0.0,0.0,0.0,0.0,0.0,0.0,0.0,24.99636,0.8564668,-22.262152,0.16909173,-0.76161087,-0.3287886,446175.97,0.0,0.037227195,0.060806017,3150.6885,0.0,2666.579,0.0,0.33977222,0.0,0.0,0.0
228.18219,228.18219,3.533,0.0,0.0,120.22101,9165.0,80.27161,0.0,33.71527,0.0,3.0,0.0,0.0,4000000.0,110.0,1.0,0.0,0.0,10.0,0.0,0.0,-320.57642,-10.442885,-3.1935828,-2.093875,-0.14721507,-0.45182565,124.68015,130.13776,121.72817,117.19707,772.0,768.0,825.0,818.0,89.0,89.0,89.0,89.0,0.0,0.0,0.0,0.0,0.009495401,-0.0037184877,0.050910547,0.04266631,0.0,0.0,0.0,0.0,7079.2305,6111.681,5189.9126,-3282.7957,0.0,0.0,0.0,2.0,1.0,2.2296338,-0.031934578,-0.007170081,89.0,89.0,89.0,89.0,21.02244,21.02244,23.278507,23.278507,0.017632872,0.10023883,1.9703119E-5,0.0025911015,764.6722,0.0,0.0,0.0,0.0,0.0,0.0,0.0,0.0,0.0,0.0,0.0,0.0,0.0,25.528168,0.56579834,-21.522085,-0.097438216,-0.8851759,0.02986364,443016.44,0.0,0.03679276,0.06762961,4201.4805,543.76385,4136.8535,698.51,0.3483467,0.0,0.0,0.0
229.85039,229.85039,3.583,0.0,0.0,119.85772,9041.0,93.53628,0.0,32.57822,0.0,3.0,0.0,0.0,4000000.0,110.0,1.0,0.0,0.0,10.0,0.0,0.0,-319.28314,-10.417539,-4.2433987,-2.934,0.22052467,0.064366385,125.38326,127.15211,121.23726,116.55611,770.0,767.0,824.0,816.0,89.0,89.0,89.0,89.0,0.0,0.0,0.0,0.0,0.011978945,0.0046920897,0.05451882,0.04134669,0.0,0.0,0.0,0.0,3106.514,31658.951,3086.3909,-5310.451,0.0,0.0,0.0,2.0,1.0,2.1839554,-0.03317432,-0.008246779,89.0,89.0,89.0,89.0,21.02244,21.02244,23.278507,23.278507,0.028846132,0.07973992,6.508117E-5,0.002167917,732.8242,0.0,0.0,0.0,0.0,0.0,0.0,0.0,0.0,0.0,0.0,0.0,0.0,0.0,26.241564,0.5174867,-20.483904,-0.044297013,-0.88189644,0.08783912,430388.2,0.0,0.032849133,0.059482064,5745.212,2972.3728,6059.314,0.0,0.34554482,0.0,0.0,0.0
231.49481,231.49481,3.633,0.0,0.0,119.75996,9082.0,100.0,0.0,29.296606,0.0,3.0,0.0,0.0,4000000.0,110.0,1.0,0.0,0.0,10.0,0.0,0.0,-317.9498,-10.388298,-5.238123,-3.0735495,0.15762186,0.261652,125.72789,127.942184,121.152626,116.55611,768.0,765.0,822.0,814.0,89.0,89.0,89.0,89.0,0.0,0.0,0.0,0.0,0.019607265,0.0066617047,0.056226883,0.040873718,0.0,0.0,0.0,0.0,1155.7067,13117.864,2092.4714,-441.10266,0.0,0.0,0.0,2.0,1.0,2.1403115,-0.035604157,-0.0116842985,89.0,89.0,89.0,89.0,21.02244,21.02244,23.278507,23.278507,0.02847426,0.08854908,4.99201E-6,0.0013102404,743.2713,0.0,0.0,0.0,0.0,0.0,0.0,0.0,0.0,0.0,0.0,0.0,0.0,0.0,27.05522,0.6511324,-19.345839,0.08055972,-0.84085226,0.05958042,434553.12,0.0,0.030145325,0.05547175,6468.2275,2434.5825,7206.2476,0.0,0.34051895,0.0,0.0,0.0
