LapDistance [m],TotalDistance [m],LapTime [s],Sector1Time [s],Sector2Time [s],Speed [km/h],EngineRevs [rpm],ThrottlePercentage [%],BrakePercentage [%],Steer [%],Clutch [%],Gear [int],DRS [0/1],CanUseDRS [0/1],KERSLevel [J],EngineTemperature [C],RacePosition [int],Sector [int],InPits [int],FuelRemaining [kg],CurrentFlag [int],CurrentLapInvalid [int],X [m],Y [m],Z [m],GForceLatitudinal [G],GForceLongitudinal [G],GForceVertical [G],WheelSpeedRearLeft [km/h],WheelSpeedRearRight [km/h],WheelSpeedFrontLeft [km/h],WheelSpeedFrontRight [km/h],BrakeTemperatureRearLeft [C],BrakeTemperatureRearRight [C],BrakeTemperatureFrontLeft [C],BrakeTemperatureFrontRight [C],TyreTemperatureRearLeft [C],TyreTemperatureRearRight [C],TyreTemperatureFrontLeft [C],TyreTemperatureFrontRight [C],TyreWearRearLeft [%],TyreWearRearRight [%],TyreWearFrontLeft [%],TyreWearFrontRight [%],SuspensionPositionRearLeft [m],SuspensionPositionRearRight [m],SuspensionPositionFrontLeft [m],SuspensionPositionFrontRight [m],SuspensionVelocityRearLeft [m/s],SuspensionVelocityRearRight [m/s],SuspensionVelocityFrontLeft [m/s],SuspensionVelocityFrontRight [m/s],SuspensionAccelerationRearLeft [m/s^2],SuspensionAccelerationRearRight [m/s^2],SuspensionAccelerationFrontLeft [m/s^2],SuspensionAccelerationFrontRight [m/s^2],MGUKHarvested [J],MGUHHarvested [J],ERSSpent [J],ERSMode [int],FuelMixMode [int],Yaw [rad],Roll [rad],Pitch [rad],TyreCarcassTemperatureRearLeft [C],TyreCarcassTemperatureRearRight [C],TyreCarcassTemperatureFrontLeft [C],TyreCarcassTemperatureFrontRight [C],TyrePressureRearLeft [PSI],TyrePressureRearRight [PSI],TyrePressureFrontLeft [PSI],TyrePressureFrontRight [PSI],WheelSlipRearLeft [%],WheelSlipRearRight [%],WheelSlipFrontLeft [%],WheelSlipFrontRight [%],Torque [Nm],Handbrake [%],RearLeftInside [C],RearLeftMiddle [C],RearLeftOutside [C],RearRightInside [C],RearRightMiddle [C],RearRightOutside [C],FrontLeftInside [C],FrontLeftMiddle [C],FrontLeftOutside [C],FrontRightInside [C],FrontRightMiddle [C],FrontRightOutside [C],WoldSpeedX [km/h],WoldSpeedY [km/h],WoldSpeedZ [km/h],LocalAngularVelocityX [rad/s],LocalAngularVelocityY [rad/s],LocalAngularVelocityZ [rad/s],IcePower [W],MgukPower [W],FrontRideHeight [m],RearRideHeight [m],LoadRearLeft [N],LoadRearRight [N],LoadFrontLeft [N],LoadFrontRight [N],Extra1 [m],Extra2 [],Extra3 [],Extra4 []
1.6791202,1.6791202,0.033,0.0,0.0,265.84146,10955.0,100.0,0.0,1.9583719,0.0,7.0,1.0,0.0,4000000.0,110.0,1.0,0.0,0.0,10.0,0.0,0.0,-351.14502,-13.773104,209.57152,-0.8674885,0.46719155,-0.10216294,272.14917,272.23047,266.03647,265.3082,263.0,262.0,344.0,344.0,89.0,89.0,89.0,89.0,0.0,0.0,0.0,0.0,0.036770526,0.032159448,0.053298447,0.049672924,0.0,0.0,0.0,0.0,-1072.1326,-616.0765,-237.14749,6.209335,0.0,0.0,0.0,2.0,1.0,-3.0506783,0.011398512,0.0042026043,89.0,89.0,89.0,89.0,21.02244,21.02244,23.278507,23.278507,0.022510193,0.02526716,-5.3806335E-4,-5.502974E-4,1132.4271,0.0,0.0,0.0,0.0,0.0,0.0,0.0,0.0,0.0,0.0,0.0,0.0,0.0,-7.257322,0.04358229,-73.48736,-0.022881802,-0.123543955,-3.6684587E-4,548876.8,119984.89,0.016797239,0.02725802,7012.519,5740.6055,6202.131,4574.004,0.3172884,0.0,0.0,0.0
5.377089,5.377089,0.083,0.0,0.0,266.65814,10990.0,100.0,0.0,1.8498453,0.0,7.0,1.0,0.0,4000000.0,110.0,1.0,0.0,0.0,10.0,0.0,0.0,-351.49716,-13.772881,205.89012,-0.87840325,0.4734161,-0.13054599,272.9842,273.13055,266.8407,266.13184,262.0,261.0,343.0,343.0,89.0,89.0,89.0,89.0,0.0,0.0,0.0,0.0,0.035520803,0.03083555,0.05318603,0.049574833,0.0,0.0,0.0,0.0,872.32135,786.9734,158.15643,88.80793,0.0,0.0,0.0,2.0,1.0,-3.0567794,0.011221082,0.0049153566,89.0,89.0,89.0,89.0,21.02244,21.02244,23.278507,23.278507,0.02264629,0.025594354,-5.377777E-4,-5.600875E-4,1137.3057,0.0,0.0,0.0,0.0,0.0,0.0,0.0,0.0,0.0,0.0,0.0,0.0,0.0,-6.851195,-0.029873194,-73.75417,-0.007973339,-0.119899824,0.008418955,549485.9,119984.9,0.017658666,0.028852442,7004.702,5673.0776,6221.6064,4571.253,0.31839275,0.0,0.0,0.0
9.086783,9.086783,0.133,0.0,0.0,267.47247,11017.0,100.0,0.0,1.8202255,0.0,7.0,1.0,0.0,4000000.0,110.0,1.0,0.0,0.0,10.0,0.0,0.0,-351.8288,-13.775606,202.19542,-0.8878439,0.46660793,-0.040492438,273.66943,273.80865,267.64368,266.95837,261.0,260.0,342.0,342.0,89.0,89.0,89.0,89.0,0.0,0.0,0.0,0.0,0.03598961,0.031072093,0.053430565,0.04973849,0.0,0.0,0.0,0.0,328.04752,464.0489,43.02263,81.525734,0.0,0.0,0.0,2.0,1.0,-3.0626702,0.010815958,0.005166054,89.0,89.0,89.0,89.0,21.02244,21.02244,23.278507,23.278507,0.022124998,0.024964135,-5.3631363E-4,-5.515342E-4,1140.494,0.0,0.0,0.0,0.0,0.0,0.0,0.0,0.0,0.0,0.0,0.0,0.0,0.0,-6.4369855,-0.069850184,-74.01851,4.4960593E-4,-0.11625343,0.007116001,549675.9,119984.89,0.017184412,0.028342692,7214.681,5852.6797,6444.8823,4759.5654,0.3182068,0.0,0.0,0.0
12.8080015,12.8080015,0.183,0.0,0.0,268.2747,11045.0,100.0,0.0,1.900975,0.0,7.0,1.0,0.0,4000000.0,110.0,1.0,0.0,0.0,10.0,0.0,0.0,-352.1396,-13.7794895,198.48764,-0.8961042,0.46121228,0.002400943,274.38843,274.49838,268.447,267.7583,260.0,259.0,341.0,341.0,89.0,89.0,89.0,89.0,0.0,0.0,0.0,0.0,0.036871284,0.03190713,0.053618446,0.049883746,0.0,0.0,0.0,0.0,276.79056,216.91016,259.4769,157.92844,0.0,0.0,0.0,2.0,1.0,-3.0685008,0.010436894,0.005022168,89.0,89.0,89.0,89.0,21.02244,21.02244,23.278507,23.278507,0.021734148,0.024472775,-5.393215E-4,-5.431711E-4,1143.4556,0.0,0.0,0.0,0.0,0.0,0.0,0.0,0.0,0.0,0.0,0.0,0.0,0.0,-6.016893,-0.082207486,-74.2774,0.004596207,-0.1173707,0.0075874915,549706.1,119984.9,0.016297549,0.026965426,7365.4795,6002.6562,6545.1406,4838.35,0.31710243,0.0,0.0,0.0
16.540487,16.540487,0.233,0.0,0.0,269.06635,11075.0,100.0,0.0,1.9701861,0.0,7.0,1.0,0.0,4000000.0,110.0,1.0,0.0,0.0,10.0,0.0,0.0,-352.42923,-13.783356,194.76706,-0.9039241,0.45327118,0.027796041,275.13055,275.20605,269.2463,268.54224,258.0,257.0,340.0,339.0,89.0,89.0,89.0,89.0,0.0,0.0,0.0,0.0,0.037808117,0.032790013,0.053769022,0.049982432,0.0,0.0,0.0,0.0,-393.25204,-284.67624,-311.18988,-179.42636,0.0,0.0,0.0,2.0,1.0,-3.0744312,0.010132333,0.0048029423,89.0,89.0,89.0,89.0,21.02244,21.02244,23.278507,23.278507,0.021436814,0.02408197,-5.390612E-4,-5.377221E-4,1146.6262,0.0,0.0,0.0,0.0,0.0,0.0,0.0,0.0,0.0,0.0,0.0,0.0,0.0,-5.5916023,-0.072452195,-74.53116,0.002220848,-0.12019256,0.005700103,549737.25,119984.89,0.015627582,0.025673576,7465.299,6111.073,6577.5073,4859.0547,0.31611633,0.0,0.0,0.0
20.284079,20.284079,0.283,0.0,0.0,269.84494,11106.0,100.0,0.0,1.9640839,0.0,7.0,1.0,0.0,4000000.0,110.0,1.0,0.0,0.0,10.0,0.0,0.0,-352.69748,-13.786783,191.0339,-0.9104779,0.44668266,0.01882895,275.92087,275.9887,270.0324,269.31445,257.0,256.0,338.0,338.0,89.0,89.0,89.0,89.0,0.0,0.0,0.0,0.0,0.038064666,0.03299443,0.05383526,0.050001726,0.0,0.0,0.0,0.0,-209.97673,-147.22643,-50.237766,-9.267031,0.0,0.0,0.0,2.0,1.0,-3.0805027,0.00986027,0.004846096,89.0,89.0,89.0,89.0,21.02244,21.02244,23.278507,23.278507,0.021390054,0.024043426,-5.3341634E-4,-5.353837E-4,1149.9064,0.0,0.0,0.0,0.0,0.0,0.0,0.0,0.0,0.0,0.0,0.0,0.0,0.0,-5.161201,-0.06613098,-74.779,-0.0021653352,-0.12239256,0.0049871425,549771.0,119984.91,0.015331943,0.025321651,7459.685,6096.5796,6633.198,4887.732,0.31572914,0.0,0.0,0.0
24.038437,24.038437,0.333,0.0,0.0,270.61142,11138.0,100.0,0.0,2.0290756,0.0,7.0,1.0,0.0,4000000.0,110.0,1.0,0.0,0.0,10.0,0.0,0.0,-352.94403,-13.790188,187.28854,-0.9268785,0.44040355,-0.014266591,276.712,276.78928,270.80563,270.07242,256.0,255.0,337.0,337.0,89.0,89.0,89.0,89.0,0.0,0.0,0.0,0.0,0.037960324,0.032837193,0.053826176,0.04995819,0.0,0.0,0.0,0.0,-52.67858,-50.5328,-65.875046,-26.500223,0.0,0.0,0.0,2.0,1.0,-3.0866864,0.009582193,0.005018711,89.0,89.0,89.0,89.0,21.02244,21.02244,23.278507,23.278507,0.021395884,0.024125895,-5.33397E-4,-5.3052505E-4,1153.2913,0.0,0.0,0.0,0.0,0.0,0.0,0.0,0.0,0.0,0.0,0.0,0.0,0.0,-4.722965,-0.072586104,-75.021286,-0.004293136,-0.1251523,0.0070655434,549805.1,119984.9,0.015426893,0.02548411,7426.324,6038.1455,6602.7637,4842.5747,0.31575203,0.0,0.0,0.0
27.798489,27.798489,0.383,0.0,0.0,271.3645,11169.0,100.0,0.0,2.2457602,0.0,7.0,1.0,0.0,4000000.0,110.0,1.0,0.0,0.0,10.0,0.0,0.0,-353.1682,-13.794067,183.53119,-0.9686782,0.4322412,-0.032454155,277.48495,277.56644,271.58035,270.7982,255.0,254.0,336.0,336.0,89.0,89.0,89.0,89.0,0.0,0.0,0.0,0.0,0.037955858,0.032602385,0.0538793,0.049886018,0.0,0.0,0.0,0.0,-181.38437,-125.31276,-120.592094,-53.255257,0.0,0.0,0.0,2.0,1.0,-3.093164,0.009129359,0.0052655935,89.0,89.0,89.0,89.0,21.02244,21.02244,23.278507,23.278507,0.021322086,0.024233554,-5.3724216E-4,-5.187957E-4,1156.5709,0.0,0.0,0.0,0.0,0.0,0.0,0.0,0.0,0.0,0.0,0.0,0.0,0.0,-4.26629,-0.08561497,-75.25815,-0.0052774516,-0.13417637,0.011776941,549838.3,119984.914,0.015743397,0.025886927,7433.2866,5976.217,6620.8623,4800.9272,0.3160429,0.0,0.0,0.0
31.568583,31.568583,0.416,0.0,0.0,272.1023,11199.0,100.0,0.0,2.4583197,0.0,7.0,1.0,0.0,4000000.0,110.0,1.0,0.0,0.0,10.0,0.0,0.0,-353.3689,-13.798544,179.76215,-1.0291443,0.4238007,-0.017569538,278.21613,278.2839,272.3488,271.4966,254.0,253.0,335.0,335.0,89.0,89.0,89.0,89.0,0.0,0.0,0.0,0.0,0.038196504,0.03245595,0.054061458,0.049819604,3.7702916,-3.3554432,1.0818242,-3.575161,-188.53246,-67.17591,-129.55069,-87.48025,0.0,0.0,0.0,2.0,1.0,-3.100187,0.008457858,0.005363226,89.0,89.0,89.0,89.0,21.02244,21.02244,23.278507,23.278507,0.021129051,0.024227217,-5.357079E-4,-5.113135E-4,1159.7432,0.0,0.0,0.0,0.0,0.0,0.0,0.0,0.0,0.0,0.0,0.0,0.0,0.0,-3.7819805,-0.094913736,-75.489235,-6.384729E-4,-0.14651008,0.0151371965,549869.44,119984.91,0.016429009,0.02629099,7519.4917,5967.1772,6723.341,4782.8857,0.31667995,0.0,0.0,0.0
35.349102,35.349102,0.483,0.0,0.0,272.822,11228.0,100.0,0.0,2.5480053,0.0,7.0,1.0,0.0,4000000.0,110.0,1.0,0.0,0.0,10.0,0.0,0.0,-353.5445,-13.803679,175.98174,-1.0919472,0.41556507,-0.0069782976,278.93976,279.00198,273.09732,272.18088,253.0,252.0,334.0,333.0,89.0,89.0,89.0,89.0,0.0,0.0,0.0,0.0,0.038449936,0.032302856,0.05424821,0.049685124,0.0,0.0,0.0,0.0,-32.588852,33.299614,169.09985,84.57004,0.0,0.0,0.0,2.0,1.0,-3.1078098,0.0076528727,0.0054602623,89.0,89.0,89.0,89.0,21.02244,21.02244,23.278507,23.278507,0.02099109,0.024283135,-5.2675314E-4,-5.1222113E-4,1162.8118,0.0,0.0,0.0,0.0,0.0,0.0,0.0,0.0,0.0,0.0,0.0,0.0,0.0,-3.2648504,-0.1078289,-75.71345,-1.3697523E-4,-0.15714894,0.014724011,549900.4,119984.91,0.016914025,0.026752668,7591.1553,5931.4287,6859.564,4761.8027,0.31732368,0.0,0.0,0.0
39.139977,39.139977,0.533,0.0,0.0,273.52734,11257.0,100.0,0.0,2.5204124,0.0,7.0,1.0,0.0,4000000.0,110.0,1.0,0.0,0.0,10.0,0.0,0.0,-353.69345,-13.809791,172.1903,-1.1411188,0.4170758,-0.04603901,279.66235,279.7439,273.81216,272.8701,252.0,251.0,332.0,332.0,89.0,89.0,89.0,89.0,0.0,0.0,0.0,0.0,0.038254753,0.03194238,0.054308414,0.04949013,0.0,0.0,0.0,0.0,1166.1975,1014.8941,1123.3627,908.0617,0.0,0.0,0.0,2.0,1.0,-3.1158016,0.0069968123,0.0055195093,89.0,89.0,89.0,89.0,21.02244,21.02244,23.278507,23.278507,0.021009417,0.024451839,-5.212452E-4,-5.228052E-4,1165.8816,0.0,0.0,0.0,0.0,0.0,0.0,0.0,0.0,0.0,0.0,0.0,0.0,0.0,-2.720226,-0.13941686,-75.93098,-6.8177446E-4,-0.16089512,0.01166455,549931.75,119984.9,0.016262611,0.026428228,7604.9053,5875.335,6902.0645,4686.2046,0.3168602,0.0,0.0,0.0
42.94127,42.94127,0.583,0.0,0.0,274.22995,11278.0,100.0,0.0,2.416744,0.0,7.0,1.0,0.0,4000000.0,110.0,1.0,0.0,0.0,10.0,0.0,0.0,-353.81448,-13.816301,168.38809,-1.1766264,0.41021225,0.08169248,280.1992,280.22852,274.50528,273.57846,251.0,250.0,331.0,331.0,89.0,89.0,89.0,89.0,0.0,0.0,0.0,0.0,0.03966457,0.03320884,0.0547919,0.04973798,0.0,0.0,0.0,0.0,719.2344,731.02264,-569.20496,-362.67484,0.0,0.0,0.0,2.0,1.0,-3.1238132,0.0066097467,0.005082011,89.0,89.0,89.0,89.0,21.02244,21.02244,23.278507,23.278507,0.020365342,0.023520667,-5.12906E-4,-5.2768074E-4,1168.1033,0.0,0.0,0.0,0.0,0.0,0.0,0.0,0.0,0.0,0.0,0.0,0.0,0.0,-2.1504908,-0.115305044,-76.14454,0.009735141,-0.15779458,0.0033686473,549953.75,119984.9,0.014815044,0.02454652,7975.689,6212.611,7139.0034,4838.9277,0.31518078,0.0,0.0,0.0
46.753,46.753,0.633,0.0,0.0,274.91922,11304.0,100.0,0.0,2.3764436,0.0,7.0,1.0,0.0,4000000.0,110.0,1.0,0.0,0.0,10.0,0.0,0.0,-353.9068,-13.821002,164.57542,-1.1804098,0.40582052,0.090056375,280.8727,280.8362,275.178,274.2839,250.0,249.0,330.0,330.0,89.0,89.0,89.0,89.0,0.0,0.0,0.0,0.0,0.040281862,0.03438679,0.054927275,0.04981955,0.0,0.0,0.0,0.0,-408.58084,1179.2466,-36.008656,-162.64912,0.0,0.0,0.0,2.0,1.0,-3.1315408,0.0064694616,0.0046955347,89.0,89.0,89.0,89.0,21.02244,21.02244,23.278507,23.278507,0.020335402,0.023088492,-5.167433E-4,-5.225023E-4,1170.8549,0.0,0.0,0.0,0.0,0.0,0.0,0.0,0.0,0.0,0.0,0.0,0.0,0.0,-1.5739219,-0.07561884,-76.35019,0.004186163,-0.15236253,0.009970833,549981.3,119984.9,0.013428125,0.022731261,7931.3965,6375.623,7217.1006,4882.459,0.31386948,0.0,0.0,0.0
50.574203,50.574203,0.683,0.0,0.0,275.59836,11333.0,100.0,0.0,2.3954074,0.0,7.0,1.0,0.0,4000000.0,110.0,1.0,0.0,0.0,10.0,0.0,0.0,-353.97025,-13.824171,160.75273,-1.1785226,0.40110385,0.031971216,281.5683,281.6192,275.85,274.96866,249.0,248.0,329.0,329.0,89.0,89.0,89.0,89.0,0.0,0.0,0.0,0.0,0.040342037,0.03393009,0.054874625,0.049852386,0.0,0.0,0.0,0.0,-179.54706,468.85007,-181.1966,-89.06274,0.0,0.0,0.0,2.0,1.0,-3.139095,0.0065744477,0.004337907,89.0,89.0,89.0,89.0,21.02244,21.02244,23.278507,23.278507,0.020352954,0.023406575,-5.183002E-4,-5.176588E-4,1173.9261,0.0,0.0,0.0,0.0,0.0,0.0,0.0,0.0,0.0,0.0,0.0,0.0,0.0,-0.9961505,-0.05632406,-76.5486,0.006615315,-0.15049732,-0.0034815816,550012.94,119984.9,0.01225915,0.022156268,7889.777,6177.3887,7143.894,4879.3804,0.31251526,0.0,0.0,0.0
54.4024,54.4024,0.733,0.0,0.0,276.2717,11359.0,100.0,0.0,2.3581462,0.0,7.0,1.0,0.0,4000000.0,110.0,1.0,0.0,0.0,10.0,0.0,0.0,-354.00476,-13.825156,156.9202,-1.1679585,0.38968784,0.027250241,282.21518,282.26593,276.52063,275.6501,248.0,247.0,328.0,328.0,89.0,89.0,89.0,89.0,0.0,0.0,0.0,0.0,0.04113434,0.034681372,0.05484043,0.04986707,0.0,0.0,0.0,0.0,-1467.7313,-1334.3049,-541.00146,-442.1755,0.0,0.0,0.0,2.0,1.0,3.1366165,0.006649835,0.003878951,89.0,89.0,89.0,89.0,21.02244,21.02244,23.278507,23.278507,0.020172937,0.0231607,-5.0968176E-4,-5.157542E-4,1176.6787,0.0,0.0,0.0,0.0,0.0,0.0,0.0,0.0,0.0,0.0,0.0,0.0,0.0,-0.41775155,-0.0053959955,-76.741005,-0.0026680646,-0.1481847,-3.418342E-4,550040.7,119984.9,0.013309631,0.021877484,7942.7764,6220.457,7014.273,4765.146,0.3127699,0.0,0.0,0.0
58.239395,58.239395,0.783,0.0,0.0,276.9314,11395.0,100.0,0.0,2.3101616,0.0,7.0,1.0,0.0,4000000.0,110.0,1.0,0.0,0.0,10.0,0.0,0.0,-354.0107,-13.827124,153.07828,-1.1480528,0.38678682,-0.11561802,283.06024,283.21185,277.1795,276.32104,247.0,246.0,327.0,327.0,89.0,89.0,89.0,89.0,0.0,0.0,0.0,0.0,0.039481696,0.033039942,0.054293536,0.049468633,0.0,0.0,0.0,0.0,88.36532,51.95434,673.0198,746.48553,0.0,0.0,0.0,2.0,1.0,3.1292765,0.006494387,0.00508368,89.0,89.0,89.0,89.0,21.02244,21.02244,23.278507,23.278507,0.020801522,0.02410937,-5.076213E-4,-5.0810166E-4,1179.6951,0.0,0.0,0.0,0.0,0.0,0.0,0.0,0.0,0.0,0.0,0.0,0.0,0.0,0.14806086,-0.07020219,-76.92522,-0.032194845,-0.14624016,0.0050738705,549708.5,119984.9,0.014847145,0.02406753,7547.441,5821.6094,6843.3706,4659.127,0.3147936,0.0,0.0,0.0
62.08549,62.08549,0.816,0.0,0.0,277.5858,11422.0,100.0,0.0,2.2636163,0.0,7.0,1.0,0.0,4000000.0,110.0,1.0,0.0,0.0,10.0,0.0,0.0,-353.98846,-13.832518,149.22731,-1.1445233,0.38694867,-0.09910661,283.71228,283.8656,277.82855,276.97455,246.0,245.0,326.0,325.0,89.0,89.0,89.0,89.0,0.0,0.0,0.0,0.0,0.03827467,0.031845313,0.054464914,0.049644496,-9.440257,-7.3769684,5.398392,4.6809015,1007.82654,1200.0201,115.174034,122.64399,0.0,0.0,0.0,2.0,1.0,3.1219754,0.006168429,0.0060681105,89.0,89.0,89.0,89.0,21.02244,21.02244,23.278507,23.278507,0.020828223,0.024153221,-5.0879235E-4,-5.092718E-4,1181.3726,0.0,0.0,0.0,0.0,0.0,0.0,0.0,0.0,0.0,0.0,0.0,0.0,0.0,0.71108514,-0.13697003,-77.10376,-0.00790808,-0.14560503,0.007172199,549188.9,119984.91,0.015163223,0.02579403,7544.9976,5828.7676,6996.168,4803.0605,0.3157673,0.0,0.0,0.0
65.94109,65.94109,0.883,0.0,0.0,278.2344,11444.0,100.0,0.0,2.2796931,0.0,7.0,1.0,0.0,4000000.0,110.0,1.0,0.0,0.0,10.0,0.0,0.0,-353.93802,-13.840809,145.36754,-1.1457133,0.38012904,-0.077599324,284.2741,284.42917,278.47147,277.6299,245.0,244.0,324.0,324.0,89.0,89.0,89.0,89.0,0.0,0.0,0.0,0.0,0.038616274,0.031945035,0.054437596,0.049650088,0.0,0.0,0.0,0.0,681.2408,348.84805,947.9864,64.88263,0.0,0.0,0.0,2.0,1.0,3.114753,0.0053599244,0.006411314,89.0,89.0,89.0,89.0,21.02244,21.02244,23.278507,23.278507,0.020452345,0.023761814,-5.092069E-4,-5.053686E-4,1182.6816,0.0,0.0,0.0,0.0,0.0,0.0,0.0,0.0,0.0,0.0,0.0,0.0,0.0,1.2763063,-0.18928327,-77.276566,-0.009337215,-0.14364924,0.016108803,548740.5,119984.9,0.015189401,0.02544016,7710.874,5923.8125,6980.093,4763.712,0.31560993,0.0,0.0,0.0
69.80647,69.80647,0.933,0.0,0.0,278.8709,11466.0,100.0,0.0,2.5368235,0.0,7.0,1.0,0.0,4000000.0,110.0,1.0,0.0,0.0,10.0,0.0,0.0,-353.85904,-13.850971,141.49931,-1.1805047,0.37246636,0.048741855,284.822,284.9378,279.12088,278.24503,244.0,243.0,323.0,323.0,89.0,89.0,89.0,89.0,0.0,0.0,0.0,0.0,0.039543297,0.032620233,0.054931752,0.049906623,0.0,0.0,0.0,0.0,1621.489,592.9961,707.6337,395.1698,0.0,0.0,0.0,2.0,1.0,3.1074262,0.0046829386,0.0066227913,89.0,89.0,89.0,89.0,21.02244,21.02244,23.278507,23.278507,0.020020159,0.023339057,-5.209714E-4,-4.8352976E-4,1184.0449,0.0,0.0,0.0,0.0,0.0,0.0,0.0,0.0,0.0,0.0,0.0,0.0,0.0,1.8516717,-0.20337564,-77.44174,0.005345183,-0.15116574,0.005277708,548318.94,119984.91,0.014711966,0.024822893,7964.7754,6093.66,7400.193,5088.3027,0.31497288,0.0,0.0,0.0
73.68179,73.68179,0.983,0.0,0.0,279.4841,11489.0,100.0,0.0,3.1195447,0.0,7.0,1.0,0.0,4000000.0,110.0,1.0,0.0,0.0,10.0,0.0,0.0,-353.75046,-13.8609,137.62314,-1.2694523,0.3589893,0.025621396,285.44855,285.45828,279.7967,278.7771,243.0,242.0,322.0,322.0,89.0,89.0,89.0,89.0,0.0,0.0,0.0,0.0,0.040481303,0.033440195,0.055021256,0.04979561,0.0,0.0,0.0,0.0,219.37785,-78.28027,222.04665,-76.18812,0.0,0.0,0.0,2.0,1.0,3.0992403,0.004042906,0.006219864,89.0,89.0,89.0,89.0,21.02244,21.02244,23.278507,23.278507,0.0197813,0.023156183,-5.302972E-4,-4.6186618E-4,1185.432,0.0,0.0,0.0,0.0,0.0,0.0,0.0,0.0,0.0,0.0,0.0,0.0,0.0,2.4636128,-0.1952426,-77.59513,0.0036541582,-0.177195,0.022442844,547862.3,119984.9,0.015489849,0.024396665,8025.786,6147.74,7254.88,4853.9883,0.31523228,0.0,0.0,0.0
77.56712,77.56712,1.033,0.0,0.0,280.06723,11513.0,100.0,0.0,3.6524904,0.0,7.0,1.0,0.0,4000000.0,110.0,1.0,0.0,0.0,10.0,0.0,0.0,-353.6097,-13.870414,133.7397,-1.4137791,0.3446525,0.022461336,286.10672,286.02057,280.47382,279.2389,242.0,241.0,321.0,321.0,89.0,89.0,89.0,89.0,0.0,0.0,0.0,0.0,0.041058492,0.033342082,0.055514738,0.04934107,0.0,0.0,0.0,0.0,-143.87369,228.22914,-142.3582,-61.16781,0.0,0.0,0.0,2.0,1.0,3.089351,0.0029967348,0.0060579777,89.0,89.0,89.0,89.0,21.02244,21.02244,23.278507,23.278507,0.019654186,0.023415877,-5.2226556E-4,-4.5180632E-4,1186.8562,0.0,0.0,0.0,0.0,0.0,0.0,0.0,0.0,0.0,0.0,0.0,0.0,0.0,3.1425903,-0.186321,-77.73273,0.0010556483,-0.2144951,0.012220804,547377.06,119984.91,0.016215712,0.024882583,8102.046,6041.742,7500.353,4639.6943,0.3158474,0.0,0.0,0.0
81.46274,81.46274,1.083,0.0,0.0,280.6298,11538.0,100.0,0.0,3.5491054,0.0,7.0,1.0,0.0,4000000.0,110.0,1.0,0.0,0.0,10.0,0.0,0.0,-353.4333,-13.880962,129.84981,-1.5367309,0.3414209,0.019395443,286.73395,286.6357,281.08032,279.73843,241.0,240.0,320.0,320.0,89.0,89.0,89.0,89.0,0.0,0.0,0.0,0.0,0.040439133,0.03286326,0.05593029,0.04899563,0.0,0.0,0.0,0.0,901.79877,909.8454,-125.916245,887.8379,0.0,0.0,0.0,2.0,1.0,3.0780635,0.0028789379,0.0062469244,89.0,89.0,89.0,89.0,21.02244,21.02244,23.278507,23.278507,0.01975152,0.023765715,-4.987038E-4,-4.729442E-4,1188.3602,0.0,0.0,0.0,0.0,0.0,0.0,0.0,0.0,0.0,0.0,0.0,0.0,0.0,3.8831255,-0.21627672,-77.855644,0.004577622,-0.23101771,-0.006121083,546883.2,119984.89,0.0147620095,0.024473531,8092.62,5955.818,7818.2534,4660.34,0.31492233,0.0,0.0,0.0
85.371994,85.371994,1.133,0.0,0.0,281.17072,11551.0,100.0,0.0,2.936766,0.0,7.0,1.0,0.0,4000000.0,110.0,1.0,0.0,0.0,10.0,0.0,0.0,-353.2185,-13.88825,125.95411,-1.5777061,0.3261153,0.16715877,287.07474,286.9306,281.57727,280.32138,240.0,239.0,319.0,319.0,89.0,89.0,89.0,89.0,0.0,0.0,0.0,0.0,0.043493938,0.03534956,0.056617465,0.049355637,0.0,0.0,0.0,0.0,-3184.9487,-569.40625,-1270.7769,-1338.3417,0.0,0.0,0.0,2.0,1.0,3.0668395,0.0038104902,0.0046327114,89.0,89.0,89.0,89.0,21.02244,21.02244,23.278507,23.278507,0.019174848,0.022622187,-4.5859587E-4,-5.1500555E-4,1189.1432,0.0,0.0,0.0,0.0,0.0,0.0,0.0,0.0,0.0,0.0,0.0,0.0,0.0,4.6709757,-0.097476274,-77.96311,0.032805778,-0.21248229,-0.033345662,546627.6,119984.91,0.016568858,0.023495784,8542.018,6375.3936,7906.05,4598.5156,0.31546688,0.0,0.0,0.0
89.2851,89.2851,1.183,0.0,0.0,281.69284,11577.0,100.0,0.0,2.4157205,0.0,7.0,1.0,0.0,4000000.0,110.0,1.0,0.0,0.0,10.0,0.0,0.0,-352.96463,-13.89135,122.053345,-1.5101458,0.31447327,0.08296017,287.6248,287.65283,281.99918,280.96964,239.0,238.0,318.0,317.0,89.0,89.0,89.0,89.0,0.0,0.0,0.0,0.0,0.04284567,0.03564176,0.056207463,0.049157366,0.0,0.0,0.0,0.0,-902.02673,-1730.1855,-200.58899,-620.19366,0.0,0.0,0.0,2.0,1.0,3.057307,0.006128732,0.0038688183,89.0,89.0,89.0,89.0,21.02244,21.02244,23.278507,23.278507,0.019587517,0.022868128,-4.5732627E-4,-5.082524E-4,1190.7213,0.0,0.0,0.0,0.0,0.0,0.0,0.0,0.0,0.0,0.0,0.0,0.0,0.0,5.4360013,-0.037865546,-78.05895,0.015232615,-0.17360666,-0.048638575,546123.8,119984.91,0.018791838,0.02568168,8183.3354,6162.7104,7769.4053,4556.3584,0.31767654,0.0,0.0,0.0
93.202576,93.202576,1.233,0.0,0.0,282.2225,11603.0,100.0,0.0,2.250393,0.0,7.0,1.0,0.0,4000000.0,110.0,1.0,0.0,0.0,10.0,0.0,0.0,-352.67377,-13.89378,118.14797,-1.4058533,0.33957064,-0.08881888,288.26373,288.3412,282.4625,281.57706,238.0,237.0,316.0,316.0,89.0,89.0,89.0,89.0,0.0,0.0,0.0,0.0,0.04034645,0.03383623,0.055631608,0.04895818,0.0,0.0,0.0,0.0,2339.825,3341.5227,1638.2795,2756.0632,0.0,0.0,0.0,2.0,1.0,3.049338,0.009637023,0.0034058094,89.0,89.0,89.0,89.0,21.02244,21.02244,23.278507,23.278507,0.020278772,0.02332345,-4.8431562E-4,-5.067304E-4,1192.2454,0.0,0.0,0.0,0.0,0.0,0.0,0.0,0.0,0.0,0.0,0.0,0.0,0.0,6.1506968,-0.07759036,-78.15344,0.021711865,-0.15037552,-0.0755017,545597.5,119984.9,0.016796734,0.025659872,7751.5312,5990.812,7542.857,4561.684,0.31636143,0.0,0.0,0.0
97.125626,97.125626,1.266,0.0,0.0,282.77484,11599.0,100.0,0.0,2.5261986,0.0,7.0,1.0,0.0,4000000.0,110.0,1.0,0.0,0.0,10.0,0.0,0.0,-352.3477,-13.894232,114.23766,-1.3959374,0.3180226,0.75510967,288.24286,288.10605,283.00378,282.13336,237.0,236.0,315.0,315.0,89.0,89.0,89.0,89.0,0.0,0.0,0.0,0.0,0.044957686,0.040245563,0.057311807,0.05155321,177.73099,216.84116,44.220238,91.83145,6453.2197,5969.2817,700.31134,3409.5698,0.0,0.0,0.0,2.0,1.0,3.041881,0.013005002,0.0011588335,89.0,89.0,89.0,89.0,21.02244,21.02244,23.278507,23.278507,0.018092161,0.02032147,-4.969094E-4,-4.6241356E-4,1192.0355,0.0,0.0,0.0,0.0,0.0,0.0,0.0,0.0,0.0,0.0,0.0,0.0,0.0,6.853125,0.11930056,-78.24895,0.0898763,-0.15153751,-0.029909894,545689.56,119984.91,0.012923002,0.019985719,9376.154,7682.2734,9319.949,6633.3584,0.31164646,0.0,0.0,0.0
101.05447,101.05447,1.333,0.0,0.0,283.2817,11622.0,100.0,0.0,2.8998628,0.0,7.0,1.0,0.0,4000000.0,110.0,1.0,0.0,0.0,10.0,0.0,0.0,-351.98682,-13.880746,110.323135,-1.365172,0.29884294,0.41032308,288.81763,288.7071,283.56354,282.60065,236.0,235.0,314.0,314.0,89.0,89.0,89.0,89.0,0.0,0.0,0.0,0.0,0.048324477,0.041719995,0.056600474,0.05058425,0.0,0.0,0.0,0.0,-7394.5273,-1611.8063,-1013.0166,-273.5718,0.0,0.0,0.0,2.0,1.0,3.0339382,0.013941193,-0.0025029182,89.0,89.0,89.0,89.0,21.02244,21.02244,23.278507,23.278507,0.018072207,0.020653462,-4.9873703E-4,-4.4808493E-4,1193.3796,0.0,0.0,0.0,0.0,0.0,0.0,0.0,0.0,0.0,0.0,0.0,0.0,0.0,7.5419703,0.37511417,-78.3262,0.040225513,-0.16702169,-0.024197778,545223.75,119984.89,0.017489184,0.019757977,9090.389,7224.047,7830.228,5124.8887,0.31401157,0.0,0.0,0.0
104.98932,104.98932,1.383,0.0,0.0,283.75418,11655.0,100.0,0.0,3.1698618,0.0,7.0,1.0,0.0,4000000.0,110.0,1.0,0.0,0.0,10.0,0.0,0.0,-351.59146,-13.858485,106.40511,-1.4028932,0.27770948,0.21604255,289.60904,289.53693,284.1061,283.00348,235.0,234.0,313.0,313.0,89.0,89.0,89.0,89.0,0.0,0.0,0.0,0.0,0.046128616,0.038983207,0.056093577,0.050181326,0.0,0.0,0.0,0.0,-870.95325,-1349.0302,287.39865,-242.2705,0.0,0.0,0.0,2.0,1.0,3.0249434,0.014515959,-0.0032224655,89.0,89.0,89.0,89.0,21.02244,21.02244,23.278507,23.278507,0.018935895,0.022143072,-4.884173E-4,-4.2430966E-4,1195.3646,0.0,0.0,0.0,0.0,0.0,0.0,0.0,0.0,0.0,0.0,0.0,0.0,0.0,8.2373295,0.4979653,-78.38741,0.017145818,-0.1916422,0.0033764197,544584.3,119984.91,0.02080311,0.025645383,8375.761,6379.611,7849.3545,5155.803,0.3183651,0.0,0.0,0.0
108.92122,108.92122,1.433,0.0,0.0,282.75327,11199.0,100.0,0.0,3.2644138,0.0,7.0,1.0,0.0,4000000.0,110.0,1.0,0.0,0.0,10.0,0.0,0.0,-351.16202,-13.836161,102.49352,-1.5055599,-0.7091301,0.32270637,282.99442,282.4992,283.2384,282.1282,234.0,233.0,312.0,312.0,89.0,89.0,89.0,89.0,0.0,0.0,0.0,0.0,0.04008001,0.03206746,0.057021882,0.050500736,0.0,0.0,0.0,0.0,5169.3003,3973.9868,3314.7405,564.8732,0.0,0.0,0.0,2.0,1.0,3.0152583,0.013557874,-0.0024232864,89.0,89.0,89.0,89.0,21.02244,21.02244,23.278507,23.278507,-8.075101E-4,0.0010123866,-5.0680646E-5,8.21881E-5,1159.7435,0.0,0.0,0.0,0.0,0.0,0.0,0.0,0.0,0.0,0.0,0.0,0.0,0.0,8.911529,0.48033586,-78.033905,-0.002605326,-0.19614507,0.040467005,549869.6,0.0,0.014381769,0.026658366,8470.241,6097.1396,8867.66,6138.585,0.31513405,0.0,0.0,0.0
112.84725,112.84725,1.483,0.0,0.0,282.46643,10798.0,100.0,0.0,3.0229409,0.0,8.0,1.0,0.0,4000000.0,110.0,1.0,0.0,0.0,10.0,0.0,0.0,-350.69742,-13.798554,98.59892,-1.4867688,0.26981995,0.65923,288.3742,288.3001,282.79172,281.67374,233.0,232.0,311.0,311.0,89.0,89.0,89.0,89.0,0.0,0.0,0.0,0.0,0.048845336,0.039560318,0.058582872,0.052157976,0.0,0.0,0.0,0.0,-5147.7354,-4411.1875,-3671.2598,-4310.8325,0.0,0.0,0.0,2.0,1.0,3.005553,0.0124643585,-0.007943273,89.0,89.0,89.0,89.0,21.02244,21.02244,23.278507,23.278507,0.01929865,0.022464648,-5.04744E-4,-4.7998675E-4,1110.6428,0.0,0.0,0.0,0.0,0.0,0.0,0.0,0.0,0.0,0.0,0.0,0.0,0.0,9.640997,0.93831605,-77.86268,0.15076548,-0.19382711,0.020695282,546145.2,119984.89,0.019372668,0.024967201,9371.065,7101.6953,8760.939,5888.679,0.31755733,0.0,0.0,0.0
116.7734,116.7734,1.533,0.0,0.0,283.02155,10475.0,100.0,0.0,2.8218129,0.0,8.0,1.0,0.0,4000000.0,110.0,1.0,0.0,0.0,10.0,0.0,0.0,-350.1958,-13.745641,94.704185,-1.4575605,0.32682273,0.41434723,289.01993,289.03055,283.34128,282.2764,232.0,231.0,310.0,310.0,89.0,89.0,89.0,89.0,0.0,0.0,0.0,0.0,0.048125032,0.040632866,0.056229323,0.0504515,0.0,0.0,0.0,0.0,-549.4236,-3277.8198,1377.207,864.2077,0.0,0.0,0.0,2.0,1.0,2.9961505,0.012730883,-0.012793064,89.0,89.0,89.0,89.0,21.02244,21.02244,23.278507,23.278507,0.019581279,0.022941507,-4.883794E-4,-4.8812004E-4,1064.7351,0.0,0.0,0.0,0.0,0.0,0.0,0.0,0.0,0.0,0.0,0.0,0.0,0.0,10.380613,1.156079,-77.92018,0.060221396,-0.18296006,0.016508348,539715.06,119984.9,0.025383912,0.027551645,9120.087,6856.777,7741.367,5147.8945,0.32244015,0.0,0.0,0.0
120.70156,120.70156,1.583,0.0,0.0,283.16455,10127.0,92.1767,12.805775,2.6112409,0.0,8.0,0.0,1.0,4000000.0,110.0,1.0,0.0,0.0,10.0,0.0,0.0,-349.6583,-13.6870985,90.80808,-1.4324083,-0.19802663,0.018428942,286.60004,286.29965,282.5892,281.36093,235.0,234.0,312.0,312.0,89.0,89.0,89.0,89.0,0.0,0.0,0.0,0.0,0.04394096,0.036094725,0.055312295,0.04957283,0.0,0.0,0.0,0.0,9715.014,9878.669,7002.496,6656.4507,0.0,0.0,0.0,2.0,1.0,2.9873052,0.012065396,-0.015364528,89.0,89.0,89.0,89.0,21.02244,21.02244,23.278507,23.278507,0.011313169,0.013562489,-0.0036921666,-0.004557805,996.5932,0.0,0.0,0.0,0.0,0.0,0.0,0.0,0.0,0.0,0.0,0.0,0.0,0.0,11.070977,1.1458166,-77.86537,0.051301334,-0.17021199,0.03177166,522533.47,0.0,0.018444432,0.024747005,8461.094,6376.318,7930.7725,5305.638,0.31727123,0.0,0.0,0.0
124.61213,124.61213,1.633,0.0,0.0,280.9389,9954.0,50.792706,34.437103,2.156761,0.0,8.0,0.0,1.0,4000000.0,110.0,1.0,0.0,0.0,10.0,0.0,0.0,-349.08862,-13.619667,86.93148,-1.3547394,-1.5651407,1.8981827,280.66714,280.066,279.12964,278.06946,252.0,251.0,326.0,326.0,89.0,89.0,89.0,89.0,0.0,0.0,0.0,0.0,0.055511575,0.049439397,0.06049011,0.05492395,0.0,0.0,0.0,0.0,5123.985,14555.7705,-21.69937,2743.6985,0.0,0.0,0.0,2.0,1.0,2.9795213,0.011980817,-0.021094084,89.0,89.0,89.0,89.0,21.02244,21.02244,23.278507,23.278507,-0.0018880186,-0.0016141795,-0.0075187176,-0.008439146,961.14026,0.0,0.0,0.0,0.0,0.0,0.0,0.0,0.0,0.0,0.0,0.0,0.0,0.0,11.65982,1.6831049,-77.14426,0.18195169,-0.13698775,-0.056011297,512703.34,0.0,0.005952317,0.009837732,12458.711,9983.402,12314.2295,9775.309,0.30381966,0.0,0.0,0.0
128.48296,128.48296,1.683,0.0,0.0,277.19476,9699.0,11.45037,57.163013,2.0612388,0.0,8.0,0.0,1.0,4000000.0,110.0,1.0,0.0,0.0,10.0,0.0,0.0,-348.49323,-13.515095,83.10248,-1.18263,-2.4513493,0.9266215,274.05823,273.35828,273.55508,272.39288,278.0,277.0,349.0,349.0,89.0,89.0,89.0,89.0,0.0,0.0,0.0,0.0,0.050626185,0.047990814,0.057872407,0.05442193,0.0,0.0,0.0,0.0,-3154.3848,-1904.7838,856.6438,-4188.577,0.0,0.0,0.0,2.0,1.0,2.9734874,0.014646975,-0.025770307,89.0,89.0,89.0,89.0,21.02244,21.02244,23.278507,23.278507,-0.01180095,-0.012196613,-0.014254375,-0.01595416,900.27435,0.0,0.0,0.0,0.0,0.0,0.0,0.0,0.0,0.0,0.0,0.0,0.0,0.0,12.099899,2.3491812,-76.00559,0.032651268,-0.115155555,0.049885668,492861.53,0.0,0.011827984,0.016015075,10429.019,8687.987,9683.258,8106.823,0.31031895,0.0,0.0,0.0
132.28671,132.28671,1.733,0.0,0.0,271.63135,10312.0,0.0,84.81147,1.6681073,0.0,8.0,0.0,1.0,4000000.0,110.0,1.0,0.0,0.0,10.0,0.0,0.0,-347.881,-13.394128,79.34257,-0.97749436,-3.5178404,0.23462369,264.96912,264.43076,265.46457,263.62003,314.0,313.0,383.0,382.0,89.0,89.0,89.0,89.0,0.0,0.0,0.0,0.0,0.046576343,0.041604515,0.056289032,0.05205203,0.0,0.0,0.0,0.0,96.23748,1446.9309,-431.76862,-79.205696,0.0,0.0,0.0,2.0,1.0,2.9683018,0.013705263,-0.027883768,89.0,89.0,89.0,89.0,21.02244,21.02244,23.278507,23.278507,-0.024978422,-0.025217287,-0.023695601,-0.02819898,1032.5187,0.0,0.0,0.0,0.0,0.0,0.0,0.0,0.0,0.0,0.0,0.0,0.0,0.0,12.341888,2.4587328,-74.39631,0.05676677,-0.09549108,0.0060334126,531657.56,0.0,0.015918877,0.02600606,8075.7646,6641.01,9405.227,7487.558,0.31751728,0.0,0.0,0.0
135.99052,135.99052,1.783,0.0,0.0,264.50104,10373.0,0.0,100.0,1.5635937,0.0,7.0,0.0,1.0,4000000.0,110.0,1.0,0.0,0.0,10.0,0.0,0.0,-347.26144,-13.273455,75.675224,-0.8707684,-4.095906,0.6014063,257.61728,256.77417,257.25272,255.53252,357.0,356.0,427.0,426.0,89.0,89.0,89.0,89.0,0.0,0.0,0.0,0.0,0.043528333,0.038998183,0.05566758,0.05240974,0.0,0.0,0.0,0.0,4776.236,5503.7847,852.27185,1802.9939,0.0,0.0,0.0,2.0,1.0,2.9637232,0.015345138,-0.030821085,89.0,89.0,89.0,89.0,21.02244,21.02244,23.278507,23.278507,-0.026302367,-0.027824823,-0.028139802,-0.03286534,1044.5491,0.0,0.0,0.0,0.0,0.0,0.0,0.0,0.0,0.0,0.0,0.0,0.0,0.0,12.425615,2.4752502,-72.371864,0.08944673,-0.08762494,-0.018024469,534689.3,0.0,0.008149538,0.020990958,8235.245,7065.3047,10215.374,8537.933,0.31151485,0.0,0.0,0.0
139.58939,139.58939,1.833,0.0,0.0,257.20035,10079.0,0.0,100.0,1.3152415,0.0,7.0,0.0,1.0,4000000.0,110.0,1.0,0.0,0.0,10.0,0.0,0.0,-346.63937,-13.14023,72.11173,-0.74528533,-4.0923324,0.8404271,250.22092,249.78098,249.7715,248.28835,397.0,396.0,467.0,466.0,89.0,89.0,89.0,89.0,0.0,0.0,0.0,0.0,0.048179924,0.04413629,0.055964198,0.05294243,0.0,0.0,0.0,0.0,-5070.9434,-6043.727,-1202.689,-1166.6937,0.0,0.0,0.0,2.0,1.0,2.9598281,0.015691584,-0.035189986,89.0,89.0,89.0,89.0,21.02244,21.02244,23.278507,23.278507,-0.02749742,-0.027892746,-0.029226206,-0.033333637,987.39026,0.0,0.0,0.0,0.0,0.0,0.0,0.0,0.0,0.0,0.0,0.0,0.0,0.0,12.4448395,2.8293629,-70.295395,0.07640567,-0.0692772,0.015454671,520173.72,0.0,0.0049091745,0.015647156,8608.279,7511.7305,9812.197,8457.676,0.30774307,0.0,0.0,0.0
143.09628,143.09628,1.883,0.0,0.0,250.03658,9769.0,0.0,100.0,1.0884795,0.0,7.0,0.0,1.0,4000000.0,110.0,1.0,0.0,0.0,10.0,0.0,0.0,-346.01807,-12.994127,68.65038,-0.60107505,-4.05144,0.37765068,242.63821,241.92026,241.90495,240.39104,433.0,432.0,503.0,502.0,89.0,89.0,89.0,89.0,0.0,0.0,0.0,0.0,0.04476954,0.04085412,0.05412781,0.051776312,0.0,0.0,0.0,0.0,-947.93286,-876.9749,862.5447,800.0358,0.0,0.0,0.0,2.0,1.0,2.9566863,0.015900895,-0.037339926,89.0,89.0,89.0,89.0,21.02244,21.02244,23.278507,23.278507,-0.029838603,-0.031475056,-0.032927815,-0.03770587,916.7091,0.0,0.0,0.0,0.0,0.0,0.0,0.0,0.0,0.0,0.0,0.0,0.0,0.0,12.396456,2.9793036,-68.2744,0.011008112,-0.05778036,0.0022921092,498262.78,0.0,0.006173251,0.018252814,7412.623,6496.954,8479.991,7465.056,0.30918312,0.0,0.0,0.0
146.49318,146.49318,1.933,0.0,0.0,242.89598,9468.0,0.0,100.0,0.7044998,0.0,7.0,0.0,1.0,4000000.0,110.0,1.0,0.0,0.0,10.0,0.0,0.0,-345.40128,-12.84305,65.289604,-0.46906707,-3.9985876,0.27826962,235.1671,234.5004,234.14159,233.28572,466.0,465.0,535.0,534.0,89.0,89.0,89.0,89.0,0.0,0.0,0.0,0.0,0.039975855,0.03650391,0.0530775,0.05182245,0.0,0.0,0.0,0.0,1279.3596,481.4433,-2553.731,-3385.8057,0.0,0.0,0.0,2.0,1.0,2.9541633,0.015391004,-0.03798628,89.0,89.0,89.0,89.0,21.02244,21.02244,23.278507,23.278507,-0.032219645,-0.033481173,-0.035768513,-0.03828586,845.312,0.0,0.0,0.0,0.0,0.0,0.0,0.0,0.0,0.0,0.0,0.0,0.0,0.0,12.275017,3.0592163,-66.27454,0.0067159277,-0.042282958,0.03194213,474062.72,0.0,0.009472219,0.023599906,6851.209,5961.117,7859.8125,7364.592,0.312006,0.0,0.0,0.0
149.78307,149.78307,1.983,0.0,0.0,235.89656,10995.0,0.0,100.0,0.27965304,0.0,7.0,0.0,1.0,4000000.0,110.0,1.0,0.0,0.0,10.0,0.0,0.0,-344.79227,-12.692715,62.02696,-0.2985419,-3.996903,-0.2255471,226.39816,225.80252,225.54927,224.59215,495.0,494.0,565.0,563.0,89.0,89.0,89.0,89.0,0.0,0.0,0.0,0.0,0.033720978,0.029879421,0.051002376,0.05028407,0.0,0.0,0.0,0.0,-697.10535,1269.7173,1729.8904,933.6499,0.0,0.0,0.0,2.0,1.0,2.9528997,0.01383435,-0.036547065,89.0,89.0,89.0,89.0,21.02244,21.02244,23.278507,23.278507,-0.040133554,-0.04182883,-0.043750424,-0.047666073,1138.0382,0.0,0.0,0.0,0.0,0.0,0.0,0.0,0.0,0.0,0.0,0.0,0.0,0.0,12.080884,2.9274993,-64.336975,-0.05944471,-0.014423583,0.008760519,549589.75,0.0,0.014247978,0.031419728,5406.927,4682.721,6643.283,6313.222,0.3181734,0.0,0.0,0.0
152.96886,152.96886,2.033,0.0,0.0,229.0388,10050.0,0.0,100.0,0.045002043,0.0,6.0,0.0,1.0,4000000.0,110.0,1.0,0.0,0.0,10.0,0.0,0.0,-344.1946,-12.551634,58.85975,-0.18785554,-3.9245346,-0.22480285,220.01558,218.83165,218.603,218.59673,523.0,522.0,591.0,590.0,89.0,89.0,89.0,89.0,0.0,0.0,0.0,0.0,0.02821728,0.02549453,0.050308418,0.05028021,0.0,0.0,0.0,0.0,2936.73,311.56537,550.36237,300.98407,0.0,0.0,0.0,2.0,1.0,2.952558,0.011960225,-0.03381121,89.0,89.0,89.0,89.0,21.02244,21.02244,23.278507,23.278507,-0.03890245,-0.043760233,-0.0456869,-0.045993976,981.83014,0.0,0.0,0.0,0.0,0.0,0.0,0.0,0.0,0.0,0.0,0.0,0.0,0.0,11.829401,2.7332685,-62.452698,-0.052303746,2.8018723E-5,0.032101728,518737.1,0.0,0.015676947,0.037056223,5043.3667,4224.2,6503.3438,6520.833,0.3236313,0.0,0.0,0.0
156.05142,156.05142,2.066,0.0,0.0,222.07855,9704.0,0.0,100.0,0.032526396,0.0,6.0,0.0,1.0,4000000.0,110.0,1.0,0.0,0.0,10.0,0.0,0.0,-343.61105,-12.419027,55.787437,-0.08867931,-3.931322,-0.16601336,212.1702,211.91391,211.74217,211.46753,548.0,546.0,616.0,614.0,89.0,89.0,89.0,89.0,0.0,0.0,0.0,0.0,0.025405416,0.023695081,0.050381824,0.05008934,-47.06617,-2.3816898,-14.32143,-10.74627,676.4866,1986.0144,-1604.0948,-152.96642,0.0,0.0,0.0,2.0,1.0,2.9527376,0.010949749,-0.032965302,89.0,89.0,89.0,89.0,21.02244,21.02244,23.278507,23.278507,-0.044342954,-0.045901492,-0.045821432,-0.047207057,901.32416,0.0,0.0,0.0,0.0,0.0,0.0,0.0,0.0,0.0,0.0,0.0,0.0,0.0,11.524315,2.5836008,-60.547375,-0.007275788,0.002448664,0.0073362114,493182.03,0.0,0.015921213,0.039039783,4647.553,4534.2197,6404.1123,6308.812,0.3213606,0.0,0.0,0.0
159.03035,159.03035,2.133,0.0,0.0,215.11281,9399.0,0.0,100.0,-0.011890615,0.0,6.0,0.0,1.0,4000000.0,110.0,1.0,0.0,0.0,10.0,0.0,0.0,-343.0437,-12.29179,52.81084,-0.039994776,-3.8735628,-0.0991777,205.49072,205.0597,204.42296,204.55023,570.0,569.0,638.0,637.0,89.0,89.0,89.0,89.0,0.0,0.0,0.0,0.0,0.024958337,0.023983106,0.049958576,0.049957797,0.0,0.0,0.0,0.0,-1503.5322,-2722.301,87.10475,66.88087,0.0,0.0,0.0,2.0,1.0,2.95289,0.01082298,-0.03190732,89.0,89.0,89.0,89.0,21.02244,21.02244,23.278507,23.278507,-0.0441551,-0.04645233,-0.0488001,-0.048798356,826.6482,0.0,0.0,0.0,0.0,0.0,0.0,0.0,0.0,0.0,0.0,0.0,0.0,0.0,11.189224,2.4996061,-58.643337,-0.02966535,0.004244659,-0.015148113,466999.16,0.0,0.019222457,0.04076134,4560.506,4301.041,6216.921,6237.7104,0.32308483,0.0,0.0,0.0
162.0641,162.0641,2.183,0.0,0.0,208.32225,9032.0,0.0,100.0,-0.29964653,0.0,6.0,0.0,1.0,4000000.0,110.0,1.0,0.0,0.0,10.0,0.0,0.0,-342.49338,-12.170879,49.927433,0.011557221,-3.8477263,-0.2114354,197.30475,197.13452,196.44894,197.31972,591.0,590.0,658.0,657.0,89.0,89.0,89.0,89.0,0.0,0.0,0.0,0.0,0.022423258,0.02187893,0.04919979,0.049615048,0.0,0.0,0.0,0.0,168.9791,38.93234,570.6533,38.462875,0.0,0.0,0.0,2.0,1.0,2.953169,0.010631492,-0.030232549,89.0,89.0,89.0,89.0,21.02244,21.02244,23.278507,23.278507,-0.05216339,-0.05329129,-0.056700982,-0.052943822,730.55615,0.0,0.0,0.0,0.0,0.0,0.0,0.0,0.0,0.0,0.0,0.0,0.0,0.0,10.838612,2.3425753,-56.794895,-0.032493826,0.009074086,0.008526419,429483.7,0.0,0.022544175,0.045587625,3999.0293,3937.4236,5819.495,5998.138,0.32876968,0.0,0.0,0.0
165.0468,165.0468,2.216,0.0,0.0,201.46902,10260.0,0.0,100.0,-0.71270967,0.0,5.0,0.0,1.0,4000000.0,110.0,1.0,0.0,0.0,10.0,0.0,0.0,-341.96136,-12.057298,47.136887,0.08286321,-3.8568153,-0.09253964,191.19803,191.45389,190.60593,191.29012,610.0,609.0,676.0,675.0,89.0,89.0,89.0,89.0,0.0,0.0,0.0,0.0,0.020738283,0.02058567,0.049324762,0.04963428,-18.067135,-8.521936,-1.5317647,-1.4043598,986.77795,1205.3846,-448.34457,-167.73192,0.0,0.0,0.0,2.0,1.0,2.954085,0.010127017,-0.029809237,89.0,89.0,89.0,89.0,21.02244,21.02244,23.278507,23.278507,-0.05025567,-0.04995229,-0.053243656,-0.050598316,1022.36304,0.0,0.0,0.0,0.0,0.0,0.0,0.0,0.0,0.0,0.0,0.0,0.0,0.0,10.455596,2.2192383,-54.933434,0.009069223,0.026421776,7.4364874E-4,529096.4,0.0,0.02345507,0.04797007,3957.6707,4036.1511,5962.775,6100.2534,0.3311615,0.0,0.0,0.0
167.94974,167.94974,2.283,0.0,0.0,194.7791,9873.0,0.0,100.0,-0.61130184,0.0,5.0,0.0,1.0,4000000.0,110.0,1.0,0.0,0.0,10.0,0.0,0.0,-341.44888,-11.949171,44.4379,0.11083633,-3.855544,-0.06364587,183.7708,184.61485,182.6858,183.64827,627.0,626.0,692.0,692.0,89.0,89.0,89.0,89.0,0.0,0.0,0.0,0.0,0.019994045,0.020774135,0.048917014,0.04919848,0.0,0.0,0.0,0.0,1334.7408,503.7322,2222.9878,1351.927,0.0,0.0,0.0,2.0,1.0,2.9555783,0.01025456,-0.030174732,89.0,89.0,89.0,89.0,21.02244,21.02244,23.278507,23.278507,-0.055934347,-0.052419208,-0.062685885,-0.05837499,941.62036,0.0,0.0,0.0,0.0,0.0,0.0,0.0,0.0,0.0,0.0,0.0,0.0,0.0,10.057921,2.112595,-53.12023,-0.0025152708,0.03029832,-0.002665198,506411.7,0.0,0.023014888,0.047199193,3879.6128,4142.504,5722.0757,5813.775,0.33065605,0.0,0.0,0.0
170.77104,170.77104,2.333,0.0,0.0,188.01132,9532.0,0.0,100.0,0.67320526,0.0,5.0,0.0,1.0,4000000.0,110.0,1.0,0.0,0.0,10.0,0.0,0.0,-340.95615,-11.844487,41.830795,0.021258354,-3.7816327,0.039292708,177.546,177.96857,176.86383,177.72487,643.0,642.0,708.0,707.0,89.0,89.0,89.0,89.0,0.0,0.0,0.0,0.0,0.020499159,0.020994399,0.048983514,0.049339097,0.0,0.0,0.0,0.0,-2388.433,-1724.5999,-65.942085,1386.8092,0.0,0.0,0.0,2.0,1.0,2.9564543,0.010605319,-0.02961576,89.0,89.0,89.0,89.0,21.02244,21.02244,23.278507,23.278507,-0.055372044,-0.052808847,-0.059380915,-0.055061564,861.3819,0.0,0.0,0.0,0.0,0.0,0.0,0.0,0.0,0.0,0.0,0.0,0.0,0.0,9.683639,2.0775745,-51.27767,-0.02137259,-9.23931E-4,1.177052E-4,479831.47,0.0,0.020718439,0.047371313,3873.243,4024.412,5697.6304,5925.7183,0.330122,0.0,0.0,0.0
173.51044,173.51044,2.366,0.0,0.0,181.39224,9134.0,0.0,100.0,2.3067832,0.0,5.0,0.0,0.0,4000000.0,110.0,1.0,0.0,0.0,10.0,0.0,0.0,-340.48013,-11.741382,39.314873,-0.17082399,-3.729165,0.087467745,170.39798,170.22614,172.93985,170.82812,658.0,657.0,722.0,721.0,89.0,89.0,89.0,89.0,0.0,0.0,0.0,0.0,0.019566903,0.019503575,0.050090026,0.048927426,-19.644722,-22.814869,21.761654,-12.307762,-31.026533,693.86053,-509.4185,-85.52221,0.0,0.0,0.0,2.0,1.0,2.9550564,0.010482594,-0.029989123,89.0,89.0,89.0,89.0,21.02244,21.02244,23.278507,23.278507,-0.060852345,-0.060310893,-0.04754941,-0.056170095,756.77094,0.0,0.0,0.0,0.0,0.0,0.0,0.0,0.0,0.0,0.0,0.0,0.0,0.0,9.391226,2.053566,-49.461205,0.043368958,-0.060866855,-0.0038756132,439926.8,0.0,0.014726728,0.04659909,3703.0776,3686.0127,6328.8237,5743.464,0.32973385,0.0,0.0,0.0
176.20525,176.20525,2.433,0.0,0.0,174.93547,8800.0,0.0,100.0,4.377752,0.0,5.0,0.0,0.0,4000000.0,110.0,1.0,0.0,0.0,10.0,0.0,0.0,-340.0158,-11.639398,36.889294,-0.4223909,-3.6133595,0.025534488,164.68752,163.68896,165.50963,156.01854,671.0,670.0,734.0,733.0,89.0,89.0,89.0,89.0,0.0,0.0,0.0,0.0,0.019385763,0.019665038,0.050142054,0.047248274,0.0,0.0,0.0,0.0,1592.3401,-476.6352,-424.24496,-198.28238,0.0,0.0,0.0,2.0,1.0,2.9497535,0.011091242,-0.03239107,89.0,89.0,89.0,89.0,21.02244,21.02244,23.278507,23.278507,-0.060724825,-0.06165883,-0.054673757,-0.098082826,675.3511,0.0,0.0,0.0,0.0,0.0,0.0,0.0,0.0,0.0,0.0,0.0,0.0,0.0,9.215017,2.0203328,-47.668644,0.03052068,-0.13702312,-0.016773539,407496.53,0.0,0.010961479,0.04151961,4047.7847,3758.9248,5824.0645,4541.584,0.32639313,0.0,0.0,0.0
178.86462,178.86462,2.483,0.0,0.0,168.7523,8699.0,0.0,100.0,6.8647346,0.0,5.0,0.0,0.0,4000000.0,110.0,1.0,0.0,0.0,10.0,0.0,0.0,-339.55655,-11.532401,34.557335,-0.71658385,-2.5635266,-0.44339854,165.07794,164.41351,167.88252,164.70898,684.0,683.0,747.0,745.0,89.0,89.0,89.0,89.0,0.0,0.0,0.0,0.0,0.021481352,0.020983273,0.04929911,0.04582923,0.0,0.0,0.0,0.0,-13296.996,-11092.348,-6357.545,-4948.9834,0.0,0.0,0.0,2.0,1.0,2.9402802,0.014581565,-0.033797264,89.0,89.0,89.0,89.0,21.02244,21.02244,23.278507,23.278507,-0.03467108,-0.031605065,-0.01902386,-0.04953531,652.13434,0.0,0.0,0.0,0.0,0.0,0.0,0.0,0.0,0.0,0.0,0.0,0.0,0.0,9.208732,2.1091478,-45.91379,0.0054529086,-0.22779904,-0.033145793,398056.53,0.0,0.019553423,0.041948874,2874.1765,2587.6052,4360.4297,2935.7224,0.33204556,0.0,0.0,0.0
181.419,181.419,2.533,0.0,0.0,165.34549,10056.0,0.0,100.0,10.471479,0.0,4.0,0.0,0.0,4000000.0,110.0,1.0,0.0,0.0,10.0,0.0,0.0,-339.08682,-11.435399,32.287056,-1.0632081,-2.1857455,-0.6185707,162.29382,160.95248,160.75488,152.08435,696.0,695.0,758.0,756.0,89.0,89.0,89.0,89.0,0.0,0.0,0.0,0.0,0.020798704,0.016499104,0.047150422,0.0413685,0.0,0.0,0.0,0.0,-617.6522,-121.77245,487.37076,3802.0845,0.0,0.0,0.0,2.0,1.0,2.9270954,0.013201633,-0.031333566,89.0,89.0,89.0,89.0,21.02244,21.02244,23.278507,23.278507,-0.028078526,-0.03231966,-0.04875597,-0.08984947,983.0364,0.0,0.0,0.0,0.0,0.0,0.0,0.0,0.0,0.0,0.0,0.0,0.0,0.0,9.540579,1.7804707,-44.892185,-0.12496287,-0.26318973,-0.03567887,519064.5,0.0,0.028094487,0.044290442,3987.4324,2099.6614,3880.2888,1627.0505,0.32690907,0.0,0.0,0.0
183.80402,183.80402,2.583,0.0,0.0,161.88261,9722.0,0.0,100.0,15.209585,0.0,4.0,0.0,0.0,4000000.0,110.0,1.0,0.0,0.0,10.0,0.0,0.0,-338.5978,-11.354587,30.069637,-1.5529569,-2.1950061,-0.45429227,157.45314,151.60422,155.72986,149.24358,707.0,706.0,768.0,766.0,89.0,89.0,89.0,89.0,0.0,0.0,0.0,0.0,0.021052044,0.012248349,0.047221188,0.041537754,0.0,0.0,0.0,0.0,2078.5642,-1894.9465,3126.8787,622.0444,0.0,0.0,0.0,2.0,1.0,2.9105656,0.010635712,-0.022921205,89.0,89.0,89.0,89.0,21.02244,21.02244,23.278507,23.278507,-0.031714242,-0.051956277,-0.041051567,-0.058668915,905.668,0.0,0.0,0.0,0.0,0.0,0.0,0.0,0.0,0.0,0.0,0.0,0.0,0.0,10.0140085,1.4848744,-43.813026,-0.2046477,-0.39982775,0.042154286,494641.38,0.0,0.033004984,0.049369976,4320.0884,1271.0178,4742.6523,2256.5503,0.3285246,0.0,0.0,0.0
185.94946,185.94946,2.633,0.0,0.0,158.24887,9418.0,0.0,100.0,20.175787,0.0,4.0,0.0,0.0,4000000.0,110.0,1.0,0.0,0.0,10.0,0.0,0.0,-338.08453,-11.2867985,27.912079,-1.4264129,-1.4238789,-0.9185668,152.66306,149.61528,154.09215,149.95924,718.0,716.0,778.0,776.0,89.0,89.0,89.0,89.0,0.0,0.0,0.0,0.0,0.018511722,0.0067300554,0.04667213,0.041441094,0.0,0.0,0.0,0.0,-1215.2015,-1821.5349,-6093.267,-6994.2886,0.0,0.0,0.0,2.0,1.0,2.8863225,0.008140521,-0.015719771,89.0,89.0,89.0,89.0,21.02244,21.02244,23.278507,23.278507,-0.039645508,-0.058714755,-0.038128942,-0.031049306,831.76416,0.0,0.0,0.0,0.0,0.0,0.0,0.0,0.0,0.0,0.0,0.0,0.0,0.0,10.51346,1.1875681,-42.66573,-0.11523472,-0.5610052,0.013646387,468941.34,0.0,0.037259456,0.059158187,3469.5876,16.18096,3326.239,1245.0593,0.34004784,0.0,0.0,0.0
188.04254,188.04254,2.666,0.0,0.0,154.51149,9261.0,0.0,100.0,24.730244,0.0,4.0,0.0,0.0,4000000.0,110.0,1.0,0.0,0.0,10.0,0.0,0.0,-337.54294,-11.2366,25.809208,-2.3709342,-2.2774298,-0.2314115,149.45354,146.34502,151.7688,146.08934,728.0,726.0,787.0,784.0,89.0,89.0,89.0,89.0,0.0,0.0,0.0,0.0,0.018459499,0.004385314,0.048907496,0.04190966,86.792816,-24.392984,91.178116,28.048752,5797.896,661.92224,2122.5525,1192.6173,0.0,0.0,0.0,2.0,1.0,2.8540485,0.0025670598,-0.012012601,89.0,89.0,89.0,89.0,21.02244,21.02244,23.278507,23.278507,-0.04380158,-0.03929678,-0.023349576,-0.046912618,789.8904,0.0,0.0,0.0,0.0,0.0,0.0,0.0,0.0,0.0,0.0,0.0,0.0,0.0,11.174569,0.9079842,-41.429684,-0.08718461,-0.73858124,0.18971027,452882.94,0.0,0.031393945,0.058255944,5204.3525,372.77072,5829.6543,2921.912,0.3402338,0.0,0.0,0.0
190.06714,190.06714,2.733,0.0,0.0,150.18867,9078.0,0.0,100.0,26.146805,0.0,4.0,0.0,0.0,4000000.0,110.0,1.0,0.0,0.0,10.0,0.0,0.0,-336.9602,-11.191494,23.777222,-2.802473,-2.376739,0.11177315,147.27588,144.25845,150.56982,136.94801,737.0,735.0,796.0,792.0,89.0,89.0,89.0,89.0,0.0,0.0,0.0,0.0,0.026025092,0.004711052,0.052398343,0.04095303,0.0,0.0,0.0,0.0,-3050.1208,3633.702,-5972.4473,1216.9583,0.0,0.0,0.0,2.0,1.0,2.8130157,-0.008100316,-0.013363957,89.0,89.0,89.0,89.0,21.02244,21.02244,23.278507,23.278507,-0.03678012,-0.027099617,-0.01705357,-0.090425625,742.22943,0.0,0.0,0.0,0.0,0.0,0.0,0.0,0.0,0.0,0.0,0.0,0.0,0.0,12.090262,0.91909105,-39.918194,0.017255686,-0.8517426,0.12638605,434135.22,0.0,0.027807176,0.05314446,6740.034,754.17004,7241.7725,2186.4302,0.3390932,0.0,0.0,0.0
192.02054,192.02054,2.783,0.0,0.0,146.24869,8822.0,0.0,100.0,25.051632,0.0,4.0,0.0,0.0,4000000.0,110.0,1.0,0.0,0.0,10.0,0.0,0.0,-336.32925,-11.144642,21.818964,-2.9058907,-2.2427404,0.11463711,142.73584,139.85121,145.6164,132.10486,746.0,743.0,804.0,800.0,89.0,89.0,89.0,89.0,0.0,0.0,0.0,0.0,0.027651351,0.008741341,0.05151998,0.040356815,0.0,0.0,0.0,0.0,-2408.1943,-3078.4446,1029.0026,1369.0128,0.0,0.0,0.0,2.0,1.0,2.7714744,-0.009680614,-0.01515913,89.0,89.0,89.0,89.0,21.02244,21.02244,23.278507,23.278507,-0.032771535,-0.038656812,-0.024041975,-0.090436876,680.4011,0.0,0.0,0.0,0.0,0.0,0.0,0.0,0.0,0.0,0.0,0.0,0.0,0.0,13.072164,0.9577239,-38.45208,-0.011403053,-0.78574973,0.026334884,409519.88,0.0,0.028772362,0.050179467,6720.302,1048.7478,6670.0107,1887.3896,0.33709717,0.0,0.0,0.0
193.8988,193.8988,2.816,0.0,0.0,142.22664,8530.0,0.0,100.0,23.343214,0.0,4.0,0.0,0.0,4000000.0,110.0,1.0,0.0,0.0,10.0,0.0,0.0,-335.65097,-11.095321,19.936558,-2.751482,-2.0957747,0.03124011,138.18669,135.32808,141.96332,131.51874,754.0,751.0,811.0,807.0,89.0,89.0,89.0,89.0,0.0,0.0,0.0,0.0,0.02624027,0.0077714957,0.051657263,0.040414374,-41.01343,-54.554394,3.5979598,-8.782446,-1382.0282,-1152.1964,-1011.7023,61.583515,0.0,0.0,0.0,2.0,1.0,2.7326422,-0.01386807,-0.014923573,89.0,89.0,89.0,89.0,21.02244,21.02244,23.278507,23.278507,-0.039893877,-0.039272122,-0.0095403595,-0.07653262,614.0337,0.0,0.0,0.0,0.0,0.0,0.0,0.0,0.0,0.0,0.0,0.0,0.0,0.0,13.973232,1.0014694,-36.940228,-0.011552831,-0.775269,0.049551666,382225.97,0.0,0.028298946,0.051860645,6091.1523,568.9021,6859.8237,1906.8845,0.33892345,0.0,0.0,0.0
195.70326,195.70326,2.883,0.0,0.0,138.54735,8285.0,0.0,100.0,21.413197,0.0,4.0,0.0,0.0,4000000.0,110.0,1.0,0.0,0.0,10.0,0.0,0.0,-334.93076,-11.046356,18.126534,-2.621234,-1.9814974,-0.11440254,134.07855,131.43172,137.76804,127.38538,761.0,759.0,818.0,813.0,89.0,89.0,89.0,89.0,0.0,0.0,0.0,0.0,0.023917016,0.0068073412,0.05040497,0.039953742,0.0,0.0,0.0,0.0,342.17603,1058.9259,-577.0637,1191.6785,0.0,0.0,0.0,2.0,1.0,2.6947823,-0.014012725,-0.015558004,89.0,89.0,89.0,89.0,21.02244,21.02244,23.278507,23.278507,-0.042736713,-0.041366447,-0.013684841,-0.076498054,560.61035,0.0,0.0,0.0,0.0,0.0,0.0,0.0,0.0,0.0,0.0,0.0,0.0,0.0,14.76486,0.95415336,-35.52763,0.0034985973,-0.72617394,-0.0011677993,359290.4,0.0,0.03133373,0.053724915,5704.691,760.3029,5954.835,1553.4429,0.3385992,0.0,0.0,0.0
197.44632,197.44632,2.933,0.0,0.0,134.8322,8066.0,0.0,100.0,19.229286,0.0,4.0,0.0,0.0,4000000.0,110.0,1.0,0.0,0.0,10.0,0.0,0.0,-334.17276,-10.999573,16.388187,-2.6149611,-1.9288237,-0.04441008,130.55486,127.884605,133.79333,124.921265,768.0,765.0,825.0,819.0,89.0,89.0,89.0,89.0,0.0,0.0,0.0,0.0,0.023263276,0.006279682,0.050090197,0.040123828,0.0,0.0,0.0,0.0,118.11778,-941.8324,-286.9293,382.01358,0.0,0.0,0.0,2.0,1.0,2.6600285,-0.016513983,-0.015017271,89.0,89.0,89.0,89.0,21.02244,21.02244,23.278507,23.278507,-0.04255295,-0.0396048,-0.010996657,-0.07316369,514.7504,0.0,0.0,0.0,0.0,0.0,0.0,0.0,0.0,0.0,0.0,0.0,0.0,0.0,15.495633,0.9252534,-34.084976,-0.037197035,-0.6731285,0.042225175,338856.25,0.0,0.03235175,0.05461007,5809.1343,509.3728,6113.8584,1704.6483,0.34263802,0.0,0.0,0.0
199.12976,199.12976,2.966,0.0,0.0,131.51717,7815.0,0.0,56.290318,17.560932,0.0,4.0,0.0,0.0,4000000.0,110.0,1.0,0.0,0.0,10.0,0.0,0.0,-333.37915,-10.954198,14.720011,-2.3546147,-1.6024916,-0.2527421,128.78445,119.8787,129.29192,115.304436,773.0,770.0,829.0,823.0,89.0,89.0,89.0,89.0,0.0,0.0,0.0,0.0,0.021029389,0.0029945746,0.050386366,0.041313723,-78.047806,-75.63206,-13.449713,26.751234,-2710.345,-971.26276,-1858.4622,195.66718,0.0,0.0,0.0,2.0,1.0,2.6270916,-0.017955504,-0.014178038,89.0,89.0,89.0,89.0,21.02244,21.02244,23.278507,23.278507,-0.029715946,-0.06924208,-0.0234402,-0.09354788,472.45203,0.0,0.0,0.0,0.0,0.0,0.0,0.0,0.0,0.0,0.0,0.0,0.0,0.0,16.183836,0.87220955,-32.740643,-0.033098027,-0.6249718,-0.009180035,321000.53,0.0,0.033285037,0.05733059,5416.7188,421.9299,5004.1465,1201.0803,0.3416891,0.0,0.0,0.0
200.76077,200.76077,3.033,0.0,0.0,128.94162,9232.0,0.45319292,35.723347,18.36544,0.0,3.0,0.0,0.0,4000000.0,110.0,1.0,0.0,0.0,10.0,0.0,0.0,-332.55008,-10.912162,13.115079,-2.7408779,-1.2591314,-0.0338346,127.09767,125.172356,128.72519,122.3854,775.0,771.0,830.0,824.0,89.0,89.0,89.0,89.0,0.0,0.0,0.0,0.0,0.018157203,6.6948595E-4,0.052712098,0.041894548,0.0,0.0,0.0,0.0,1652.3748,-30.942305,1506.3147,-1738.3663,0.0,0.0,0.0,2.0,1.0,2.5965364,-0.021332491,-0.012221336,89.0,89.0,89.0,89.0,21.02244,21.02244,23.278507,23.278507,-0.025555141,-0.014001703,-0.009648573,-0.029938284,782.1701,0.0,0.0,0.0,0.0,0.0,0.0,0.0,0.0,0.0,0.0,0.0,0.0,0.0,16.970957,0.8333318,-31.530272,-0.06624822,-0.62529576,0.07715771,449865.22,0.0,0.028348863,0.058702126,5849.05,573.13336,6129.5796,1381.4773,0.3425598,0.0,0.0,0.0
202.34238,202.34238,3.083,0.0,0.0,126.687935,9230.0,7.4814982,11.303659,19.838743,0.0,3.0,0.0,0.0,4000000.0,110.0,1.0,0.0,0.0,10.0,0.0,0.0,-331.6794,-10.869571,11.570856,-2.727579,-0.979362,-0.016958512,126.83009,125.39122,127.3076,120.78792,774.0,771.0,829.0,823.0,89.0,89.0,89.0,89.0,0.0,0.0,0.0,0.0,0.016524073,-0.0017974747,0.05376534,0.04264689,0.0,0.0,0.0,0.0,613.2133,354.7112,-1285.4218,-573.8451,0.0,0.0,0.0,2.0,1.0,2.564708,-0.024650306,-0.012765169,89.0,89.0,89.0,89.0,21.02244,21.02244,23.278507,23.278507,-0.012272246,0.0033037756,-0.0040519806,-0.028496876,781.80304,0.0,0.0,0.0,0.0,0.0,0.0,0.0,0.0,0.0,0.0,0.0,0.0,0.0,17.818003,0.8648726,-30.334532,0.011141358,-0.6389372,0.037924435,449751.53,0.0,0.024406385,0.058694758,6110.769,714.3357,6092.8115,1056.3894,0.34161758,0.0,0.0,0.0
203.89998,203.89998,3.133,0.0,0.0,125.41288,9315.0,20.067139,1.0769795,21.483444,0.0,3.0,0.0,0.0,4000000.0,110.0,1.0,0.0,0.0,10.0,0.0,0.0,-330.76505,-10.826929,10.0805435,-2.5567236,-0.41960943,-0.1627925,127.41197,126.191956,126.40634,121.46039,773.0,769.0,828.0,821.0,89.0,89.0,89.0,89.0,0.0,0.0,0.0,0.0,0.016174715,-0.002095559,0.052783713,0.04246779,0.0,0.0,0.0,0.0,289.53775,917.60706,71.76257,8.167304,0.0,0.0,0.0,2.0,1.0,2.5338476,-0.024660522,-0.014016151,89.0,89.0,89.0,89.0,21.02244,21.02244,23.278507,23.278507,0.0034027821,0.0177294,5.818533E-7,-0.015838157,804.2425,0.0,0.0,0.0,0.0,0.0,0.0,0.0,0.0,0.0,0.0,0.0,0.0,0.0,18.71489,0.83229226,-29.371254,0.019778011,-0.5871262,-0.013810877,458438.6,0.0,0.022411117,0.056283563,5998.193,1036.8142,5145.188,470.18524,0.33663177,0.0,0.0,0.0
205.55606,205.55606,3.183,0.0,0.0,124.73848,9424.0,28.003355,0.0,22.958775,0.0,3.0,0.0,0.0,4000000.0,110.0,1.0,0.0,0.0,10.0,0.0,0.0,-329.80148,-10.783277,8.636458,-2.8421388,-0.25121093,0.31316563,127.58837,128.08841,126.14212,122.5458,771.0,767.0,826.0,820.0,89.0,89.0,89.0,89.0,0.0,0.0,0.0,0.0,0.021051593,9.864966E-4,0.05532583,0.04333213,0.0,0.0,0.0,0.0,3273.247,-19350.824,4026.5452,-11989.299,0.0,0.0,0.0,2.0,1.0,2.5036175,-0.030914044,-0.015604258,89.0,89.0,89.0,89.0,21.02244,21.02244,23.278507,23.278507,0.0072467965,0.04196007,-3.8611088E-5,0.0015981175,833.32294,0.0,0.0,0.0,0.0,0.0,0.0,0.0,0.0,0.0,0.0,0.0,0.0,0.0,19.785461,0.9627413,-28.428892,-0.045981742,-0.6685492,0.21949969,469521.06,0.0,0.02586051,0.052178755,6746.5156,779.40564,6923.4565,1413.9548,0.3376894,0.0,0.0,0.0
207.24284,207.24284,3.216,0.0,0.0,124.68802,9459.0,33.899445,0.0,22.8433,0.0,3.0,0.0,0.0,4000000.0,110.0,1.0,0.0,0.0,10.0,0.0,0.0,-328.7874,-10.73497,7.2336597,-2.117942,0.10039282,-0.26236886,127.57371,128.24489,125.51427,122.5458,769.0,765.0,824.0,818.0,89.0,89.0,89.0,89.0,0.0,0.0,0.0,0.0,0.0216126,0.0034807455,0.050934397,0.042325713,-58.108715,56.42173,-98.896614,11.351108,-2560.4902,-1666.1145,1451.7722,209.17204,0.0,0.0,0.0,2.0,1.0,2.4751873,-0.030343855,-0.017377496,89.0,89.0,89.0,89.0,21.02244,21.02244,23.278507,23.278507,0.01294197,0.039356638,1.6898836E-4,-0.0018634346,842.9114,0.0,0.0,0.0,0.0,0.0,0.0,0.0,0.0,0.0,0.0,0.0,0.0,0.0,20.697092,0.9355062,-27.75567,0.010689294,-0.47453257,-0.07965852,473166.2,0.0,0.0365194,0.053056523,5888.3867,1570.8884,3830.2292,0.0,0.33875847,0.0,0.0,0.0
208.98427,208.98427,3.283,0.0,0.0,124.89688,9550.0,40.929276,0.0,23.07058,0.0,3.0,0.0,0.0,4000000.0,110.0,1.0,0.0,0.0,10.0,0.0,0.0,-327.7333,-10.693258,5.858618,-1.7347244,0.18793595,-0.39279228,128.0111,129.82735,125.21982,122.5458,767.0,763.0,822.0,816.0,89.0,89.0,89.0,89.0,0.0,0.0,0.0,0.0,0.016606422,0.0032266378,0.050783694,0.041854475,0.0,0.0,0.0,0.0,332.70078,896.4377,9079.773,-3426.3875,0.0,0.0,0.0,2.0,1.0,2.4560766,-0.02650184,-0.011755466,89.0,89.0,89.0,89.0,21.02244,21.02244,23.278507,23.278507,0.018192844,0.0462135,-7.597189E-4,-0.007201764,865.4657,0.0,0.0,0.0,0.0,0.0,0.0,0.0,0.0,0.0,0.0,0.0,0.0,0.0,21.424776,0.74514014,-27.277613,-0.04908802,-0.34166664,-0.16088633,481197.66,0.0,0.03979352,0.061385103,4499.4946,1474.9705,4315.461,0.0,0.34958267,0.0,0.0,0.0
210.79735,210.79735,3.333,0.0,0.0,125.04034,9862.0,48.638134,0.0,23.621218,0.0,3.0,0.0,0.0,4000000.0,110.0,1.0,0.0,0.0,10.0,0.0,0.0,-326.64633,-10.662641,4.5046167,-1.1270442,-0.15037456,-0.8787517,131.9105,136.00343,125.781784,122.5458,765.0,761.0,821.0,814.0,89.0,89.0,89.0,89.0,0.0,0.0,0.0,0.0,0.0071459515,5.452097E-4,0.050665054,0.042232294,0.0,0.0,0.0,0.0,-10457.051,-7267.0903,16753.96,-6237.8115,0.0,0.0,0.0,2.0,1.0,2.4384882,-0.014877273,-0.005671501,89.0,89.0,89.0,89.0,21.02244,21.02244,23.278507,23.278507,0.045261648,0.085544005,-9.0578536E-4,-0.0073292493,938.9974,0.0,0.0,0.0,0.0,0.0,0.0,0.0,0.0,0.0,0.0,0.0,0.0,0.0,21.968323,0.4358403,-26.90007,0.10881372,-0.46278572,-0.23472333,505564.28,0.0,0.031616155,0.069167085,1043.0892,0.0,4383.6475,0.0,0.34051895,0.0,0.0,0.0
213.77452,213.77452,3.383,0.0,0.0,125.3185,9522.0,58.388645,0.0,23.329645,0.0,3.0,0.0,0.0,4000000.0,110.0,1.0,0.0,0.0,10.0,0.0,0.0,-325.52704,-10.645937,3.1730318,-2.8595567,-0.066944,0.7205273,128.18265,129.4219,127.06947,123.05953,763.0,759.0,819.0,813.0,89.0,89.0,89.0,89.0,0.0,0.0,0.0,0.0,0.0113691995,0.010398268,0.056750685,0.044741314,0.0,0.0,0.0,0.0,20527.865,-42961.207,12745.883,-3023.493,0.0,0.0,0.0,2.0,1.0,2.4102154,-0.011446922,-0.007382512,89.0,89.0,89.0,89.0,21.02244,21.02244,23.278507,23.278507,0.0068250843,0.05230981,-6.116821E-4,8.823244E-4,859.0661,0.0,0.0,0.0,0.0,0.0,0.0,0.0,0.0,0.0,0.0,0.0,0.0,0.0,22.863857,0.42614222,-26.245892,-0.0953096,-0.71719116,0.3684965,479044.0,0.0,0.01211036,0.053450957,6219.633,625.17017,8854.097,2836.9697,0.34052372,0.0,0.0,0.0
217.3249,217.3249,3.433,0.0,0.0,125.93642,9469.0,68.13916,0.0,20.371103,0.0,3.0,0.0,0.0,4000000.0,110.0,1.0,0.0,0.0,10.0,0.0,0.0,-324.35486,-10.611628,1.8841178,-2.7169528,0.7294356,0.8357386,127.40189,125.77932,127.62816,123.031,761.0,758.0,817.0,811.0,89.0,89.0,89.0,89.0,0.0,0.0,0.0,0.0,0.03862664,0.019733064,0.05606627,0.043889675,0.0,0.0,0.0,0.0,338.63522,22155.615,-24399.006,-1116.2548,0.0,0.0,0.0,2.0,1.0,2.3714426,-0.012855399,-0.026085496,89.0,89.0,89.0,89.0,21.02244,21.02244,23.278507,23.278507,0.018613063,0.03530643,-2.8646955E-5,-0.004481118,845.6234,0.0,0.0,0.0,0.0,0.0,0.0,0.0,0.0,0.0,0.0,0.0,0.0,0.0,24.011045,0.9161987,-25.424284,0.35431635,-0.6646939,0.12347808,474187.28,0.0,0.01852771,0.027807286,10178.316,4638.2563,5042.513,441.32858,0.3348055,0.0,0.0,0.0
221.00122,221.00122,3.483,0.0,0.0,127.18242,9697.0,76.98329,0.0,20.051311,0.0,3.0,0.0,0.0,4000000.0,110.0,1.0,0.0,0.0,10.0,0.0,0.0,-323.12924,-10.558245,0.6263154,-1.7892951,0.84171546,0.0032122703,131.65735,133.15381,127.79402,125.13396,759.0,756.0,815.0,809.0,89.0,89.0,89.0,89.0,0.0,0.0,0.0,0.0,0.037592098,0.026611418,0.04796739,0.04452371,0.0,0.0,0.0,0.0,-16118.532,-9923.48,1894.887,332.12445,0.0,0.0,0.0,2.0,1.0,2.3478007,-0.0043429877,-0.029170275,89.0,89.0,89.0,89.0,21.02244,21.02244,23.278507,23.278507,0.031264782,0.050100893,-0.0011506317,-0.008775458,899.7656,0.0,0.0,0.0,0.0,0.0,0.0,0.0,0.0,0.0,0.0,0.0,0.0,0.0,24.950987,1.1172326,-24.985983,-0.0900152,-0.38189924,-0.09957867,492684.62,0.0,0.032108884,0.031680353,6929.8726,3783.2654,2242.2822,904.1703,0.32945347,0.0,0.0,0.0
224.75908,224.75908,3.516,0.0,0.0,127.97855,9928.0,85.25978,0.0,22.595879,0.0,3.0,0.0,0.0,4000000.0,110.0,1.0,0.0,0.0,10.0,0.0,1.0,-321.8575,-10.499339,-0.60931253,-1.8424253,0.03978634,-0.21490332,131.06514,139.75829,129.68886,125.96799,757.0,754.0,813.0,807.0,89.0,89.0,89.0,89.0,0.0,0.0,0.0,0.0,0.03434702,0.009451945,0.0482286,0.046555903,-229.31433,-490.8339,28.975454,-16.902609,-21876.203,-9476.751,3153.151,-2978.7134,0.0,0.0,0.0,2.0,1.0,2.3216627,-0.019158475,-0.020582557,89.0,89.0,89.0,89.0,21.02244,21.02244,23.278507,23.278507,0.015196072,0.10532883,-7.9466926E-4,7.483118E-4,954.8632,0.0,0.0,0.0,0.0,0.0,0.0,0.0,0.0,0.0,0.0,0.0,0.0,0.0,25.801155,1.1787854,-24.427132,-0.42269185,-0.68944526,0.18489254,510688.88,0.0,0.028084723,0.044450138,4396.5815,222.99374,3411.662,2321.81,0.3396864,0.0,0.0,0.0
227.77567,227.77567,3.583,0.0,0.0,127.572685,9863.0,88.32075,0.0,24.847544,0.0,3.0,0.0,0.0,4000000.0,110.0,1.0,0.0,0.0,10.0,0.0,1.0,-320.5514,-10.440391,-1.8089299,-1.6662806,-0.15029985,-0.4978611,131.16295,137.16154,129.61487,125.19069,755.0,752.0,812.0,806.0,89.0,89.0,89.0,89.0,0.0,0.0,0.0,0.0,0.02781186,-0.0052356524,0.049475167,0.04381696,0.0,0.0,0.0,0.0,652.0248,4866.877,-1197.3246,-3602.4204,0.0,0.0,0.0,2.0,1.0,2.2824516,-0.041971236,-0.016572952,89.0,89.0,89.0,89.0,21.02244,21.02244,23.278507,23.278507,0.01119551,0.0950602,3.261738E-4,0.0013782086,939.13226,0.0,0.0,0.0,0.0,0.0,0.0,0.0,0.0,0.0,0.0,0.0,0.0,0.0,26.377827,1.1040951,-23.63815,-0.2370411,-0.814068,0.077985786,505585.66,0.0,0.036350403,0.05713801,5584.271,0.0,3247.0156,176.5914,0.34228134,0.0,0.0,0.0
