LapDistance [m],TotalDistance [m],LapTime [s],Sector1Time [s],Sector2Time [s],Speed [km/h],EngineRevs [rpm],ThrottlePercentage [%],BrakePercentage [%],Steer [%],Clutch [%],Gear [int],DRS [0/1],CanUseDRS [0/1],KERSLevel [J],EngineTemperature [C],RacePosition [int],Sector [int],InPits [int],FuelRemaining [kg],CurrentFlag [int],CurrentLapInvalid [int],X [m],Y [m],Z [m],GForceLatitudinal [G],GForceLongitudinal [G],GForceVertical [G],WheelSpeedRearLeft [km/h],WheelSpeedRearRight [km/h],WheelSpeedFrontLeft [km/h],WheelSpeedFrontRight [km/h],BrakeTemperatureRearLeft [C],BrakeTemperatureRearRight [C],BrakeTemperatureFrontLeft [C],BrakeTemperatureFrontRight [C],TyreTemperatureRearLeft [C],TyreTemperatureRearRight [C],TyreTemperatureFrontLeft [C],TyreTemperatureFrontRight [C],TyreWearRearLeft [%],TyreWearRearRight [%],TyreWearFrontLeft [%],TyreWearFrontRight [%],SuspensionPositionRearLeft [m],SuspensionPositionRearRight [m],SuspensionPositionFrontLeft [m],SuspensionPositionFrontRight [m],SuspensionVelocityRearLeft [m/s],SuspensionVelocityRearRight [m/s],SuspensionVelocityFrontLeft [m/s],SuspensionVelocityFrontRight [m/s],SuspensionAccelerationRearLeft [m/s^2],SuspensionAccelerationRearRight [m/s^2],SuspensionAccelerationFrontLeft [m/s^2],SuspensionAccelerationFrontRight [m/s^2],MGUKHarvested [J],MGUHHarvested [J],ERSSpent [J],ERSMode [int],FuelMixMode [int],Yaw [rad],Roll [rad],Pitch [rad],TyreCarcassTemperatureRearLeft [C],TyreCarcassTemperatureRearRight [C],TyreCarcassTemperatureFrontLeft [C],TyreCarcassTemperatureFrontRight [C],TyrePressureRearLeft [PSI],TyrePressureRearRight [PSI],TyrePressureFrontLeft [PSI],TyrePressureFrontRight [PSI],WheelSlipRearLeft [%],WheelSlipRearRight [%],WheelSlipFrontLeft [%],WheelSlipFrontRight [%],Torque [Nm],Handbrake [%],RearLeftInside [C],RearLeftMiddle [C],RearLeftOutside [C],RearRightInside [C],RearRightMiddle [C],RearRightOutside [C],FrontLeftInside [C],FrontLeftMiddle [C],FrontLeftOutside [C],FrontRightInside [C],FrontRightMiddle [C],FrontRightOutside [C],WoldSpeedX [km/h],WoldSpeedY [km/h],WoldSpeedZ [km/h],LocalAngularVelocityX [rad/s],LocalAngularVelocityY [rad/s],LocalAngularVelocityZ [rad/s],IcePower [W],MgukPower [W],FrontRideHeight [m],RearRideHeight [m],LoadRearLeft [N],LoadRearRight [N],LoadFrontLeft [N],LoadFrontRight [N],Extra1 [m],Extra2 [],Extra3 [],Extra4 []
2.8011408,2.8011408,0.016,0.0,0.0,305.12552,10984.0,100.0,0.0,3.1990223,0.0,8.0,1.0,0.0,2994385.5,110.0,17.0,0.0,0.0,4.869769,0.0,0.0,375.22348,87.64829,1134.3683,-1.2725805,0.31191966,0.2188547,310.66113,310.74796,305.32413,304.47507,37.0,37.0,36.0,37.0,79.0,79.0,79.0,79.0,0.14260809,0.12766887,0.008939786,0.005239415,0.049943566,0.045684792,0.058270887,0.0541247,10.0969515,8.203089,-154.1224,-182.39758,645.3394,288.01556,-9175.018,-11041.231,0.0,1002.3574,1049.8854,2.0,1.0,0.13138278,-0.0062418845,0.001506567,80.0,80.0,80.0,80.0,21.500462,21.50036,24.300482,24.300358,0.017294446,0.020053199,-5.906415E-4,-4.0947692E-4,1136.493,0.0,0.0,0.0,0.0,0.0,0.0,0.0,0.0,0.0,0.0,0.0,0.0,0.0,12.027367,0.03583321,83.899376,-0.04170069,-0.14902797,-0.032034505,549393.2,119984.91,0.007898586,0.011845179,8456.15,6616.1064,7579.285,5670.384,0.303298,0.0,0.0,0.0
7.0349607,7.0349607,0.066,0.0,0.0,305.56628,10999.0,100.0,0.0,2.614576,0.0,8.0,1.0,0.0,2991235.2,110.0,17.0,0.0,0.0,4.8684144,0.0,0.0,375.80884,87.65107,1138.5688,-1.2757922,0.26176262,-0.041472364,311.12177,311.11835,305.87592,304.8506,37.0,37.0,36.0,37.0,79.0,79.0,79.0,79.0,0.14603084,0.12915972,0.009722794,0.0060165827,0.050106715,0.044944707,0.055273574,0.050123118,-22.396667,-20.973532,-42.989326,-41.355637,-1464.6334,-341.79385,755.68536,2276.8464,0.0,4008.8975,4200.102,2.0,1.0,0.12298886,-0.007338554,1.4281273E-4,80.0,80.0,80.0,80.0,21.501863,21.501402,24.301836,24.301268,0.016775394,0.019712519,-4.6809422E-4,-4.5282638E-4,1138.5732,0.0,0.0,0.0,0.0,0.0,0.0,0.0,0.0,0.0,0.0,0.0,0.0,0.0,11.421702,0.05645582,84.10752,-0.002274454,-0.17310032,0.0072271097,549648.2,119984.91,0.012149611,0.01260445,8488.769,6317.6475,6865.31,4587.457,0.3060732,0.0,0.0,0.0
11.273816,11.273816,0.116,0.0,0.0,305.98724,11020.0,100.0,0.0,2.546202,0.0,8.0,1.0,0.0,2988091.0,110.0,17.0,0.0,0.0,4.8670597,0.0,0.0,376.36356,87.65267,1142.7793,-1.3381773,0.25613928,-0.1124243,311.69812,311.72586,306.28873,305.2738,37.0,37.0,36.0,37.0,79.0,79.0,78.0,78.0,0.14603084,0.12915972,0.009722794,0.0060165827,0.049065467,0.04328174,0.05465764,0.049494743,-9.112581,-34.47689,2.1439788,-6.75179,836.51385,78.65569,792.539,226.57962,0.0,7020.9863,7344.4775,2.0,1.0,0.11438468,-0.007541773,6.2584877E-4,80.0,80.0,80.0,80.0,21.503191,21.502375,24.303125,24.302105,0.01733258,0.02031732,-4.6658024E-4,-4.4656932E-4,1140.8103,0.0,0.0,0.0,0.0,0.0,0.0,0.0,0.0,0.0,0.0,0.0,0.0,0.0,10.7952385,0.008735168,84.30813,0.00763834,-0.17158748,-0.018994184,549678.6,119984.91,0.013237819,0.014929299,8051.47,6014.107,6994.1265,4609.9214,0.3076725,0.0,0.0,0.0
15.51759,15.51759,0.166,0.0,0.0,306.40454,11031.0,100.0,0.0,2.545269,0.0,8.0,1.0,0.0,2984951.2,110.0,17.0,0.0,0.0,4.865705,0.0,0.0,376.8861,87.65224,1146.9998,-1.3926665,0.25629476,-0.034116205,312.02826,312.05463,306.69498,305.68863,37.0,37.0,36.0,37.0,79.0,78.0,78.0,78.0,0.14973333,0.1307258,0.010584853,0.006840108,0.049555127,0.042690493,0.055084642,0.049331285,13.346448,1.8844752,7.4838095,-1.0496377,75.759026,832.87946,-124.561775,141.4597,0.0,10037.51,10484.187,2.0,1.0,0.10584489,-0.0083378,6.930828E-4,80.0,80.0,80.0,80.0,21.504519,21.503342,24.30446,24.302935,0.017083526,0.020033414,-4.6893916E-4,-4.5056568E-4,1141.975,0.0,0.0,0.0,0.0,0.0,0.0,0.0,0.0,0.0,0.0,0.0,0.0,0.0,10.137596,-0.017373122,84.50648,-0.0047938875,-0.16980788,-0.0070408685,549691.1,119984.9,0.012723938,0.014596388,8283.447,6172.957,7272.9062,4636.9126,0.30723095,0.0,0.0,0.0
19.766119,19.766119,0.216,0.0,0.0,306.8151,11043.0,100.0,0.0,2.4011202,0.0,8.0,1.0,0.0,2981815.0,110.0,17.0,0.0,0.0,4.8643503,0.0,0.0,377.37527,87.65151,1151.23,-1.4013336,0.25222617,0.017015943,312.35657,312.40567,307.08618,306.1207,37.0,37.0,36.0,37.0,79.0,78.0,78.0,78.0,0.14973333,0.1307258,0.010584853,0.006840108,0.049847025,0.04351073,0.05514789,0.04951416,2.7691572,17.48599,-0.80846244,4.8661976,-144.46376,-64.238884,-88.35195,30.402859,0.0,13057.097,13620.669,2.0,1.0,0.09753734,-0.008134733,5.0127506E-4,80.0,80.0,80.0,80.0,21.505884,21.504322,24.3058,24.303764,0.016848506,0.019722473,-4.6334707E-4,-4.5615467E-4,1143.244,0.0,0.0,0.0,0.0,0.0,0.0,0.0,0.0,0.0,0.0,0.0,0.0,0.0,9.466602,-0.009334305,84.69903,-0.0018087816,-0.16220117,0.007930599,549704.0,119984.91,0.012220558,0.013579555,8475.5,6295.794,7292.414,4749.2715,0.30650997,0.0,0.0,0.0
24.017456,24.017456,0.266,0.0,0.0,307.21942,11058.0,100.0,0.0,2.3141975,0.0,8.0,1.0,0.0,2978682.2,110.0,17.0,0.0,0.0,4.8629956,0.0,0.0,377.83093,87.6514,1155.4698,-1.3851484,0.24910715,0.006193844,312.7493,312.8291,307.47098,306.54974,37.0,37.0,36.0,36.0,79.0,77.0,77.0,77.0,0.15339908,0.1322326,0.011399692,0.0076356204,0.04984244,0.043821402,0.055102743,0.049622055,-1.2955068,0.4611164,-1.0520964,0.92670316,-95.23182,-193.22632,-26.527042,-57.1981,0.0,16080.33,16753.312,2.0,1.0,0.08962921,-0.007927513,4.61936E-4,80.0,80.0,80.0,80.0,21.507254,21.505297,24.307121,24.304594,0.016845962,0.019678254,-4.636856E-4,-4.5378992E-4,1144.829,0.0,0.0,0.0,0.0,0.0,0.0,0.0,0.0,0.0,0.0,0.0,0.0,0.0,8.79783,0.002586476,84.88402,4.8839714E-4,-0.15473232,0.0023837727,549719.4,119984.91,0.012141039,0.013414316,8456.332,6287.377,7259.1387,4775.913,0.30640125,0.0,0.0,0.0
28.274624,28.274624,0.316,0.0,0.0,307.62216,11073.0,100.0,0.0,2.1367154,0.0,8.0,1.0,0.0,2975554.0,110.0,17.0,0.0,0.0,4.861641,0.0,0.0,378.25345,87.65155,1159.7188,-1.3424175,0.24807368,-0.015506834,313.15552,313.25293,307.8534,306.98306,37.0,37.0,36.0,36.0,78.0,77.0,77.0,77.0,0.15339908,0.1322326,0.011399692,0.0076356204,0.04970553,0.043743797,0.055025846,0.04964963,-3.173947,-1.3578682,-1.8945335,0.90859824,-28.860567,34.479794,-28.538702,27.331707,0.0,19107.58,19881.729,2.0,1.0,0.08211074,-0.0077627604,4.9972534E-4,80.0,80.0,80.0,80.0,21.508608,21.506258,24.308418,24.305408,0.016910555,0.019643964,-4.5925868E-4,-4.5868452E-4,1146.4146,0.0,0.0,0.0,0.0,0.0,0.0,0.0,0.0,0.0,0.0,0.0,0.0,0.0,8.143757,0.0032477782,85.06165,0.0012352362,-0.1456321,0.0050755716,549735.0,119984.91,0.012253494,0.013617682,8379.308,6281.6865,7212.172,4779.684,0.30655098,0.0,0.0,0.0
32.540802,32.540802,0.366,0.0,0.0,308.02847,11087.0,100.0,0.0,1.8457422,0.0,8.0,1.0,0.0,2972429.8,110.0,17.0,0.0,0.0,4.860286,0.0,0.0,378.6441,87.65157,1163.9764,-1.2670463,0.24873549,-0.020808328,313.54123,313.6615,308.21982,307.44476,37.0,37.0,36.0,36.0,78.0,77.0,76.0,76.0,0.1567903,0.13364838,0.012020013,0.008273555,0.049572956,0.043871842,0.05488877,0.049778607,-2.0945816,5.2231545,-3.1515954,3.4026055,37.577747,166.17622,-23.134045,43.465202,0.0,22138.766,23006.002,2.0,1.0,0.07525758,-0.007357936,5.072355E-4,80.0,80.0,80.0,80.0,21.509947,21.507217,24.309687,24.306213,0.016965082,0.019476881,-4.5514302E-4,-4.660578E-4,1147.8951,0.0,0.0,0.0,0.0,0.0,0.0,0.0,0.0,0.0,0.0,0.0,0.0,0.0,7.5210657,-0.002079889,85.23227,1.8246175E-4,-0.128843,0.009875343,549749.94,119984.91,0.012265096,0.013645731,8307.125,6343.755,7150.531,4848.827,0.30656624,0.0,0.0,0.0
36.816704,36.816704,0.416,0.0,0.0,308.4401,11100.0,100.0,0.0,1.6777074,0.0,8.0,1.0,0.0,2969309.5,110.0,17.0,0.0,0.0,4.8589315,0.0,0.0,379.0046,87.65136,1168.2424,-1.1794165,0.24934421,-0.010501328,313.91486,314.05734,308.59097,307.91135,37.0,37.0,36.0,36.0,78.0,76.0,76.0,76.0,0.1567903,0.13364838,0.012020013,0.008273555,0.04955863,0.04431407,0.05472683,0.049994703,0.2595037,10.20044,-3.2901762,4.7548857,35.981827,73.38523,-0.08046626,28.64599,0.0,25173.72,26126.307,2.0,1.0,0.0692637,-0.0068197697,4.4846535E-4,80.0,80.0,80.0,80.0,21.511276,21.508179,24.310932,24.30703,0.016944228,0.019253105,-4.599195E-4,-4.6333997E-4,1149.2715,0.0,0.0,0.0,0.0,0.0,0.0,0.0,0.0,0.0,0.0,0.0,0.0,0.0,6.9387608,-0.005095021,85.39637,-7.6100015E-4,-0.1130102,0.010941237,549764.44,119984.9,0.01210713,0.013332623,8280.927,6444.869,7085.7744,4960.7,0.3063612,0.0,0.0,0.0
41.1034,41.1034,0.466,0.0,0.0,308.85602,11114.0,100.0,0.0,1.5673656,0.0,8.0,1.0,0.0,2966193.2,110.0,17.0,0.0,0.0,4.857577,0.0,0.0,379.33713,87.65112,1172.5164,-1.0877359,0.24911788,-0.0018133963,314.30826,314.44843,308.98404,308.3637,37.0,37.0,36.0,36.0,78.0,76.0,75.0,75.0,0.15975383,0.13494606,0.012468099,0.008762118,0.049556743,0.04484795,0.054567676,0.05022055,-0.51073724,10.63764,-3.4265218,4.433468,-24.850662,-5.3376384,-17.903736,-7.7649875,0.0,28212.422,29242.67,2.0,1.0,0.063886024,-0.0062512127,3.7193298E-4,80.0,80.0,80.0,80.0,21.512596,21.509148,24.312145,24.307848,0.016912365,0.019052649,-4.6277148E-4,-4.6032516E-4,1150.752,0.0,0.0,0.0,0.0,0.0,0.0,0.0,0.0,0.0,0.0,0.0,0.0,0.0,6.3993998,-0.003483444,85.55434,-5.4744654E-4,-0.10335089,0.011957968,549779.25,119984.91,0.011958495,0.012980774,8253.605,6542.878,7016.793,5067.36,0.30612564,0.0,0.0,0.0
45.404564,45.404564,0.516,0.0,0.0,309.27405,11128.0,100.0,0.0,1.6091576,0.0,8.0,1.0,0.0,2963080.8,110.0,17.0,0.0,0.0,4.856222,0.0,0.0,379.64374,87.650986,1176.7981,-1.0198574,0.24787162,-0.0038611745,314.7248,314.84915,309.3946,308.7967,37.0,37.0,36.0,36.0,78.0,76.0,75.0,75.0,0.15975383,0.13494606,0.012468099,0.008762118,0.049514126,0.04523147,0.054408725,0.050409827,-0.12807547,6.2917914,-2.465844,3.1498072,56.044746,-78.74965,48.27976,-42.043617,0.0,31255.008,32354.941,2.0,1.0,0.05883818,-0.0057714754,3.2293797E-4,80.0,80.0,80.0,80.0,21.513905,21.510117,24.31333,24.308676,0.016894987,0.018938141,-4.708044E-4,-4.5041807E-4,1152.2338,0.0,0.0,0.0,0.0,0.0,0.0,0.0,0.0,0.0,0.0,0.0,0.0,0.0,5.8979588,-0.0023465473,85.706764,-4.18449E-4,-0.100538395,0.0066836798,549794.6,119984.91,0.011861815,0.012768845,8209.943,6602.121,6948.6836,5150.5796,0.30599213,0.0,0.0,0.0
49.716393,49.716393,0.566,0.0,0.0,309.6904,11143.0,100.0,0.0,1.8697289,0.0,8.0,1.0,0.0,2959972.8,110.0,17.0,0.0,0.0,4.8548665,0.0,0.0,379.92584,87.65091,1181.0873,-1.0041702,0.24473938,-0.005295385,315.15567,315.24423,309.83276,309.18985,37.0,37.0,36.0,36.0,77.0,75.0,74.0,74.0,0.16249636,0.13619578,0.012904336,0.009231071,0.049548298,0.045440484,0.05436757,0.050482072,1.1517851,0.13701616,-0.05073845,0.3430992,35.24422,-416.21173,46.17422,-77.810875,0.0,34301.543,35463.055,2.0,1.0,0.053636838,-0.005623795,2.9408932E-4,80.0,80.0,80.0,80.0,21.515205,21.511082,24.314495,24.30949,0.016826028,0.01891895,-4.8279972E-4,-4.336721E-4,1153.8196,0.0,0.0,0.0,0.0,0.0,0.0,0.0,0.0,0.0,0.0,0.0,0.0,0.0,5.4135475,-0.00116193,85.85461,-3.8961635E-4,-0.109720565,-9.30375E-4,549810.2,119984.91,0.011808775,0.01263499,8208.791,6614.461,6938.7163,5177.628,0.30590725,0.0,0.0,0.0
54.037697,54.037697,0.616,0.0,0.0,310.0987,11158.0,100.0,0.0,2.325227,0.0,8.0,1.0,0.0,2956868.8,110.0,17.0,0.0,0.0,4.8535104,0.0,0.0,380.18338,87.65083,1185.3838,-1.0643201,0.24012305,-0.0042303386,315.59744,315.61935,310.30374,309.5227,37.0,37.0,35.0,36.0,77.0,75.0,74.0,74.0,0.16249636,0.13619578,0.012904336,0.009231071,0.049680732,0.045354962,0.054473266,0.05041398,3.275424,-2.465844,3.3286211,-2.1450965,12.794136,-52.209187,60.859318,-52.638348,0.0,37352.08,38566.96,2.0,1.0,0.047538936,-0.005914379,2.912283E-4,80.0,80.0,80.0,80.0,21.516508,21.512035,24.31565,24.31029,0.016696727,0.019001856,-4.9252436E-4,-4.160324E-4,1155.4053,0.0,0.0,0.0,0.0,0.0,0.0,0.0,0.0,0.0,0.0,0.0,0.0,0.0,4.910772,-0.0011641498,85.99843,-4.399043E-4,-0.13466714,-0.010154548,549825.6,119984.914,0.011738088,0.0125617385,8273.859,6587.918,7002.593,5146.7373,0.3058281,0.0,0.0,0.0
58.369205,58.369205,0.683,0.0,0.0,310.4936,11172.0,100.0,0.0,2.6150427,0.0,8.0,1.0,0.0,2953769.0,110.0,17.0,0.0,0.0,4.8521543,0.0,0.0,380.4147,87.65083,1189.6874,-1.1698518,0.23405078,-0.008086994,316.03073,315.99567,310.76767,309.83154,37.0,37.0,35.0,36.0,77.0,74.0,73.0,73.0,0.16553758,0.137494,0.013548274,0.009866874,0.04982192,0.045104954,0.054687165,0.050233487,0.0,0.0,0.0,0.0,32.74977,-79.67502,38.462875,-26.057652,0.0,40406.555,41666.723,2.0,1.0,0.04010772,-0.006491838,3.168583E-4,80.0,80.0,80.0,80.0,21.517818,21.512964,24.316813,24.311058,0.016580608,0.019154059,-4.857898E-4,-4.1391514E-4,1156.887,0.0,0.0,0.0,0.0,0.0,0.0,0.0,0.0,0.0,0.0,0.0,0.0,0.0,4.3622637,-0.0010968073,86.13783,3.0372792E-4,-0.16091885,-0.013999865,549840.9,119984.91,0.0117293205,0.012611277,8372.427,6504.0254,7104.7534,5059.8623,0.30584145,0.0,0.0,0.0
62.71138,62.71138,0.716,0.0,0.0,310.8699,11186.0,100.0,0.0,2.8725724,0.0,8.0,1.0,0.0,2950673.2,110.0,17.0,0.0,0.0,4.850798,0.0,0.0,380.61682,87.65083,1193.9977,-1.3122076,0.22685292,-0.008520321,316.43576,316.37134,311.20264,310.12405,37.0,37.0,35.0,36.0,77.0,74.0,73.0,73.0,0.16553758,0.137494,0.013548274,0.009866874,0.050020628,0.044686418,0.054998826,0.04997991,4.1265783,-9.10744,6.6744533,-5.5249033,0.5900859,-33.380066,14.805793,-16.924751,0.0,43464.895,44762.414,2.0,1.0,0.031399876,-0.007317103,3.5762787E-4,80.0,80.0,80.0,80.0,21.519146,21.513866,24.317991,24.311796,0.016469326,0.019349579,-4.7753504E-4,-4.131376E-4,1158.3677,0.0,0.0,0.0,0.0,0.0,0.0,0.0,0.0,0.0,0.0,0.0,0.0,0.0,3.7458253,-9.1251225E-4,86.27147,1.2864493E-4,-0.1847354,-0.017079879,549855.56,119984.914,0.011678938,0.012693313,8501.845,6395.1025,7259.465,4947.84,0.30583572,0.0,0.0,0.0
67.05591,67.05591,0.766,0.0,0.0,311.22287,11199.0,100.0,0.0,3.3352852,0.0,8.0,1.0,0.0,2947581.5,110.0,17.0,0.0,0.0,4.849442,0.0,0.0,380.7861,87.65083,1198.3146,-1.4904044,0.21700682,-0.008585032,316.81216,316.73706,311.60437,310.38748,37.0,36.0,35.0,36.0,77.0,74.0,73.0,73.0,0.16933584,0.13897513,0.014699969,0.010898338,0.050247293,0.04419909,0.055353854,0.049679082,5.560666,-11.117756,8.092001,-6.8539376,73.78758,-104.01609,71.70888,-62.26747,0.0,46526.91,47854.234,2.0,1.0,0.021558587,-0.008283748,4.0733814E-4,80.0,80.0,80.0,80.0,21.520496,21.514742,24.31919,24.312494,0.016344983,0.01958879,-4.813989E-4,-3.962608E-4,1159.7434,0.0,0.0,0.0,0.0,0.0,0.0,0.0,0.0,0.0,0.0,0.0,0.0,0.0,3.0479856,4.605906E-4,86.39705,7.29267E-4,-0.20914362,-0.022302844,549869.56,119984.914,0.011633063,0.01277073,8655.55,6274.167,7431.138,4812.6387,0.30583286,0.0,0.0,0.0
71.40274,71.40274,0.816,0.0,0.0,311.5404,11212.0,100.0,0.0,4.1202326,0.0,8.0,1.0,0.0,2944493.5,110.0,17.0,0.0,0.0,4.848086,0.0,0.0,380.91776,87.650925,1202.6373,-1.7229106,0.20251636,-0.013876428,317.1808,317.1198,311.99533,310.5644,37.0,36.0,35.0,36.0,77.0,73.0,72.0,72.0,0.16933584,0.13897513,0.014699969,0.010898338,0.05051867,0.04348449,0.05582067,0.04926461,5.4354963,-16.323029,9.956806,-9.330064,-6.0751815,-127.43172,34.855324,-66.0494,0.0,49592.562,50942.23,2.0,1.0,0.01013501,-0.009584792,4.8422813E-4,80.0,80.0,80.0,80.0,21.521873,21.51558,24.320415,24.313147,0.016200174,0.0201195,-4.8938347E-4,-3.6338982E-4,1161.1195,0.0,0.0,0.0,0.0,0.0,0.0,0.0,0.0,0.0,0.0,0.0,0.0,0.0,2.2438345,0.0024627955,86.50991,0.0015168505,-0.24762818,-0.029268635,549883.7,119984.91,0.011656242,0.0130028995,8840.701,6093.691,7650.599,4620.705,0.3059187,0.0,0.0,0.0
75.75454,75.75454,0.866,0.0,0.0,311.81775,11224.0,100.0,0.0,4.3847113,0.0,8.0,1.0,0.0,2941409.2,110.0,17.0,0.0,0.0,4.8467298,0.0,0.0,381.0061,87.65106,1206.9655,-1.9419308,0.18944195,-0.020120803,317.51425,317.45493,312.34595,310.70868,37.0,36.0,35.0,36.0,77.0,73.0,72.0,72.0,0.17450757,0.14090477,0.01659838,0.012466752,0.050732587,0.042605855,0.056321524,0.04880147,2.9832869,-17.205923,9.341016,-8.434206,-90.57818,41.65466,-59.263397,65.31177,0.0,52661.656,54026.598,2.0,1.0,-0.003238628,-0.010957663,6.021261E-4,80.0,80.0,80.0,80.0,21.523283,21.516375,24.321686,24.313747,0.016130751,0.020623632,-4.6393654E-4,-3.688961E-4,1162.3889,0.0,0.0,0.0,0.0,0.0,0.0,0.0,0.0,0.0,0.0,0.0,0.0,0.0,1.3250378,0.0031007505,86.6059,0.0026382827,-0.28126934,-0.023849573,549896.3,119984.91,0.011707195,0.013355528,9017.723,5913.363,7882.16,4420.668,0.30607128,0.0,0.0,0.0
80.111275,80.111275,0.916,0.0,0.0,312.06528,11234.0,100.0,0.0,3.7069001,0.0,8.0,1.0,0.0,2938328.0,110.0,16.0,0.0,0.0,4.8453736,0.0,0.0,381.0463,87.6512,1211.2979,-2.0561385,0.18484767,-0.02529399,317.7562,317.7811,312.58417,310.95197,36.0,36.0,35.0,36.0,77.0,73.0,72.0,72.0,0.17450757,0.14090477,0.01659838,0.012466752,0.050765544,0.041952148,0.05663964,0.048526257,-0.39383766,-10.23665,4.337355,-3.9180365,-65.68729,185.44789,-132.64864,100.623055,0.0,55733.773,57107.785,2.0,1.0,-0.017354516,-0.0117593,7.0369244E-4,80.0,80.0,80.0,80.0,21.524715,21.517143,24.322989,24.31431,0.016226767,0.020865874,-4.1820345E-4,-4.231214E-4,1163.4471,0.0,0.0,0.0,0.0,0.0,0.0,0.0,0.0,0.0,0.0,0.0,0.0,0.0,0.328286,0.0031069366,86.68418,0.0015431233,-0.27497625,-0.007783076,549907.0,119984.914,0.01175761,0.013678675,9103.994,5821.118,8019.9194,4312.988,0.3062048,0.0,0.0,0.0
84.47404,84.47404,0.966,0.0,0.0,312.30936,11242.0,100.0,0.0,2.5526307,0.0,8.0,1.0,0.0,2935249.2,110.0,16.0,0.0,0.0,4.8440175,0.0,0.0,381.03598,87.6513,1215.6339,-2.0148382,0.18969819,-0.030990265,317.90533,318.09308,312.70673,311.35596,36.0,36.0,35.0,36.0,77.0,73.0,72.0,72.0,0.18028247,0.14300339,0.01813474,0.013822495,0.050636794,0.04180166,0.056633387,0.048527434,-3.7957726,0.88311726,-2.470985,2.3612378,-82.00853,258.10895,-156.74828,163.44037,0.0,58808.383,60186.348,2.0,1.0,-0.029885145,-0.01166987,7.4625015E-4,80.0,80.0,80.0,80.0,21.526152,21.517902,24.324287,24.314863,0.016412225,0.020641763,-3.9002282E-4,-4.8342862E-4,1164.2941,0.0,0.0,0.0,0.0,0.0,0.0,0.0,0.0,0.0,0.0,0.0,0.0,0.0,-0.6771885,5.143939E-4,86.749954,-1.4875474E-4,-0.22183144,0.012496421,549915.7,119984.9,0.011816412,0.013832514,9055.865,5856.822,7996.6797,4328.8813,0.30629635,0.0,0.0,0.0
88.83371,88.83371,1.016,0.0,0.0,312.581,11249.0,100.0,0.0,1.482651,0.0,8.0,1.0,0.0,2932172.8,110.0,16.0,0.0,0.0,4.8426614,0.0,0.0,380.97717,87.65121,1219.9729,-1.8023248,0.20119387,-0.028919294,318.0259,318.37994,312.78342,311.89627,36.0,36.0,35.0,36.0,77.0,73.0,72.0,72.0,0.18028247,0.14300339,0.01813474,0.013822495,0.05035437,0.04243145,0.056242973,0.04892494,-6.344765,18.129944,-10.332315,10.590925,-33.03142,338.95074,-152.01418,157.94188,0.0,61885.06,63262.74,2.0,1.0,-0.038872905,-0.010464042,6.9892406E-4,80.0,80.0,80.0,80.0,21.527567,21.51868,24.325548,24.315435,0.016588975,0.019946158,-3.943884E-4,-5.1024964E-4,1165.0353,0.0,0.0,0.0,0.0,0.0,0.0,0.0,0.0,0.0,0.0,0.0,0.0,0.0,-1.6039574,-0.0042419774,86.81324,-0.003331064,-0.14115337,0.032317244,549923.4,119984.91,0.011764212,0.013638076,8880.349,6041.2983,7794.788,4532.2534,0.30621147,0.0,0.0,0.0
93.197235,93.197235,1.066,0.0,0.0,312.89835,11257.0,100.0,0.0,0.7353945,0.0,8.0,1.0,0.0,2929098.5,110.0,16.0,0.0,0.0,4.841304,0.0,0.0,380.8759,87.65087,1224.3156,-1.4540062,0.21423998,-0.018154431,318.20233,318.65384,312.91473,312.48083,36.0,36.0,35.0,36.0,77.0,72.0,71.0,71.0,0.18420738,0.14443433,0.018783491,0.014508079,0.050037894,0.04375054,0.055554308,0.049630016,-6.493851,30.26649,-15.335082,15.8614645,11.815137,206.9324,-69.107086,89.196846,0.0,64963.77,66336.984,2.0,1.0,-0.04380937,-0.008414985,5.400181E-4,80.0,80.0,80.0,80.0,21.528946,21.519495,24.326744,24.31606,0.016691,0.019067798,-4.1741016E-4,-5.012307E-4,1165.8818,0.0,0.0,0.0,0.0,0.0,0.0,0.0,0.0,0.0,0.0,0.0,0.0,0.0,-2.3776927,-0.0082161585,86.88368,-0.005726167,-0.06570282,0.04426778,549931.9,119984.91,0.0115723945,0.013024504,8636.495,6350.0938,7464.191,4867.3867,0.30588531,0.0,0.0,0.0
97.56608,97.56608,1.116,0.0,0.0,313.25464,11267.0,100.0,0.0,0.8161558,0.0,8.0,1.0,0.0,2926026.8,110.0,16.0,0.0,0.0,4.8399463,0.0,0.0,380.74042,87.65046,1228.6617,-1.11227,0.22094135,-0.0055727777,318.50403,318.9276,313.1868,312.96625,36.0,36.0,35.0,36.0,77.0,72.0,71.0,71.0,0.18420738,0.14443433,0.018783491,0.014508079,0.049806904,0.04524194,0.0548316,0.050382666,-3.7971137,28.53803,-13.613998,14.151557,60.92638,-112.23712,73.38518,-73.07681,0.0,68044.89,69408.695,2.0,1.0,-0.046030853,-0.006317255,3.3855438E-4,80.0,80.0,80.0,80.0,21.530281,21.520357,24.327858,24.316744,0.016668942,0.01844441,-4.5915073E-4,-4.5576406E-4,1166.9406,0.0,0.0,0.0,0.0,0.0,0.0,0.0,0.0,0.0,0.0,0.0,0.0,0.0,-2.9796422,-0.008639957,86.96415,-0.0054315175,-0.034361184,0.03720241,549942.7,119984.9,0.011335251,0.012276918,8412.16,6650.759,7140.4756,5206.5645,0.3054657,0.0,0.0,0.0
101.9419,101.9419,1.166,0.0,0.0,313.62823,11280.0,100.0,0.0,1.5765574,0.0,8.0,1.0,0.0,2922958.2,110.0,16.0,0.0,0.0,4.8385887,0.0,0.0,380.5783,87.6501,1233.0122,-0.9263314,0.22155464,0.0038062546,318.93372,319.20032,313.625,313.28397,36.0,36.0,35.0,36.0,77.0,72.0,71.0,70.0,0.18671405,0.1455608,0.019157909,0.014922912,0.04975743,0.046296306,0.054387,0.050870303,0.021681188,16.587896,-6.506368,7.2509046,38.422638,-269.89734,129.42995,-146.04626,0.0,71129.16,72477.09,2.0,1.0,-0.048252594,-0.005051725,1.8811226E-4,80.0,80.0,80.0,80.0,21.53159,21.52125,24.32891,24.317469,0.0165416,0.01829811,-5.003597E-4,-4.0685016E-4,1168.3151,0.0,0.0,0.0,0.0,0.0,0.0,0.0,0.0,0.0,0.0,0.0,0.0,0.0,-3.4629693,-0.0053667217,87.0501,-0.0029452536,-0.06007994,0.014860831,549955.94,119984.91,0.011110095,0.0116646215,8307.624,6821.6113,6963.839,5415.3174,0.30510044,0.0,0.0,0.0
106.32617,106.32617,1.216,0.0,0.0,314.00256,11293.0,100.0,0.0,2.2020507,0.0,8.0,1.0,0.0,2919893.5,110.0,16.0,0.0,0.0,4.837231,0.0,0.0,380.39343,87.64995,1237.367,-0.913386,0.21847083,8.734267E-4,319.40985,319.47754,314.13724,313.516,36.0,36.0,35.0,36.0,76.0,71.0,70.0,70.0,0.18671405,0.1455608,0.019157909,0.014922912,0.049845386,0.04662689,0.054320112,0.050970014,3.0905752,-1.1285393,0.90859824,-0.35516915,108.38806,-216.10555,112.34431,-126.96235,0.0,74216.94,75541.79,2.0,1.0,-0.052515317,-0.0048743747,1.4054775E-4,80.0,80.0,80.0,80.0,21.532887,21.52214,24.329943,24.318195,0.016396083,0.01839466,-5.056742E-4,-3.925085E-4,1169.6918,0.0,0.0,0.0,0.0,0.0,0.0,0.0,0.0,0.0,0.0,0.0,0.0,0.0,-3.9108946,-0.0010834949,87.135216,-3.59491E-4,-0.10935766,-0.0048867157,549970.1,119984.91,0.011014205,0.011444663,8317.361,6825.5957,6958.4507,5442.0723,0.3049488,0.0,0.0,0.0
110.72183,110.72183,1.266,0.0,0.0,314.36572,11306.0,100.0,0.0,2.6348171,0.0,8.0,1.0,0.0,2916832.8,110.0,16.0,0.0,0.0,4.8358736,0.0,0.0,380.1853,87.64995,1241.7257,-1.0394704,0.21250851,-0.004269664,319.85178,319.7887,314.62518,313.7363,36.0,36.0,35.0,36.0,76.0,71.0,70.0,70.0,0.18942513,0.14671738,0.019665532,0.015434925,0.050013565,0.046387725,0.054525293,0.0507764,4.743933,-7.528066,6.1295176,-5.4766235,106.67143,-172.85493,131.72327,-104.686615,0.0,77308.39,78602.625,2.0,1.0,-0.059206918,-0.0054955683,1.4913082E-4,80.0,80.0,80.0,80.0,21.534193,21.52301,24.330975,24.318895,0.016243769,0.01860139,-4.9358816E-4,-3.9297098E-4,1171.0685,0.0,0.0,0.0,0.0,0.0,0.0,0.0,0.0,0.0,0.0,0.0,0.0,0.0,-4.4004083,6.530391E-5,87.21287,0.0017726955,-0.15453385,-0.019566625,549984.3,119984.91,0.011003741,0.011471845,8429.913,6715.275,7068.775,5337.1475,0.3049593,0.0,0.0,0.0
115.12338,115.12338,1.316,0.0,0.0,314.70972,11319.0,100.0,0.0,2.8475573,0.0,8.0,1.0,0.0,2913775.8,110.0,16.0,0.0,0.0,4.834516,0.0,0.0,379.95053,87.64997,1246.0883,-1.2219552,0.20529608,-0.0034387948,320.23422,320.12396,315.04956,313.9725,36.0,36.0,35.0,36.0,76.0,71.0,69.0,69.0,0.18942513,0.14671738,0.019665532,0.015434925,0.05026464,0.0458637,0.054920297,0.05043161,4.572272,-11.149495,8.0645075,-6.9770956,-30.563791,-35.981823,2.8833387,4.0635676,0.0,80403.42,81659.695,2.0,1.0,-0.067813635,-0.0065594125,1.963377E-4,80.0,80.0,80.0,80.0,21.535519,21.523848,24.332031,24.319553,0.016113106,0.018829416,-4.7558048E-4,-4.0102447E-4,1172.4438,0.0,0.0,0.0,0.0,0.0,0.0,0.0,0.0,0.0,0.0,0.0,0.0,0.0,-4.974282,0.0016972208,87.277725,0.0027437196,-0.1851966,-0.021706069,549997.9,119984.91,0.010979415,0.011572875,8602.072,6575.3564,7260.488,5184.056,0.30497074,0.0,0.0,0.0
119.530426,119.530426,1.366,0.0,0.0,315.03046,11331.0,100.0,0.0,2.9070628,0.0,8.0,1.0,0.0,2910722.2,110.0,16.0,0.0,0.0,4.833157,0.0,0.0,379.68463,87.65011,1250.4535,-1.3946797,0.19733801,-0.0116948765,320.57095,320.47668,315.4013,314.23294,36.0,36.0,35.0,36.0,76.0,70.0,69.0,69.0,0.19296983,0.14802599,0.020474717,0.01620381,0.050409522,0.04523108,0.05528882,0.050089028,2.6786325,-12.846215,7.0944424,-6.5048037,1.823902,2.8700063,-14.00113,24.703129,0.0,83501.87,84713.17,2.0,1.0,-0.077506505,-0.007573313,2.810955E-4,80.0,80.0,80.0,80.0,21.53687,21.524649,24.333115,24.320168,0.016065035,0.019050105,-4.5989355E-4,-4.0872287E-4,1173.7146,0.0,0.0,0.0,0.0,0.0,0.0,0.0,0.0,0.0,0.0,0.0,0.0,0.0,-5.636671,0.0019522408,87.32674,0.003262202,-0.1993097,-0.018884098,550010.9,119984.914,0.011041788,0.011852004,8731.438,6431.0107,7427.4233,5030.8955,0.30510998,0.0,0.0,0.0
123.94391,123.94391,1.416,0.0,0.0,315.33057,11343.0,100.0,0.0,2.7447364,0.0,8.0,1.0,0.0,2907672.2,110.0,16.0,0.0,0.0,4.831798,0.0,0.0,379.38373,87.65016,1254.8209,-1.5098926,0.19106072,-0.0129715,320.85495,320.8379,315.69232,314.5238,36.0,36.0,35.0,36.0,76.0,70.0,69.0,69.0,0.19296983,0.14802599,0.020474717,0.01620381,0.050513465,0.044686656,0.055583928,0.049834196,1.9580123,-8.910297,5.1192193,-3.9028373,-3.3929942,139.93085,-55.052315,85.347885,0.0,86603.52,87763.266,2.0,1.0,-0.08750153,-0.008334552,3.6168098E-4,80.0,80.0,80.0,80.0,21.538235,21.525423,24.334217,24.320751,0.016050082,0.019226024,-4.441361E-4,-4.2271466E-4,1174.9835,0.0,0.0,0.0,0.0,0.0,0.0,0.0,0.0,0.0,0.0,0.0,0.0,0.0,-6.3669424,9.2818006E-4,87.360115,0.00222814,-0.1975071,-0.010597445,550023.0,119984.914,0.011035018,0.012045585,8825.397,6350.5547,7563.8584,4931.577,0.3051691,0.0,0.0,0.0
128.35512,128.35512,1.466,0.0,0.0,315.62207,11353.0,100.0,0.0,2.2854285,0.0,8.0,1.0,0.0,2904625.2,110.0,16.0,0.0,0.0,4.830439,0.0,0.0,379.0455,87.65016,1259.1891,-1.5247018,0.19048841,-0.012300319,321.09705,321.17087,315.92444,314.87946,36.0,36.0,35.0,36.0,76.0,70.0,69.0,68.0,0.196914,0.149416,0.021297561,0.0170021,0.050489955,0.04449769,0.0556745,0.049792543,-1.3169645,-1.0880827,0.026375053,0.661835,-41.614468,160.12787,-105.30351,84.08724,0.0,89708.164,90810.23,2.0,1.0,-0.09683128,-0.008485988,3.9613247E-4,80.0,80.0,80.0,80.0,21.539606,21.52619,24.335327,24.321312,0.016103743,0.019156307,-4.3074024E-4,-4.4438083E-4,1176.0426,0.0,0.0,0.0,0.0,0.0,0.0,0.0,0.0,0.0,0.0,0.0,0.0,0.0,-7.1205482,0.0013200131,87.38316,-9.091484E-5,-0.17434631,0.0021421257,550033.9,119984.914,0.010989661,0.012105872,8839.504,6357.0186,7594.965,4930.0376,0.3051653,0.0,0.0,0.0
132.76668,132.76668,1.516,0.0,0.0,315.91623,11363.0,100.0,0.0,1.8523891,0.0,8.0,1.0,0.0,2901581.0,110.0,16.0,0.0,0.0,4.82908,0.0,0.0,378.66995,87.65016,1263.5593,-1.4526834,0.19211219,-0.016053783,321.33273,321.48703,316.13498,315.27692,36.0,36.0,35.0,36.0,76.0,70.0,68.0,68.0,0.196914,0.149416,0.021297561,0.0170021,0.05039413,0.044663407,0.05556085,0.04991132,-2.5210528,5.35503,-3.4877656,3.4683197,-35.391747,110.84227,-66.787,66.196915,0.0,92815.516,93854.33,2.0,1.0,-0.104691915,-0.008117308,3.8588047E-4,80.0,80.0,80.0,80.0,21.54097,21.526957,24.336416,24.321877,0.016176354,0.01894838,-4.297742E-4,-4.5364827E-4,1177.1007,0.0,0.0,0.0,0.0,0.0,0.0,0.0,0.0,0.0,0.0,0.0,0.0,0.0,-7.852912,9.592173E-5,87.402435,-0.0016122034,-0.1417694,0.0114476,550044.25,119984.9,0.011000043,0.012072851,8780.967,6416.918,7529.017,4987.9893,0.30516052,0.0,0.0,0.0
137.18137,137.18137,1.566,0.0,0.0,315.90695,11286.0,91.15587,9.1927595,1.5179781,0.0,8.0,0.0,0.0,2903218.8,110.0,16.0,0.0,0.0,4.827747,0.0,0.0,378.25928,87.65005,1267.929,-1.3258454,-0.20776299,-0.04063945,319.25235,319.22568,315.32812,314.4741,39.0,39.0,38.0,39.0,75.0,69.0,68.0,68.0,0.19961624,0.14999075,0.02201174,0.017782545,0.050225846,0.045060106,0.055260934,0.05010032,-4.1321664,7.991864,-6.857961,3.9120014,-65.043564,-62.039474,-7.4163146,44.77947,2651.8682,95838.49,94868.42,2.0,1.0,-0.11095199,-0.007393511,4.4620037E-4,80.0,80.0,80.0,80.0,21.542301,21.527718,24.33748,24.322454,0.0101137115,0.01181881,-0.0027898673,-0.0033557392,1168.9503,0.0,0.0,0.0,0.0,0.0,0.0,0.0,0.0,0.0,0.0,0.0,0.0,0.0,-8.52213,-0.00667449,87.337135,0.0044619213,-0.11039205,0.017005064,549962.44,57128.805,0.01081696,0.012034719,8647.342,6482.67,7515.4453,5211.6675,0.30504513,0.0,0.0,0.0
141.58337,141.58337,1.616,0.0,0.0,313.91754,11114.0,56.008236,35.591637,1.3432881,0.0,8.0,0.0,1.0,2909218.0,110.0,16.0,0.0,0.0,4.8268304,0.0,0.0,377.8185,87.649254,1272.2821,-1.1598135,-1.4271443,-0.020939017,313.36108,313.03027,311.24362,310.1957,63.0,63.0,60.0,61.0,75.0,69.0,68.0,68.0,0.19961624,0.14999075,0.02201174,0.017782545,0.049955174,0.045504652,0.055109866,0.050613664,-7.922127,3.879368,3.125444,16.926079,212.13588,-67.538,312.32977,273.37073,8651.118,97765.5,94868.42,2.0,1.0,-0.11567619,-0.006440909,0.0010800362,80.0,80.0,80.0,80.0,21.543543,21.528437,24.338575,24.323126,-0.002152857,-0.0019221654,-0.009260134,-0.010989991,1150.7529,0.0,0.0,0.0,0.0,0.0,0.0,0.0,0.0,0.0,0.0,0.0,0.0,0.0,-9.053277,-0.019552996,86.72807,0.012052366,-0.08359225,0.021163985,549779.7,31540.918,0.009335835,0.012180855,8392.359,6501.839,8044.5737,6040.338,0.30426502,0.0,0.0,0.0
145.94838,145.94838,1.666,0.0,0.0,310.6169,10922.0,37.753872,47.02111,1.375593,0.0,8.0,0.0,1.0,2915217.2,110.0,16.0,0.0,0.0,4.826295,0.0,0.0,377.35468,87.64823,1276.594,-1.004376,-2.000152,-0.002957192,308.28232,307.84644,307.03583,306.00827,97.0,97.0,93.0,94.0,75.0,68.0,67.0,67.0,0.20142959,0.15028168,0.023125943,0.019121276,0.050095726,0.04648216,0.055053506,0.051235385,5.3239613,24.557858,-3.18557,10.247826,188.72021,305.66458,-159.84622,-183.31557,14650.368,98933.64,94868.42,2.0,1.0,-0.1195592,-0.0054691546,0.001208663,80.0,80.0,80.0,80.0,21.544716,21.529133,24.339693,24.323898,-0.007888638,-0.008130754,-0.012165673,-0.014030095,1127.8419,0.0,0.0,0.0,0.0,0.0,0.0,0.0,0.0,0.0,0.0,0.0,0.0,0.0,-9.458473,-0.019113256,85.762474,-0.0068286657,-0.0749378,0.018309195,548306.06,20553.879,0.008158342,0.01133393,8396.208,6729.505,8184.646,6492.767,0.30323124,0.0,0.0,0.0
150.26332,150.26332,1.716,0.0,0.0,306.4637,10700.0,18.480202,61.835384,1.4706805,0.0,8.0,0.0,1.0,2921216.5,110.0,16.0,0.0,0.0,4.8260674,0.0,0.0,376.8732,87.64735,1280.8517,-0.89015174,-2.5682664,0.0061864518,302.30292,301.71878,301.5464,300.37717,137.0,137.0,132.0,132.0,75.0,68.0,67.0,67.0,0.20142959,0.15028168,0.023125943,0.019121276,0.050475564,0.04801817,0.054646563,0.05147462,8.423253,32.06536,-10.813548,1.6524642,168.61703,130.90529,-226.23085,-277.4477,20649.62,99598.02,94868.42,2.0,1.0,-0.1233312,-0.004532892,9.368658E-4,80.0,80.0,80.0,80.0,21.545856,21.529821,24.340763,24.324688,-0.013906492,-0.014564093,-0.01680274,-0.019063897,1097.1115,0.0,0.0,0.0,0.0,0.0,0.0,0.0,0.0,0.0,0.0,0.0,0.0,0.0,-9.768198,-0.014390559,84.56652,-0.003375788,-0.07721439,0.016680382,544432.44,10448.212,0.007549173,0.010024424,8471.041,6896.9663,8162.406,6772.601,0.30234814,0.0,0.0,0.0
154.51013,154.51013,1.766,0.0,0.0,300.8073,10390.0,3.854429,89.92393,1.4595307,0.0,8.0,0.0,1.0,2927194.0,110.0,16.0,0.0,0.0,4.826044,0.0,0.0,376.3788,87.64758,1285.0399,-0.8040419,-3.566674,0.090800546,293.7522,292.92523,292.79132,291.0352,188.0,188.0,186.0,186.0,74.0,68.0,67.0,67.0,0.20470835,0.15211247,0.026599053,0.023286672,0.05017861,0.04814076,0.054169632,0.05138292,-17.07047,-17.935707,-7.7739353,-3.536269,-957.48145,-1259.7529,276.68323,87.05106,26648.87,99811.14,94868.42,2.0,1.0,-0.12730345,-0.004007122,0.0014125109,80.0,80.0,80.0,80.0,21.546902,21.530443,24.3418,24.325499,-0.023694558,-0.02508833,-0.027354991,-0.031468503,1047.8553,0.0,0.0,0.0,0.0,0.0,0.0,0.0,0.0,0.0,0.0,0.0,0.0,0.0,-9.976325,0.026045972,82.959885,0.020656185,-0.0803075,0.0078084334,535504.06,0.0,0.007270787,0.01096036,8027.3574,6602.377,8437.061,7195.1855,0.30259132,0.0,0.0,0.0
158.66628,158.66628,1.816,0.0,0.0,293.79553,10071.0,0.0,100.0,1.3704816,0.0,8.0,0.0,1.0,2932843.0,109.0,16.0,0.0,0.0,4.826044,0.0,0.0,375.87665,87.64976,1289.1364,-0.7346959,-4.0497327,0.011394887,284.7567,284.19116,284.3764,282.08597,244.0,244.0,249.0,249.0,74.0,68.0,68.0,68.0,0.20470835,0.15211247,0.026599053,0.023286672,0.0485988,0.046229903,0.053812087,0.05115491,-34.108086,-49.59449,-6.4397597,-5.332231,-9.656066,-628.0929,12.71367,-118.79501,32648.12,99811.14,94868.42,2.0,1.0,-0.13127889,-0.0038504014,0.0024091005,80.0,80.0,80.0,80.0,21.547777,21.530928,24.342802,24.326296,-0.031168707,-0.031809952,-0.03270633,-0.03887743,985.85986,0.0,0.0,0.0,0.0,0.0,0.0,0.0,0.0,0.0,0.0,0.0,0.0,0.0,-10.091729,0.05283345,80.98349,0.015412077,-0.07832871,9.5628697E-4,519780.03,0.0,0.008321603,0.014589123,7201.797,5980.347,8422.576,7217.6914,0.30476475,0.0,0.0,0.0
162.72298,162.72298,1.866,0.0,0.0,286.62833,9803.0,0.0,100.0,1.3029884,0.0,8.0,0.0,1.0,2938426.8,109.0,16.0,0.0,0.0,4.826044,0.0,0.0,375.3699,87.65217,1293.1323,-0.69283473,-4.0526986,-0.049468614,277.22137,276.67917,277.10336,274.32675,295.0,295.0,306.0,305.0,74.0,68.0,68.0,68.0,0.20908982,0.15493509,0.031344365,0.029421603,0.047301047,0.04368289,0.053454913,0.05054989,-25.763956,-47.83429,-6.890818,-12.822076,-143.94069,254.50125,23.160866,30.738085,38647.37,99811.14,94868.42,2.0,1.0,-0.1351153,-0.0042167297,0.0028970242,80.0,80.0,80.0,80.0,21.548532,21.531332,24.343733,24.327023,-0.03332505,-0.03393964,-0.033873968,-0.041923456,924.8597,0.0,0.0,0.0,0.0,0.0,0.0,0.0,0.0,0.0,0.0,0.0,0.0,0.0,-10.169905,0.041121464,78.96679,0.008919511,-0.074999325,-0.005014521,500949.38,0.0,0.010164848,0.017671382,6700.909,5703.7715,8141.3906,6800.3633,0.30716705,0.0,0.0,0.0
166.66644,166.66644,1.916,0.0,0.0,279.47458,9547.0,0.0,100.0,1.2472278,0.0,8.0,0.0,1.0,2944021.8,109.0,16.0,0.0,0.0,4.826044,0.0,0.0,374.85992,87.65392,1297.0275,-0.653916,-4.0409594,-0.022906672,269.97308,269.43695,269.9536,267.07547,342.0,342.0,358.0,357.0,74.0,68.0,68.0,69.0,0.20908982,0.15493509,0.031344365,0.029421603,0.04562391,0.041772358,0.053120174,0.050233472,-36.07973,-34.536568,-6.5765524,-3.640875,-125.88934,192.63632,8.55626,133.96292,44646.62,99811.14,94868.42,2.0,1.0,-0.13874993,-0.004171352,0.0033689737,80.0,80.0,80.0,80.0,21.549215,21.53169,24.344612,24.327703,-0.034493405,-0.035174165,-0.034691263,-0.04352232,864.7662,0.0,0.0,0.0,0.0,0.0,0.0,0.0,0.0,0.0,0.0,0.0,0.0,0.0,-10.221908,0.03234978,76.95591,0.009296518,-0.07079829,0.006455733,480959.8,0.0,0.011369238,0.020079447,6431.124,5528.044,7976.834,6666.6953,0.30892563,0.0,0.0,0.0
170.49605,170.49605,1.966,0.0,0.0,272.36063,10154.0,0.0,100.0,1.0681183,0.0,8.0,0.0,1.0,2950641.5,109.0,16.0,0.0,0.0,4.8256044,0.0,0.0,374.3481,87.65561,1300.8225,-0.5973833,-4.0165854,-0.008623537,262.74496,262.12115,262.74625,259.96567,385.0,384.0,405.0,403.0,74.0,68.0,69.0,69.0,0.21322519,0.15782318,0.036165576,0.035813037,0.04369675,0.040149923,0.05274686,0.05009436,-39.645058,-32.116547,-8.217617,-2.727583,-62.41493,12.80754,-53.885563,3.620982,50645.87,100695.49,94868.42,2.0,1.0,-0.14212815,-0.0038281272,0.0038548708,80.0,80.0,80.0,80.0,21.549843,21.532005,24.345436,24.328363,-0.035589468,-0.036954172,-0.035834678,-0.044691306,1001.847,0.0,0.0,0.0,0.0,0.0,0.0,0.0,0.0,0.0,0.0,0.0,0.0,0.0,-10.244823,0.035426665,74.95887,0.008171075,-0.06370715,0.00947831,523891.38,0.0,0.012473239,0.022432365,6159.195,5333.701,7760.052,6562.963,0.31061935,0.0,0.0,0.0
174.22743,174.22743,2.016,0.0,0.0,265.36127,10449.0,0.0,100.0,0.62170553,0.0,7.0,0.0,1.0,2957301.8,109.0,16.0,0.0,0.0,4.8251534,0.0,0.0,373.83618,87.657394,1304.5186,-0.50321764,-3.9352567,-0.019601459,256.0966,255.31396,255.46881,252.91035,423.0,423.0,447.0,445.0,74.0,68.0,69.0,70.0,0.21322519,0.15782318,0.036165576,0.035813037,0.041737173,0.03863634,0.05224672,0.049939945,-37.93828,-28.660742,-11.126697,-3.5896895,45.15495,69.87155,-73.29139,-42.217968,56645.12,101651.6,94868.42,2.0,1.0,-0.14493285,-0.0033117859,0.0042573214,80.0,80.0,80.0,80.0,21.550417,21.532286,24.346205,24.329006,-0.034979835,-0.037048135,-0.037633773,-0.046286162,1059.558,0.0,0.0,0.0,0.0,0.0,0.0,0.0,0.0,0.0,0.0,0.0,0.0,0.0,-10.227657,0.03678973,72.99845,0.005064765,-0.04772551,0.013853865,538427.25,0.0,0.013743452,0.024749622,5853.992,5154.757,7447.57,6412.4663,0.31240082,0.0,0.0,0.0
177.86172,177.86172,2.066,0.0,0.0,258.3712,10143.0,0.0,100.0,0.22466253,0.0,7.0,0.0,1.0,2962870.8,109.0,16.0,0.0,0.0,4.8251534,0.0,0.0,373.32648,87.65918,1308.1171,-0.3845911,-3.9567046,-0.020093936,248.451,248.09026,248.23166,246.09743,459.0,458.0,486.0,483.0,74.0,68.0,69.0,70.0,0.21719989,0.16094115,0.04123364,0.042252056,0.039589122,0.037149463,0.051701795,0.04988795,-45.00523,-30.294432,-10.391994,0.18171965,-120.02883,-19.553373,23.053606,72.64762,62644.37,101651.6,94868.42,2.0,1.0,-0.14678891,-0.0025807195,0.0047382116,80.0,80.0,80.0,80.0,21.550934,21.53253,24.346916,24.329628,-0.038431548,-0.039355215,-0.039381117,-0.047160402,999.65985,0.0,0.0,0.0,0.0,0.0,0.0,0.0,0.0,0.0,0.0,0.0,0.0,0.0,-10.152951,0.036250375,71.04799,0.008450721,-0.0265018,0.018389357,523314.56,0.0,0.014930523,0.027155483,5526.4043,4995.5693,7164.2246,6362.9688,0.31417942,0.0,0.0,0.0
181.39882,181.39882,2.116,0.0,0.0,251.40244,9846.0,0.0,100.0,-0.17566763,0.0,7.0,0.0,1.0,2968452.5,109.0,16.0,0.0,0.0,4.8251534,0.0,0.0,372.8223,87.660965,1311.6183,-0.248635,-3.9387658,-0.023552034,241.13419,240.9147,240.86934,239.37808,491.0,490.0,520.0,518.0,74.0,68.0,70.0,71.0,0.21719989,0.16094115,0.04123364,0.042252056,0.037295513,0.03565749,0.05114174,0.049931474,-45.210865,-29.725803,-11.254325,0.32588837,59.93385,-0.33531186,1.7568396,-45.651188,68643.625,101651.6,94868.42,2.0,1.0,-0.14748824,-0.0017020328,0.0052582026,80.0,80.0,80.0,80.0,21.551395,21.532745,24.34758,24.33025,-0.040673077,-0.041519985,-0.04172225,-0.04769885,935.1695,0.0,0.0,0.0,0.0,0.0,0.0,0.0,0.0,0.0,0.0,0.0,0.0,0.0,-10.011952,0.035559542,69.11258,0.0070590666,-0.0034061195,0.018613225,504321.53,0.0,0.016065586,0.029618599,5188.939,4855.4443,6857.939,6334.7144,0.3159666,0.0,0.0,0.0
184.83939,184.83939,2.166,0.0,0.0,244.46825,9555.0,0.0,100.0,-0.5097725,0.0,7.0,0.0,1.0,2974046.2,109.0,16.0,0.0,0.0,4.8251534,0.0,0.0,372.32684,87.66269,1315.0233,-0.10963979,-3.9202259,-0.026556121,233.92715,233.84427,233.38821,232.64227,520.0,519.0,552.0,549.0,74.0,68.0,70.0,71.0,0.22112884,0.16439252,0.046893287,0.04860905,0.03507459,0.034233663,0.050558943,0.049955897,-43.50051,-27.86748,-11.348202,0.5701929,79.47372,35.90137,36.960865,5.8472133,74642.875,101651.6,94868.42,2.0,1.0,-0.14705178,-8.197043E-4,0.0057234764,80.0,80.0,80.0,80.0,21.55181,21.532938,24.34819,24.330866,-0.042707954,-0.04349284,-0.04484642,-0.04851845,866.6598,0.0,0.0,0.0,0.0,0.0,0.0,0.0,0.0,0.0,0.0,0.0,0.0,0.0,-9.804699,0.033493396,67.1963,0.006455226,0.0185303,0.018460121,481609.4,0.0,0.017190024,0.031943202,4870.3076,4736.924,6540.4565,6295.269,0.31769562,0.0,0.0,0.0
188.18388,188.18388,2.216,0.0,0.0,237.57497,9263.0,0.0,100.0,-0.6829581,0.0,7.0,0.0,1.0,2979652.2,109.0,16.0,0.0,0.0,4.8251534,0.0,0.0,371.84348,87.664314,1318.3329,0.01396656,-3.895351,-0.029322557,226.66298,226.77206,225.80801,225.92413,547.0,546.0,580.0,578.0,74.0,68.0,70.0,71.0,0.22112884,0.16439252,0.046893287,0.04860905,0.03301587,0.032897282,0.050005063,0.049972147,-39.880646,-26.589184,-10.681673,-0.1913309,87.1852,-4.935264,32.481533,-44.940407,80642.125,101651.6,94868.42,2.0,1.0,-0.14567995,-8.359826E-6,0.0061517954,80.0,80.0,80.0,80.0,21.552183,21.533108,24.348759,24.331474,-0.045319796,-0.045630407,-0.048792414,-0.049324982,790.4145,0.0,0.0,0.0,0.0,0.0,0.0,0.0,0.0,0.0,0.0,0.0,0.0,0.0,-9.53723,0.031308148,65.30025,0.0060325945,0.03329679,0.014857351,453085.6,0.0,0.018244496,0.034100715,4569.802,4622.9683,6241.217,6251.7397,0.3193283,0.0,0.0,0.0
191.43077,191.43077,2.266,0.0,0.0,230.7448,10431.0,0.0,100.0,-0.8601856,0.0,6.0,0.0,1.0,2987323.5,109.0,15.0,0.0,0.0,4.8242664,0.0,0.0,371.3748,87.665825,1321.5483,0.11895245,-3.821252,-0.031098738,220.4962,220.94373,218.15692,219.16452,571.0,570.0,606.0,604.0,74.0,68.0,71.0,72.0,0.2248867,0.16790996,0.05373718,0.055061437,0.031189566,0.031638704,0.04952301,0.04993992,-33.99979,-23.309065,-9.517147,-1.118034,203.47914,155.35353,4.747524,-49.95613,86641.375,103470.49,94868.42,2.0,1.0,-0.1437616,6.372305E-4,0.006531,80.0,80.0,80.0,80.0,21.55252,21.53326,24.34929,24.332077,-0.04318951,-0.042276625,-0.053524792,-0.05048511,1056.0322,0.0,0.0,0.0,0.0,0.0,0.0,0.0,0.0,0.0,0.0,0.0,0.0,0.0,-9.222209,0.029415812,63.42885,0.003520522,0.0419143,0.012617365,537561.6,0.0,0.019231856,0.036069218,4305.962,4505.455,5980.881,6190.7163,0.32082748,0.0,0.0,0.0
194.58368,194.58368,2.316,0.0,0.0,224.02231,10060.0,0.0,100.0,-1.2867042,0.0,6.0,0.0,1.0,2992894.5,109.0,15.0,0.0,0.0,4.8242664,0.0,0.0,370.92282,87.6672,1324.6714,0.21951568,-3.8144681,-0.03127332,212.57083,213.37657,210.24663,212.40886,593.0,593.0,629.0,627.0,74.0,68.0,71.0,72.0,0.2248867,0.16790996,0.05373718,0.055061437,0.02961681,0.030590337,0.049017664,0.049847063,-31.957846,-21.510197,-9.350404,-1.1225044,-51.914173,-47.38117,52.81265,54.985275,92640.625,103470.49,94868.42,2.0,1.0,-0.14141656,0.0012365003,0.006798625,80.0,80.0,80.0,80.0,21.552828,21.5334,24.349794,24.332666,-0.05002132,-0.047768332,-0.06022839,-0.052411173,983.74084,0.0,0.0,0.0,0.0,0.0,0.0,0.0,0.0,0.0,0.0,0.0,0.0,0.0,-8.868087,0.025946317,61.593285,0.005275389,0.052841328,0.013873519,519229.94,0.0,0.020216633,0.037734356,4073.9373,4415.038,5696.515,6092.535,0.32219696,0.0,0.0,0.0
197.64331,197.64331,2.366,0.0,0.0,217.30318,9709.0,0.0,100.0,-2.0088615,0.0,6.0,0.0,1.0,2998480.8,109.0,15.0,0.0,0.0,4.8242664,0.0,0.0,370.48984,87.668526,1327.7026,0.33715928,-3.7905061,-0.02892945,204.89047,206.17973,202.12268,206.06728,613.0,613.0,650.0,649.0,74.0,68.0,72.0,73.0,0.22870633,0.17169917,0.061302282,0.060843624,0.027995603,0.029531969,0.048569325,0.04988314,-32.96714,-20.50571,-10.077729,0.9121745,-43.88763,58.30444,-90.01493,6.4641232,98639.875,103470.49,94868.42,2.0,1.0,-0.1382153,0.0019634734,0.0071628094,80.0,80.0,80.0,80.0,21.553106,21.533524,24.350273,24.333252,-0.055706285,-0.05171157,-0.06791137,-0.05258051,902.5341,0.0,0.0,0.0,0.0,0.0,0.0,0.0,0.0,0.0,0.0,0.0,0.0,0.0,-8.465355,0.026194118,59.765434,0.004283554,0.07619676,0.016546216,493589.75,0.0,0.021029536,0.039487105,3785.0215,4326.3975,5462.8594,6082.1396,0.3235216,0.0,0.0,0.0
200.61145,200.61145,2.416,0.0,0.0,211.04965,9514.0,0.0,100.0,-3.4948661,0.0,6.0,0.0,1.0,3004079.5,108.0,15.0,0.0,0.0,4.8242664,0.0,0.0,370.07877,87.669754,1330.6444,0.61054355,-3.1476173,-0.034101456,201.20042,202.09216,203.22057,204.0265,632.0,632.0,670.0,669.0,74.0,68.0,72.0,73.0,0.22870633,0.17169917,0.061302282,0.060843624,0.026522491,0.028944377,0.04763509,0.049775615,-23.195854,-0.48235056,-30.694752,-8.367598,526.75226,911.039,-1045.914,-545.3466,104639.125,103470.49,94868.42,2.0,1.0,-0.13310987,0.0031784899,0.0071980953,80.0,80.0,80.0,80.0,21.553362,21.533644,24.350746,24.333853,-0.044564653,-0.04360099,-0.03143211,-0.031629246,857.13715,0.0,0.0,0.0,0.0,0.0,0.0,0.0,0.0,0.0,0.0,0.0,0.0,0.0,-7.9908085,0.022767048,58.077755,-0.021367634,0.13291955,0.037805382,478370.25,0.0,0.02216523,0.04069905,3496.7644,4418.3394,5012.428,6064.9,0.32475948,0.0,0.0,0.0
203.4973,203.4973,2.466,0.0,0.0,205.18059,9271.0,0.0,100.0,-5.3758373,0.0,6.0,0.0,1.0,3009687.5,108.0,15.0,0.0,0.0,4.8242664,0.0,0.0,369.69382,87.67052,1333.5066,0.8798267,-3.14624,-0.03801921,195.91714,196.99852,196.33928,198.91042,650.0,649.0,687.0,687.0,74.0,68.0,72.0,73.0,0.23132402,0.17509446,0.066882186,0.06544375,0.02550262,0.029417546,0.046495233,0.04983402,-19.016302,0.08426606,-14.565512,-2.5977192,252.20808,-566.3886,309.7683,-512.23474,110638.375,103470.49,94868.42,2.0,1.0,-0.12508821,0.004864926,0.006968498,80.0,80.0,80.0,80.0,21.553598,21.533777,24.351175,24.334444,-0.04208252,-0.041663595,-0.040049057,-0.030189462,792.48615,0.0,0.0,0.0,0.0,0.0,0.0,0.0,0.0,0.0,0.0,0.0,0.0,0.0,-7.417319,0.011165893,56.5099,-0.005876837,0.19595304,0.036321715,453881.1,0.0,0.023196718,0.04112208,3239.795,4542.6465,4493.697,6058.0815,0.32554245,0.0,0.0,0.0
206.30324,206.30324,2.516,0.0,0.0,199.52429,9850.0,0.0,100.0,-8.412164,0.0,6.0,0.0,1.0,3015967.0,108.0,15.0,0.0,0.0,4.8238387,0.0,0.0,369.34152,87.67103,1336.2922,1.3062747,-3.007654,-0.014228907,190.71896,192.0632,187.79166,193.27116,666.0,666.0,704.0,704.0,74.0,69.0,73.0,73.0,0.23132402,0.17509446,0.066882186,0.06544375,0.024212867,0.02990359,0.045519624,0.0504084,-22.158844,9.246803,-16.089453,5.2113085,589.1472,36.330524,125.12511,-743.4278,116637.625,104005.96,94868.42,2.0,1.0,-0.11297647,0.0071721347,0.0070420504,80.0,80.0,80.0,80.0,21.553804,21.533918,24.351572,24.335056,-0.03866514,-0.03893954,-0.05130235,-0.031781975,936.11725,0.0,0.0,0.0,0.0,0.0,0.0,0.0,0.0,0.0,0.0,0.0,0.0,0.0,-6.6876802,0.0124533875,55.018448,-0.010967566,0.2938556,0.061558507,504627.62,0.0,0.02365502,0.041740786,2860.9294,4788.248,4068.243,6367.638,0.32617378,0.0,0.0,0.0
209.0331,209.0331,2.566,0.0,0.0,194.24709,10183.0,0.0,100.0,-12.267039,0.0,5.0,0.0,1.0,3022258.8,108.0,15.0,0.0,0.0,4.823389,0.0,0.0,369.03018,87.67158,1339.0063,1.699276,-2.8736854,-0.058800105,186.6066,188.97395,177.17596,189.09349,680.0,681.0,718.0,719.0,74.0,69.0,73.0,74.0,0.23289001,0.17856112,0.071757235,0.071954444,0.022700163,0.030993415,0.04392544,0.05103718,-27.307121,27.447714,-34.421234,12.730433,249.70686,548.02216,-386.8953,419.16214,122636.875,104586.53,94868.42,2.0,1.0,-0.095736116,0.0100144725,0.006845951,80.0,80.0,80.0,80.0,21.553982,21.534079,24.351929,24.33568,-0.04505554,-0.03726915,-0.08491654,-0.039544165,1007.3989,0.0,0.0,0.0,0.0,0.0,0.0,0.0,0.0,0.0,0.0,0.0,0.0,0.0,-5.786543,0.006382433,53.646343,-0.009727852,0.39230692,0.055468936,525294.4,0.0,0.024730222,0.0421293,2433.5757,5103.67,3237.2986,6482.8945,0.32700062,0.0,0.0,0.0
211.70013,211.70013,2.616,0.0,0.0,190.41275,10043.0,0.0,100.0,-17.10886,0.0,5.0,0.0,1.0,3027833.0,108.0,15.0,0.0,0.0,4.823389,0.0,0.0,368.77054,87.67143,1341.6633,2.2507005,-2.2587004,-0.10679443,181.99678,186.13911,174.97961,185.43182,694.0,695.0,732.0,734.0,74.0,69.0,73.0,74.0,0.23289001,0.17856112,0.071757235,0.071954444,0.021796787,0.03429463,0.040931143,0.051512633,-23.22491,83.19899,-57.796238,20.369364,-546.41284,322.32098,1470.4135,350.99377,128636.125,104586.53,94868.42,2.0,1.0,-0.07179751,0.014445256,0.0056437254,80.0,80.0,80.0,80.0,21.554138,21.534275,24.352247,24.336334,-0.033536747,-0.028257534,-0.05820931,-0.02930473,980.5332,0.0,0.0,0.0,0.0,0.0,0.0,0.0,0.0,0.0,0.0,0.0,0.0,0.0,-4.6369205,-0.0157524,52.688786,-0.015599846,0.52463174,0.058781613,518412.97,0.0,0.026638646,0.04078962,2103.011,5881.695,1931.4419,6578.2725,0.32715607,0.0,0.0,0.0
214.3121,214.3121,2.666,0.0,0.0,186.30795,9872.0,0.0,100.0,-20.92819,0.0,5.0,0.0,1.0,3033416.5,108.0,15.0,0.0,0.0,4.823389,0.0,0.0,368.57144,87.67055,1344.2701,2.5478365,-2.281099,-0.023257324,180.85712,182.56581,174.16162,184.77872,707.0,708.0,745.0,748.0,74.0,69.0,73.0,75.0,0.23446584,0.18390264,0.07621982,0.086067885,0.021302894,0.03490342,0.040669702,0.051906925,-14.269687,-3.7667153,0.19468366,10.918825,-734.3351,-498.44824,176.42227,188.00941,134635.38,104586.53,94868.42,2.0,1.0,-0.043482184,0.015373093,0.005973339,80.0,80.0,80.0,80.0,21.55428,21.534483,24.352537,24.337025,-0.022105558,-0.027496152,-0.06303648,-0.015013619,941.3841,0.0,0.0,0.0,0.0,0.0,0.0,0.0,0.0,0.0,0.0,0.0,0.0,0.0,-3.3748088,-0.013602391,51.64205,0.008495439,0.6077921,0.015730109,506335.9,0.0,0.026039194,0.040856283,1915.8832,5806.6167,2082.638,7041.3633,0.32714462,0.0,0.0,0.0
216.86514,216.86514,2.716,0.0,0.0,182.46375,9664.0,0.0,100.0,-22.405138,0.0,5.0,0.0,0.0,3039008.0,108.0,15.0,0.0,0.0,4.823389,0.0,0.0,368.43832,87.670235,1346.8258,2.7544367,-1.955161,-0.05458127,176.5718,178.50253,169.87933,179.41055,720.0,720.0,757.0,760.0,73.0,69.0,74.0,76.0,0.23446584,0.18390264,0.07621982,0.086067885,0.020358793,0.034897838,0.04001368,0.052154455,-18.853022,-7.4699516,-10.881051,-7.6391544,465.14862,-816.23627,355.56693,-1326.607,140634.62,104586.53,94868.42,2.0,1.0,-0.011229669,0.016300315,0.006146908,80.0,80.0,80.0,80.0,21.554401,21.534702,24.35283,24.337751,-0.021135835,-0.029827882,-0.05359743,-0.019488782,892.01825,0.0,0.0,0.0,0.0,0.0,0.0,0.0,0.0,0.0,0.0,0.0,0.0,0.0,-2.024029,-0.0038284152,50.643944,-4.561844E-4,0.66784257,0.0058967224,490110.28,0.0,0.026682258,0.041512292,1657.7917,5911.124,1681.9413,7109.2305,0.32761192,0.0,0.0,0.0
219.36035,219.36035,2.766,0.0,0.0,178.76146,9436.0,0.0,100.0,-21.869318,0.0,5.0,0.0,0.0,3044607.8,108.0,15.0,0.0,0.0,4.823389,0.0,0.0,368.3728,87.66986,1349.3315,2.776917,-1.9786899,-0.10103053,170.65779,175.24944,162.67178,174.574,731.0,732.0,768.0,772.0,73.0,70.0,74.0,76.0,0.23629086,0.1918155,0.07981415,0.1040361,0.01961643,0.034212887,0.039458312,0.05193348,-12.415609,-15.621855,-12.808218,-3.5930424,344.14752,-45.557323,-315.19977,575.6288,146633.88,104586.53,94868.42,2.0,1.0,0.022084855,0.01616379,0.0062674284,80.0,80.0,80.0,80.0,21.554514,21.534924,24.353115,24.33849,-0.029172411,-0.029169187,-0.0648123,-0.026013106,836.57513,0.0,0.0,0.0,0.0,0.0,0.0,0.0,0.0,0.0,0.0,0.0,0.0,0.0,-0.6756577,-0.015775822,49.651363,0.005674164,0.65872324,-0.007565125,470754.0,0.0,0.02781725,0.042506386,1536.1165,5909.5635,1392.6013,6874.611,0.32849503,0.0,0.0,0.0
221.7976,221.7976,2.816,0.0,0.0,175.08163,9253.0,0.0,100.0,-20.970173,0.0,5.0,0.0,0.0,3050216.5,108.0,15.0,0.0,0.0,4.823389,0.0,0.0,368.3742,87.66874,1351.7875,2.7900493,-2.0377831,-0.061230652,169.47687,171.51645,161.7121,174.2084,741.0,743.0,778.0,783.0,73.0,70.0,74.0,77.0,0.23629086,0.1918155,0.07981415,0.1040361,0.018877156,0.033560134,0.03936237,0.0519271,-19.583477,-11.287852,-0.24944541,7.466599,-589.76404,122.53669,145.76463,557.7117,152633.12,104586.53,94868.42,2.0,1.0,0.054288458,0.015832858,0.0067522526,80.0,80.0,80.0,80.0,21.55462,21.53515,24.353409,24.339256,-0.026688177,-0.027648078,-0.07387365,-0.017144974,787.72845,0.0,0.0,0.0,0.0,0.0,0.0,0.0,0.0,0.0,0.0,0.0,0.0,0.0,0.65411603,-0.025023391,48.629383,0.010698827,0.630148,-0.0074121016,452033.88,0.0,0.027905017,0.04331616,1455.4827,5855.685,1463.309,6948.5347,0.3291235,0.0,0.0,0.0
224.17615,224.17615,2.866,0.0,0.0,171.53943,9065.0,0.0,100.0,-20.808298,0.0,5.0,0.0,0.0,3055833.5,108.0,15.0,0.0,0.0,4.823389,0.0,0.0,368.44174,87.66731,1354.1924,2.8182976,-1.8614464,-0.0688765,165.80539,167.69067,159.70969,169.2913,751.0,753.0,788.0,793.0,73.0,71.0,74.0,78.0,0.23810731,0.20099354,0.08309388,0.12419871,0.018173706,0.032889154,0.039231323,0.05172053,-11.30484,-13.381093,1.1149048,-8.761659,309.10443,-76.26863,514.9975,-733.5438,158632.38,104586.53,94868.42,2.0,1.0,0.085370354,0.015486906,0.006990671,80.0,80.0,80.0,80.0,21.554722,21.535383,24.353708,24.340038,-0.023260184,-0.02999383,-0.059380613,-0.013503155,738.889,0.0,0.0,0.0,0.0,0.0,0.0,0.0,0.0,0.0,0.0,0.0,0.0,0.0,1.9659982,-0.032237865,47.609257,0.0030010096,0.60873497,-0.009009516,432801.12,0.0,0.028492099,0.0441417,1417.2502,5789.299,1351.9619,6850.7764,0.32990265,0.0,0.0,0.0
226.4945,226.4945,2.916,0.0,0.0,167.97092,8850.0,0.0,100.0,-23.307867,0.0,5.0,0.0,0.0,3061458.5,108.0,15.0,0.0,0.0,4.823389,0.0,0.0,368.57394,87.66548,1356.5449,2.8297393,-1.8387489,-0.07946353,160.79008,164.05316,153.03577,163.71004,760.0,762.0,797.0,802.0,73.0,71.0,74.0,79.0,0.23810731,0.20099354,0.08309388,0.12419871,0.017542044,0.03230689,0.03908737,0.051578805,-13.366452,-13.83394,-1.3757496,-5.4084506,261.82382,-173.673,62.24065,-275.4226,164631.62,104586.53,94868.42,2.0,1.0,0.11493913,0.015263282,0.0073622465,80.0,80.0,80.0,80.0,21.55482,21.535625,24.354012,24.340847,-0.027141789,-0.033319786,-0.06630097,-0.024808114,686.9802,0.0,0.0,0.0,0.0,0.0,0.0,0.0,0.0,0.0,0.0,0.0,0.0,0.0,3.2453854,-0.041489366,46.545567,0.008254244,0.5816431,-0.004161644,412171.5,0.0,0.028916953,0.04484803,1281.6626,5753.745,1259.4951,6786.863,0.3305111,0.0,0.0,0.0
228.75092,228.75092,2.966,0.0,0.0,164.37523,8627.0,0.0,100.0,-27.279446,0.0,5.0,0.0,0.0,3067091.8,108.0,15.0,0.0,0.0,4.823389,0.0,0.0,368.76923,87.6632,1358.843,2.8176522,-1.9405043,-0.06976563,155.27184,160.67287,145.76381,158.3788,769.0,771.0,805.0,811.0,73.0,72.0,74.0,80.0,0.23970564,0.20995122,0.08667595,0.15438887,0.016720032,0.031840764,0.03896267,0.05163383,-15.633032,-6.175115,-6.373152,6.417185,-93.73649,240.28566,-341.64633,739.7934,170630.88,104586.53,94868.42,2.0,1.0,0.14389388,0.015240977,0.007769227,80.0,80.0,80.0,80.0,21.554913,21.535875,24.354322,24.341677,-0.039758183,-0.029374626,-0.08180322,-0.03324443,635.75366,0.0,0.0,0.0,0.0,0.0,0.0,0.0,0.0,0.0,0.0,0.0,0.0,0.0,4.4938564,-0.048587717,45.438076,0.0076224487,0.5773507,-0.001524765,391296.6,0.0,0.029130002,0.045593616,1193.061,5749.247,1221.3049,6760.004,0.33098412,0.0,0.0,0.0
230.94409,230.94409,3.016,0.0,0.0,160.80879,8492.0,0.0,100.0,-30.396996,0.0,5.0,0.0,0.0,3072732.8,108.0,15.0,0.0,0.0,4.823389,0.0,0.0,369.02603,87.66064,1361.0851,2.776332,-1.9303789,-0.076164305,155.43404,157.38383,146.77502,158.13477,777.0,779.0,813.0,819.0,73.0,72.0,74.0,81.0,0.23970564,0.20995122,0.08667595,0.15438887,0.016135437,0.031328067,0.038867846,0.05152737,-13.041011,-9.767711,-2.1676717,-0.719726,-282.84558,107.422424,104.98165,149.6136,176630.12,104586.53,94868.42,2.0,1.0,0.17288473,0.015019657,0.00804162,80.0,80.0,80.0,80.0,21.555002,21.53613,24.35464,24.342539,-0.026246972,-0.028881757,-0.0783736,-0.021780394,605.6341,0.0,0.0,0.0,0.0,0.0,0.0,0.0,0.0,0.0,0.0,0.0,0.0,0.0,5.702985,-0.05501347,44.303524,0.004467583,0.5775249,-0.010332739,378684.34,0.0,0.029587267,0.046361387,1156.1588,5616.6245,1176.023,6649.111,0.33161545,0.0,0.0,0.0
233.06252,233.06252,3.066,0.0,0.0,157.30658,8295.0,0.0,100.0,-31.52639,0.0,5.0,0.0,0.0,3078381.2,108.0,15.0,0.0,0.0,4.823389,0.0,0.0,369.34225,87.65763,1363.2701,2.8040044,-1.8558222,-0.049090933,150.58372,153.84872,141.47968,152.11185,785.0,787.0,820.0,827.0,73.0,72.0,74.0,83.0,0.2410729,0.21834283,0.09022649,0.18943456,0.01574931,0.030807693,0.038913544,0.05134889,-6.7104397,-10.806284,5.9697027,-0.22530554,194.5607,-67.98728,491.93048,105.39739,182629.38,104586.53,94868.42,2.0,1.0,0.20182459,0.014587059,0.008324146,80.0,80.0,80.0,80.0,21.555086,21.536394,24.354963,24.343426,-0.026333649,-0.03282311,-0.0751893,-0.027835287,562.72314,0.0,0.0,0.0,0.0,0.0,0.0,0.0,0.0,0.0,0.0,0.0,0.0,0.0,6.8727245,-0.061592143,43.15236,0.0034663007,0.58013237,-0.0065791598,360209.7,0.0,0.030031005,0.046927024,1111.4247,5559.9897,1238.5293,6684.706,0.33241463,0.0,0.0,0.0
235.12398,235.12398,3.116,0.0,0.0,153.79442,9741.0,0.0,100.0,-31.848461,0.0,5.0,0.0,0.0,3084671.8,108.0,15.0,0.0,0.0,4.8225956,0.0,0.0,369.7156,87.65461,1365.3964,2.7234097,-1.898576,-0.05544007,149.22853,151.63448,139.79224,150.8586,792.0,794.0,826.0,834.0,72.0,73.0,75.0,84.0,0.2410729,0.21834283,0.09022649,0.18943456,0.015447423,0.030405778,0.038855523,0.051274877,-4.173796,-9.776986,-1.1835246,-1.985058,30.942648,-238.48857,74.21672,155.98384,188628.62,104992.76,94868.42,2.0,1.0,0.23084813,0.014154813,0.00843215,80.0,80.0,80.0,80.0,21.55517,21.536663,24.355297,24.34435,-0.02308163,-0.025205152,-0.07988136,-0.023257134,910.06085,0.0,0.0,0.0,0.0,0.0,0.0,0.0,0.0,0.0,0.0,0.0,0.0,0.0,7.991329,-0.060842376,41.966545,-0.001968536,0.576792,-0.014678999,496071.06,0.0,0.030930493,0.04769405,1089.3801,5510.5713,1147.1288,6513.316,0.33327293,0.0,0.0,0.0
237.13615,237.13615,3.166,0.0,0.0,150.67122,9186.0,0.0,100.0,-32.066906,0.0,4.0,0.0,0.0,3090279.5,108.0,15.0,0.0,0.0,4.8225956,0.0,0.0,370.14447,87.65134,1367.4658,2.7250822,-1.6486268,-0.05746282,144.3381,148.44736,135.5925,145.78696,799.0,801.0,833.0,840.0,72.0,73.0,75.0,85.0,0.242295,0.2253496,0.09309682,0.22130653,0.015709156,0.030585118,0.038649764,0.050935768,11.539142,-3.8950143,-1.986399,-9.308829,491.54156,-618.2625,320.44348,-378.90222,194627.88,104992.76,94868.42,2.0,1.0,0.2595984,0.013819845,0.008142352,80.0,80.0,80.0,80.0,21.55525,21.536938,24.355522,24.345295,-0.024584413,-0.024466686,-0.07508691,-0.027361412,770.28687,0.0,0.0,0.0,0.0,0.0,0.0,0.0,0.0,0.0,0.0,0.0,0.0,0.0,9.08973,-0.06790074,40.854076,-0.005849621,0.56528383,-0.00824746,445249.12,0.0,0.03223015,0.048012104,1137.7817,5492.1084,982.8972,6367.47,0.3339281,0.0,0.0,0.0
239.09906,239.09906,3.216,0.0,0.0,147.42825,8983.0,0.0,82.30007,-31.947363,0.0,4.0,0.0,0.0,3095900.0,107.0,15.0,0.0,0.0,4.8225956,0.0,0.0,370.62595,87.64786,1369.4773,2.4803596,-1.5764792,-0.17799821,142.92317,144.6244,134.20894,144.97987,805.0,807.0,838.0,846.0,72.0,73.0,75.0,86.0,0.242295,0.2253496,0.09309682,0.22130653,0.015014838,0.029406998,0.039029673,0.050741356,-38.714222,-56.771854,15.848726,-10.8359,-2282.6267,-2751.953,585.56647,-595.6515,200627.12,104992.76,94868.42,2.0,1.0,0.2873703,0.01284024,0.008424878,80.0,80.0,80.0,80.0,21.555326,21.537212,24.355633,24.346266,-0.020396061,-0.027327657,-0.07611535,-0.016126845,718.37787,0.0,0.0,0.0,0.0,0.0,0.0,0.0,0.0,0.0,0.0,0.0,0.0,0.0,10.094475,-0.08443324,39.688595,0.005800764,0.54724944,-0.036619443,424627.94,0.0,0.032370757,0.04886807,1028.9315,5019.2847,763.6689,5771.8726,0.33476162,0.0,0.0,0.0
241.01303,241.01303,3.266,0.0,0.0,144.43251,8903.0,0.0,32.64646,-31.367544,0.0,4.0,0.0,0.0,3101125.5,107.0,15.0,0.0,0.0,4.8225956,0.0,0.0,371.15967,87.64563,1371.43,2.8388975,-1.4309042,0.06954579,142.03018,143.5441,133.49507,143.87437,807.0,809.0,840.0,848.0,72.0,74.0,75.0,87.0,0.24357443,0.23103906,0.094948545,0.24777846,0.012714572,0.027743414,0.041067746,0.053696785,-59.741398,-63.46765,76.74291,26.535763,-148.66148,-3052.776,6943.1787,-3373.749,206225.77,104992.76,94868.42,2.0,1.0,0.3158256,0.0134127345,0.009064436,80.0,80.0,80.0,80.0,21.555407,21.53751,24.355633,24.347292,-0.006861075,-0.016822081,-0.07648297,-0.0042131813,699.31696,0.0,0.0,0.0,0.0,0.0,0.0,0.0,0.0,0.0,0.0,0.0,0.0,0.0,11.187604,-0.014854917,38.528732,0.006795938,0.58296806,-0.02595021,417075.5,0.0,0.03142777,0.051158253,1444.7307,5652.2314,1284.3179,6614.8984,0.3365383,0.0,0.0,0.0
