LapDistance [m],TotalDistance [m],LapTime [s],Sector1Time [s],Sector2Time [s],Speed [km/h],EngineRevs [rpm],ThrottlePercentage [%],BrakePercentage [%],Steer [%],Clutch [%],Gear [int],DRS [0/1],CanUseDRS [0/1],KERSLevel [J],EngineTemperature [C],RacePosition [int],Sector [int],InPits [int],FuelRemaining [kg],CurrentFlag [int],CurrentLapInvalid [int],X [m],Y [m],Z [m],GForceLatitudinal [G],GForceLongitudinal [G],GForceVertical [G],WheelSpeedRearLeft [km/h],WheelSpeedRearRight [km/h],WheelSpeedFrontLeft [km/h],WheelSpeedFrontRight [km/h],BrakeTemperatureRearLeft [C],BrakeTemperatureRearRight [C],BrakeTemperatureFrontLeft [C],BrakeTemperatureFrontRight [C],TyreTemperatureRearLeft [C],TyreTemperatureRearRight [C],TyreTemperatureFrontLeft [C],TyreTemperatureFrontRight [C],TyreWearRearLeft [%],TyreWearRearRight [%],TyreWearFrontLeft [%],TyreWearFrontRight [%],SuspensionPositionRearLeft [m],SuspensionPositionRearRight [m],SuspensionPositionFrontLeft [m],SuspensionPositionFrontRight [m],SuspensionVelocityRearLeft [m/s],SuspensionVelocityRearRight [m/s],SuspensionVelocityFrontLeft [m/s],SuspensionVelocityFrontRight [m/s],SuspensionAccelerationRearLeft [m/s^2],SuspensionAccelerationRearRight [m/s^2],SuspensionAccelerationFrontLeft [m/s^2],SuspensionAccelerationFrontRight [m/s^2],MGUKHarvested [J],MGUHHarvested [J],ERSSpent [J],ERSMode [int],FuelMixMode [int],Yaw [rad],Roll [rad],Pitch [rad],TyreCarcassTemperatureRearLeft [C],TyreCarcassTemperatureRearRight [C],TyreCarcassTemperatureFrontLeft [C],TyreCarcassTemperatureFrontRight [C],TyrePressureRearLeft [PSI],TyrePressureRearRight [PSI],TyrePressureFrontLeft [PSI],TyrePressureFrontRight [PSI],WheelSlipRearLeft [%],WheelSlipRearRight [%],WheelSlipFrontLeft [%],WheelSlipFrontRight [%],Torque [Nm],Handbrake [%],RearLeftInside [C],RearLeftMiddle [C],RearLeftOutside [C],RearRightInside [C],RearRightMiddle [C],RearRightOutside [C],FrontLeftInside [C],FrontLeftMiddle [C],FrontLeftOutside [C],FrontRightInside [C],FrontRightMiddle [C],FrontRightOutside [C],WoldSpeedX [km/h],WoldSpeedY [km/h],WoldSpeedZ [km/h],LocalAngularVelocityX [rad/s],LocalAngularVelocityY [rad/s],LocalAngularVelocityZ [rad/s],IcePower [W],MgukPower [W],FrontRideHeight [m],RearRideHeight [m],LoadRearLeft [N],LoadRearRight [N],LoadFrontLeft [N],LoadFrontRight [N],Extra1 [m],Extra2 [],Extra3 [],Extra4 []
4.3476562,56833.125,0.066,0.0,0.0,288.53357,10368.0,100.0,0.0,2.5251734,0.0,8.0,0.0,0.0,500287.56,114.0,2.0,0.0,0.0,9.230949,0.0,0.0,376.54135,87.6494,1135.6781,-1.1016563,0.20925213,-0.0062701143,293.30472,293.27777,288.7855,287.98083,442.0,441.0,513.0,511.0,64.0,61.0,49.0,48.0,5.1592093,4.596356,4.3636093,3.0469804,0.050577328,0.04721223,0.05391821,0.049979176,0.0,0.0,0.0,0.0,-28.471647,-86.50123,9.293854,-44.73924,0.0,3543.6765,638.27527,1.0,1.0,0.13253973,-0.005681664,-7.5507164E-4,94.0,91.0,86.0,81.0,21.769579,21.6148,24.032627,23.71024,0.015367726,0.017753677,-4.024809E-4,-3.8194074E-4,1043.5999,0.0,0.0,0.0,0.0,0.0,0.0,0.0,0.0,0.0,0.0,0.0,0.0,0.0,11.240271,-0.0012112701,79.35611,-4.902117E-4,-0.13641825,-0.002050672,534461.0,82959.984,0.012069632,0.010208341,8807.114,6883.759,6649.63,4857.8115,0.30440426,0.0,0.0,0.0
8.347656,56837.125,0.116,0.0,0.0,288.88107,10381.0,100.0,0.0,2.7055428,0.0,8.0,0.0,0.0,499660.1,114.0,2.0,0.0,0.0,9.229612,0.0,0.0,377.08936,87.64936,1139.6504,-1.1356112,0.20414512,-0.00782372,293.66214,293.63336,289.1498,288.30612,440.0,439.0,511.0,509.0,64.0,61.0,49.0,48.0,5.160478,4.5968523,4.3637996,3.0471547,0.050633714,0.04724754,0.05399613,0.04993575,0.0,0.0,0.0,0.0,7.510185,-763.3029,54.261078,-59.102467,0.0,7091.583,1265.7102,1.0,1.0,0.12555166,-0.005868431,-7.4493885E-4,94.0,91.0,86.0,81.0,21.770086,21.615044,24.032734,23.710157,0.015303774,0.017832128,-4.0662687E-4,-3.725478E-4,1046.1241,0.0,0.0,0.0,0.0,0.0,0.0,0.0,0.0,0.0,0.0,0.0,0.0,0.0,10.7083845,-6.498289E-4,79.52703,-4.0434685E-4,-0.14368485,-0.004961781,535082.9,82839.31,0.012010913,0.010183769,8847.74,6792.724,6695.628,4840.3906,0.3043623,0.0,0.0,0.0
12.3515625,56841.13,0.166,0.0,0.0,289.22137,10393.0,100.0,0.0,2.899488,0.0,8.0,0.0,0.0,499043.4,114.0,2.0,0.0,0.0,9.228273,0.0,0.0,377.61017,87.649284,1143.6312,-1.1894655,0.2029607,-0.005403816,294.01654,293.94894,289.52203,288.6063,438.0,437.0,510.0,507.0,64.0,61.0,49.0,48.0,5.160478,4.5968523,4.3637996,3.0471547,0.050750967,0.047090147,0.05410333,0.049863465,0.0,0.0,0.0,0.0,53.617355,46.72407,44.94041,-8.569657,0.0,10643.748,1882.3835,1.0,1.0,0.11803369,-0.0061349687,-7.542372E-4,94.0,91.0,86.0,81.0,21.770607,21.615282,24.032852,23.71007,0.015237379,0.017841253,-4.062842E-4,-3.7116086E-4,1048.4786,0.0,0.0,0.0,0.0,0.0,0.0,0.0,0.0,0.0,0.0,0.0,0.0,0.0,10.150418,-0.001260305,79.695465,-9.516136E-4,-0.15601116,-0.006701765,535667.94,82720.71,0.011945357,0.010089767,8911.908,6842.8467,6748.2764,4812.214,0.30428028,0.0,0.0,0.0
16.359375,56845.137,0.216,0.0,0.0,289.5533,10405.0,100.0,0.0,2.9429958,0.0,8.0,0.0,0.0,498437.22,114.0,2.0,0.0,0.0,9.226934,0.0,0.0,378.10236,87.649284,1147.6204,-1.2415574,0.19965631,-0.007970398,294.35873,294.2837,289.87296,288.91315,436.0,435.0,508.0,505.0,64.0,61.0,49.0,48.0,5.161845,4.5973597,4.3640213,3.0473526,0.050821714,0.04695018,0.05422932,0.049767684,0.0,0.0,0.0,0.0,-37.215645,6.9335027,-27.97544,29.946856,0.0,14199.99,2488.5942,1.0,1.0,0.11000965,-0.006452094,-7.432699E-4,94.0,91.0,86.0,81.0,21.771141,21.615515,24.032988,23.709972,0.0151965795,0.01789699,-3.9774284E-4,-3.770283E-4,1050.8462,0.0,0.0,0.0,0.0,0.0,0.0,0.0,0.0,0.0,0.0,0.0,0.0,0.0,9.563813,-7.103025E-4,79.860855,-1.1624355E-4,-0.16286021,-0.004949886,536258.4,82604.13,0.011930707,0.0101064565,8967.597,6799.2725,6804.826,4769.7764,0.30427647,0.0,0.0,0.0
20.375,56849.152,0.266,0.0,0.0,289.8796,10417.0,100.0,0.0,2.8080535,0.0,8.0,0.0,0.0,497841.3,114.0,2.0,0.0,0.0,9.2255945,0.0,0.0,378.5646,87.64928,1151.6178,-1.261478,0.19775128,-0.010564578,294.67834,294.62296,290.1893,289.24857,434.0,434.0,506.0,503.0,64.0,61.0,49.0,48.0,5.161845,4.5973597,4.3640213,3.0473526,0.05083203,0.046861134,0.054292154,0.049732495,0.0,0.0,0.0,0.0,-31.341604,49.526985,-29.866392,31.073385,0.0,17760.271,3084.487,1.0,1.0,0.101938255,-0.006581049,-7.2038174E-4,94.0,91.0,86.0,81.0,21.77168,21.61574,24.033127,23.709873,0.015202412,0.01788536,-3.8899534E-4,-3.8660053E-4,1053.1857,0.0,0.0,0.0,0.0,0.0,0.0,0.0,0.0,0.0,0.0,0.0,0.0,0.0,8.960721,-0.001383729,80.02197,2.7829767E-4,-0.15869306,-7.8112533E-4,536833.1,82489.51,0.011908252,0.010130137,8986.205,6790.409,6832.907,4760.715,0.3042736,0.0,0.0,0.0
24.378906,56853.156,0.316,0.0,0.0,290.20316,10428.0,100.0,0.0,2.7050245,0.0,8.0,0.0,0.0,497255.5,114.0,2.0,0.0,0.0,9.224253,0.0,0.0,378.99667,87.64919,1155.623,-1.2554069,0.1965186,-0.007510368,294.98117,294.95795,290.49014,289.59604,432.0,432.0,504.0,501.0,64.0,61.0,49.0,48.0,5.1632404,4.5978646,4.3642406,3.0475507,0.0508567,0.04692452,0.05430818,0.049763866,0.0,0.0,0.0,0.0,-45.718246,34.372505,-40.957325,-5.6996937,0.0,21324.467,3670.2957,1.0,1.0,0.09422305,-0.0065406347,-7.314682E-4,94.0,91.0,86.0,81.0,21.772228,21.615967,24.033276,23.709776,0.015193257,0.017830033,-3.891932E-4,-3.870299E-4,1055.3911,0.0,0.0,0.0,0.0,0.0,0.0,0.0,0.0,0.0,0.0,0.0,0.0,0.0,8.355569,-0.0012234773,80.17778,-3.1702066E-4,-0.15064338,0.0021926719,537389.8,82376.85,0.011829168,0.010036427,8999.617,6813.896,6841.706,4781.91,0.30418396,0.0,0.0,0.0
28.390625,56857.168,0.366,0.0,0.0,290.52478,10439.0,100.0,0.0,2.7342381,0.0,8.0,0.0,0.0,496679.6,114.0,2.0,0.0,0.0,9.222911,0.0,0.0,379.3985,87.649124,1159.636,-1.2434863,0.19495717,-0.0073815323,295.29306,295.2855,290.8,289.93,430.0,430.0,502.0,499.0,64.0,61.0,49.0,48.0,5.1632404,4.5978646,4.3642406,3.0475507,0.050870515,0.04704769,0.054274455,0.049817134,0.0,0.0,0.0,0.0,20.009275,-26.366114,14.229116,-28.713041,0.0,24892.525,4246.1753,1.0,1.0,0.086821,-0.0064300336,-7.504225E-4,94.0,91.0,86.0,81.0,21.77278,21.616194,24.033415,23.709682,0.015173472,0.017793955,-3.9619935E-4,-3.7875195E-4,1057.6013,0.0,0.0,0.0,0.0,0.0,0.0,0.0,0.0,0.0,0.0,0.0,0.0,0.0,7.755486,-0.0012851085,80.327805,-2.4939034E-4,-0.14718877,0.0010829966,537947.75,82266.09,0.011779775,0.00993478,9003.293,6835.83,6827.634,4808.7197,0.3041258,0.0,0.0,0.0
32.410156,56861.188,0.4,0.0,0.0,290.84317,10450.0,100.0,0.0,2.8690405,0.0,8.0,0.0,0.0,496113.53,114.0,2.0,0.0,0.0,9.221568,0.0,0.0,379.77045,87.64906,1163.6561,-1.2499583,0.19280225,-0.007683332,295.61908,295.5972,291.13068,290.23367,429.0,428.0,500.0,498.0,64.0,60.0,49.0,48.0,5.164624,4.5983663,4.3644724,3.0477579,0.050914623,0.04709964,0.054294024,0.04982435,0.90368086,0.6745755,0.5554407,-0.17054377,-28.873974,-39.683277,-7.8588715,-26.50022,0.0,28464.45,4812.2236,1.0,1.0,0.07934425,-0.0064549264,-7.6568127E-4,94.0,91.0,86.0,81.0,21.773335,21.616423,24.033562,23.70959,0.015132122,0.017799761,-4.013021E-4,-3.7063926E-4,1059.8109,0.0,0.0,0.0,0.0,0.0,0.0,0.0,0.0,0.0,0.0,0.0,0.0,0.0,7.1539536,-0.0012081473,80.472404,-4.1602564E-4,-0.15244205,-0.0014656379,538504.2,82157.22,0.011728745,0.009854582,9021.366,6838.628,6840.6455,4811.244,0.30405712,0.0,0.0,0.0
36.433594,56865.21,0.45,0.0,0.0,291.1568,10462.0,100.0,0.0,2.9949634,0.0,8.0,0.0,0.0,495557.16,114.0,2.0,0.0,0.0,9.220223,0.0,0.0,380.1121,87.64901,1167.6833,-1.2761868,0.19025445,-0.0035694484,295.94,295.90854,291.4654,290.52252,427.0,426.0,498.0,496.0,64.0,60.0,49.0,48.0,5.164624,4.5983663,4.3644724,3.0477579,0.050964575,0.047164842,0.054350592,0.04979393,1.0550021,3.9857621,1.6336887,-0.8491426,-14.618038,236.5708,29.866396,-28.096136,0.0,32040.19,5368.5884,1.0,1.0,0.071518846,-0.0065876055,-7.635355E-4,94.0,91.0,86.0,81.0,21.773901,21.61665,24.033712,23.7095,0.015072449,0.017802855,-4.0065075E-4,-3.6749576E-4,1062.1143,0.0,0.0,0.0,0.0,0.0,0.0,0.0,0.0,0.0,0.0,0.0,0.0,0.0,6.5420046,-5.958618E-4,80.61187,1.7408948E-4,-0.16038018,-0.005012504,539055.56,82050.21,0.011682192,0.009798487,9059.756,6847.3984,6874.073,4798.849,0.30400658,0.0,0.0,0.0
40.46875,56869.246,0.516,0.0,0.0,291.46472,10473.0,100.0,0.0,2.9922261,0.0,8.0,0.0,0.0,495010.38,114.0,2.0,0.0,0.0,9.218879,0.0,0.0,380.4227,87.64896,1171.7175,-1.3030475,0.18806204,-0.009922727,296.2615,296.20676,291.7866,290.81345,425.0,424.0,497.0,494.0,65.0,60.0,49.0,48.0,5.166066,4.598874,4.36472,3.0479767,0.051019374,0.047037583,0.054417495,0.049753413,0.0,0.0,0.0,0.0,23.160873,89.45165,7.617473,13.424456,0.0,35619.773,5915.339,1.0,1.0,0.06334821,-0.0067379912,-7.634163E-4,94.0,91.0,86.0,81.0,21.774473,21.61687,24.033875,23.709408,0.015060795,0.017845081,-3.9368792E-4,-3.7379647E-4,1064.2981,0.0,0.0,0.0,0.0,0.0,0.0,0.0,0.0,0.0,0.0,0.0,0.0,0.0,5.9143353,-0.0015823029,80.74611,-2.673493E-4,-0.16496512,-0.00225512,539596.56,81945.05,0.011630904,0.009753262,9092.94,6813.089,6904.3843,4783.5205,0.30396175,0.0,0.0,0.0
44.507812,56873.285,0.566,0.0,0.0,291.76855,10483.0,100.0,0.0,2.895539,0.0,8.0,0.0,0.0,494473.0,114.0,2.0,0.0,0.0,9.217534,0.0,0.0,380.70163,87.648926,1175.7583,-1.3128113,0.1862733,-0.009482344,296.5576,296.52005,292.08246,291.12524,423.0,422.0,495.0,492.0,65.0,60.0,49.0,48.0,5.166066,4.598874,4.36472,3.0479767,0.05104643,0.04704713,0.054454524,0.049747996,0.0,0.0,0.0,0.0,-33.581253,-13.263522,-27.291471,15.851851,0.0,39203.035,6452.7495,1.0,1.0,0.055161983,-0.0067933565,-7.661581E-4,94.0,91.0,86.0,81.0,21.775055,21.61709,24.03404,23.709314,0.015052368,0.017826267,-3.87906E-4,-3.796828E-4,1066.3639,0.0,0.0,0.0,0.0,0.0,0.0,0.0,0.0,0.0,0.0,0.0,0.0,0.0,5.277632,-0.0011125944,80.8748,3.3564404E-5,-0.16165948,6.461756E-5,540128.2,81841.695,0.011606271,0.009720258,9114.66,6811.202,6920.327,4785.1753,0.3039322,0.0,0.0,0.0
48.558594,56877.336,0.6,0.0,0.0,292.07,10494.0,100.0,0.0,2.8241792,0.0,8.0,0.0,0.0,493944.84,114.0,2.0,0.0,0.0,9.216187,0.0,0.0,380.94867,87.64885,1179.8054,-1.3061782,0.18524967,-0.007407127,296.84564,296.8293,292.36838,291.4435,421.0,420.0,493.0,490.0,65.0,60.0,49.0,48.0,5.1675234,4.599379,4.364963,3.0481935,0.051064536,0.047110114,0.054462016,0.04977729,0.60863787,2.3011117,0.11377036,0.8710473,-11.989473,61.891968,-16.58946,16.710161,0.0,42789.96,6980.9243,1.0,1.0,0.047227122,-0.0067533636,-7.748604E-4,94.0,91.0,86.0,81.0,21.775642,21.617306,24.03421,23.709223,0.015044884,0.01778315,-3.8849004E-4,-3.7963712E-4,1068.513,0.0,0.0,0.0,0.0,0.0,0.0,0.0,0.0,0.0,0.0,0.0,0.0,0.0,4.6407075,-0.0012573753,80.99773,-3.798859E-4,-0.15611573,0.0018745718,540649.44,81740.12,0.0115316985,0.009634058,9122.9,6831.6484,6930.2886,4807.401,0.30384827,0.0,0.0,0.0
52.617188,56881.395,0.666,0.0,0.0,292.36975,10504.0,100.0,0.0,2.824576,0.0,8.0,0.0,0.0,493425.75,114.0,2.0,0.0,0.0,9.214839,0.0,0.0,381.164,87.64878,1183.8584,-1.294764,0.18394576,-0.00764898,297.1369,297.131,292.65967,291.75284,419.0,419.0,491.0,488.0,65.0,60.0,49.0,48.0,5.1675234,4.599379,4.364963,3.0481935,0.0510759,0.047227457,0.0544361,0.04982223,0.0,0.0,0.0,0.0,51.84709,28.753279,24.206934,14.229115,0.0,46380.496,7500.02,1.0,1.0,0.03951226,-0.00665275,-7.932186E-4,94.0,91.0,86.0,81.0,21.776234,21.617527,24.03438,23.709137,0.015025984,0.017745595,-3.9218456E-4,-3.7515757E-4,1070.2723,0.0,0.0,0.0,0.0,0.0,0.0,0.0,0.0,0.0,0.0,0.0,0.0,0.0,4.008363,-0.0012873206,81.114845,-2.8906937E-4,-0.1533979,0.0014969738,541024.06,81640.27,0.011482273,0.009526934,9127.805,6852.747,6917.8535,4829.1826,0.3037815,0.0,0.0,0.0
56.683594,56885.46,0.716,0.0,0.0,292.66617,10515.0,100.0,0.0,2.9329038,0.0,8.0,0.0,0.0,492915.62,114.0,2.0,0.0,0.0,9.213491,0.0,0.0,381.3477,87.64871,1187.9171,-1.2994511,0.18149856,-0.008553043,297.43704,297.4207,292.96436,292.03906,417.0,417.0,489.0,487.0,65.0,60.0,49.0,48.0,5.168971,4.59988,4.3652167,3.0484173,0.051109616,0.04727692,0.05444526,0.04983372,0.0,0.0,0.0,0.0,67.31002,16.60287,39.535755,3.781914,0.0,49974.6,8010.1553,1.0,1.0,0.03176326,-0.0066629434,-8.021593E-4,94.0,91.0,86.0,81.0,21.776829,21.617748,24.034552,23.70905,0.014986578,0.017738324,-3.9670945E-4,-3.6750865E-4,1071.7534,0.0,0.0,0.0,0.0,0.0,0.0,0.0,0.0,0.0,0.0,0.0,0.0,0.0,3.3756046,-0.0014644337,81.22604,-2.0911316E-4,-0.1571255,-0.0013301346,541206.0,81542.16,0.011431168,0.009451819,9141.791,6855.8633,6926.674,4834.0605,0.30371094,0.0,0.0,0.0
60.757812,56889.535,0.749,0.0,0.0,292.95728,10525.0,100.0,0.0,3.078525,0.0,8.0,0.0,0.0,492414.3,114.0,2.0,0.0,0.0,9.212144,0.0,0.0,381.49957,87.64869,1191.9812,-1.3240461,0.17838107,-0.010680399,297.73785,297.7041,293.27292,292.30777,416.0,415.0,487.0,485.0,65.0,60.0,49.0,48.0,5.168971,4.59988,4.3652167,3.0484173,0.051151194,0.047272865,0.05449,0.049811922,0.6897747,-0.8835643,0.8502602,-0.6010383,9.575485,-40.38065,5.739927,-8.288024,0.0,53572.246,8511.465,1.0,1.0,0.023730097,-0.0067622056,-8.0764294E-4,94.0,91.0,86.0,81.0,21.777433,21.617968,24.034729,23.708967,0.014939251,0.017759345,-3.9902405E-4,-3.6137234E-4,1073.1298,0.0,0.0,0.0,0.0,0.0,0.0,0.0,0.0,0.0,0.0,0.0,0.0,0.0,2.7338858,-0.0014487327,81.331085,-1.04443745E-4,-0.16431695,-0.0033745253,541386.1,81445.734,0.011411941,0.009425347,9168.654,6840.713,6946.664,4821.6284,0.3036995,0.0,0.0,0.0
64.83984,56893.617,0.799,0.0,0.0,293.2419,10535.0,100.0,0.0,3.130506,0.0,8.0,0.0,0.0,491921.7,114.0,2.0,0.0,0.0,9.210796,0.0,0.0,381.61896,87.64864,1196.0503,-1.355955,0.1755566,-0.0085242465,298.02835,297.97995,293.5754,292.5702,414.0,413.0,486.0,483.0,65.0,60.0,49.0,48.0,5.170476,4.600387,4.3654914,3.0486567,0.05122961,0.047222465,0.05457625,0.04976253,0.56371087,-1.156479,1.5679746,-1.1339037,-88.20443,-17.850096,-20.505487,-1.9714234,0.0,57173.375,9004.095,1.0,1.0,0.0153222475,-0.006958622,-8.108616E-4,94.0,91.0,86.0,81.0,21.778048,21.618181,24.034918,23.708881,0.014888471,0.017775342,-3.9353388E-4,-3.6427882E-4,1074.4958,0.0,0.0,0.0,0.0,0.0,0.0,0.0,0.0,0.0,0.0,0.0,0.0,0.0,2.0756087,-9.0979016E-4,81.429634,1.1120712E-5,-0.1707796,-0.003293204,541560.8,81350.984,0.0113652125,0.009377204,9216.6455,6824.57,6992.093,4802.222,0.30364418,0.0,0.0,0.0
68.92578,56897.703,0.866,0.0,0.0,293.52112,10545.0,100.0,0.0,3.0257142,0.0,8.0,0.0,0.0,491437.56,114.0,2.0,0.0,0.0,9.209449,0.0,0.0,381.7051,87.64864,1200.1243,-1.3692372,0.17356794,-0.01136444,298.30396,298.26358,293.85168,292.85242,412.0,411.0,484.0,481.0,65.0,60.0,49.0,48.0,5.170476,4.600387,4.3654914,3.0486567,0.051236134,0.04718045,0.05461496,0.04974264,0.0,0.0,0.0,0.0,-11.198221,24.327635,-23.01335,26.09789,0.0,60777.914,9488.201,1.0,1.0,0.0067969547,-0.007040362,-7.992983E-4,94.0,91.0,86.0,81.0,21.77867,21.618391,24.035112,23.708792,0.01488372,0.017759698,-3.85023E-4,-3.7251986E-4,1075.8583,0.0,0.0,0.0,0.0,0.0,0.0,0.0,0.0,0.0,0.0,0.0,0.0,0.0,1.4063987,-0.0013371131,81.521515,2.1441426E-4,-0.16895998,-5.0721504E-4,541733.25,81257.875,0.0113521535,0.009382996,9231.865,6816.912,7008.839,4799.005,0.30364418,0.0,0.0,0.0
73.015625,56901.793,0.916,0.0,0.0,293.79736,10555.0,100.0,0.0,2.8891003,0.0,8.0,0.0,0.0,490961.8,114.0,2.0,0.0,0.0,9.208101,0.0,0.0,381.75775,87.6486,1204.2026,-1.3591875,0.17231733,-0.015270051,298.56702,298.55383,294.10956,293.1499,410.0,409.0,482.0,479.0,65.0,60.0,49.0,48.0,5.1720037,4.600892,4.3657556,3.04889,0.051247425,0.047247946,0.054641295,0.049756177,0.0,0.0,0.0,0.0,75.826035,-692.3183,-63.72927,16.857681,0.0,64385.766,9963.974,1.0,1.0,-0.0014726969,-0.0070371833,-7.880926E-4,94.0,92.0,86.0,81.0,21.779295,21.6186,24.035313,23.708706,0.014894539,0.0177328,-3.8199252E-4,-3.766068E-4,1077.2177,0.0,0.0,0.0,0.0,0.0,0.0,0.0,0.0,0.0,0.0,0.0,0.0,0.0,0.73704696,-0.0010388249,81.60705,-5.388115E-4,-0.16182193,0.0036741272,541903.9,81166.36,0.011298312,0.009361195,9228.506,6814.3877,7022.4756,4811.3105,0.30359173,0.0,0.0,0.0
77.109375,56905.887,0.949,0.0,0.0,294.07297,10564.0,100.0,0.0,2.811126,0.0,8.0,0.0,0.0,490494.28,114.0,2.0,0.0,0.0,9.206754,0.0,0.0,381.77716,87.648476,1208.2852,-1.3346881,0.17142859,-0.008935,298.82034,298.82657,294.3655,293.44916,408.0,408.0,480.0,478.0,65.0,59.0,49.0,48.0,5.1720037,4.600892,4.3657556,3.04889,0.051234283,0.047394525,0.05457042,0.049843714,0.5856156,4.0418653,-1.0878592,1.810938,56.259323,12.820972,25.400518,-10.071694,0.0,67996.914,10431.518,1.0,1.0,-0.0093555655,-0.006807414,-8.2194805E-4,94.0,92.0,86.0,81.0,21.779924,21.618814,24.03551,23.708626,0.014869239,0.017630754,-3.842158E-4,-3.7422567E-4,1078.4592,0.0,0.0,0.0,0.0,0.0,0.0,0.0,0.0,0.0,0.0,0.0,0.0,0.0,0.077863164,-0.0020074374,81.6869,-7.5889146E-4,-0.15460593,0.0035464375,542066.25,81076.44,0.011220746,0.009192218,9230.184,6870.558,6990.4976,4855.5977,0.30348873,0.0,0.0,0.0
81.21094,56909.99,0.999,0.0,0.0,294.3474,10574.0,100.0,0.0,2.8382428,0.0,8.0,0.0,0.0,490034.8,114.0,2.0,0.0,0.0,9.205406,0.0,0.0,381.7639,87.648415,1212.3715,-1.3147143,0.17000239,-0.0074074403,299.08832,299.09842,294.6354,293.7304,407.0,406.0,479.0,476.0,65.0,59.0,49.0,48.0,5.173485,4.6013856,4.3660088,3.0491154,0.05125306,0.047544777,0.054535598,0.04990331,-0.29481944,2.0914524,-0.7644295,0.8017569,-61.35552,-66.559006,-10.353326,-24.488564,0.0,71611.29,10890.984,1.0,1.0,-0.017024484,-0.00667913,-8.507967E-4,94.0,92.0,86.0,81.0,21.78056,21.619032,24.035706,23.708555,0.01484159,0.01758916,-3.891045E-4,-3.6772017E-4,1079.8118,0.0,0.0,0.0,0.0,0.0,0.0,0.0,0.0,0.0,0.0,0.0,0.0,0.0,-0.57115614,-8.2751684E-4,81.76118,-2.7816292E-4,-0.15322001,0.0020661098,542232.75,80988.05,0.011183439,0.009089309,9230.071,6891.295,6974.5547,4880.008,0.30342007,0.0,0.0,0.0
85.31641,56914.094,1.066,0.0,0.0,294.61954,10583.0,100.0,0.0,2.87756,0.0,8.0,0.0,0.0,489583.4,114.0,2.0,0.0,0.0,9.204059,0.0,0.0,381.7183,87.64839,1216.4614,-1.3066094,0.16826648,-0.011139795,299.36758,299.36462,294.9148,293.9961,405.0,404.0,477.0,474.0,65.0,59.0,49.0,48.0,5.173485,4.6013856,4.3660088,3.0491154,0.05124334,0.0475918,0.05451839,0.0499281,0.0,0.0,0.0,0.0,23.9253,-30.30896,17.729399,-6.1959004,0.0,75228.96,11342.385,1.0,1.0,-0.024748523,-0.0066221147,-8.505583E-4,94.0,92.0,86.0,81.0,21.781193,21.619247,24.0359,23.708488,0.014825908,0.017576754,-3.8990923E-4,-3.6459832E-4,1081.0659,0.0,0.0,0.0,0.0,0.0,0.0,0.0,0.0,0.0,0.0,0.0,0.0,0.0,-1.2147819,-0.0015083635,81.82974,5.6241493E-5,-0.15577984,3.4256178E-4,542400.9,80901.22,0.011151294,0.009054653,9222.823,6896.586,6970.4795,4891.8926,0.3033905,0.0,0.0,0.0
89.42578,56918.203,1.099,0.0,0.0,294.88846,10593.0,100.0,0.0,2.9248862,0.0,8.0,0.0,0.0,489139.97,114.0,2.0,0.0,0.0,9.202711,0.0,0.0,381.64056,87.64833,1220.5544,-1.3132586,0.16621199,-0.008289179,299.63962,299.6259,295.19302,294.25452,403.0,402.0,475.0,472.0,65.0,59.0,49.0,48.0,5.174968,4.6018777,4.3662663,3.0493429,0.051284526,0.04764072,0.05454352,0.049941204,0.2776086,0.26263294,0.4519522,-0.13925134,-52.598106,-76.85869,-10.272858,-31.596415,0.0,78849.875,11785.853,1.0,1.0,-0.032625962,-0.006642244,-8.560419E-4,94.0,92.0,86.0,81.0,21.781832,21.619467,24.036097,23.708422,0.014790131,0.017564539,-3.8954624E-4,-3.628703E-4,1082.4156,0.0,0.0,0.0,0.0,0.0,0.0,0.0,0.0,0.0,0.0,0.0,0.0,0.0,-1.8597381,-0.0010507458,81.89235,-9.79091E-5,-0.15923591,-9.345007E-4,542565.4,80815.92,0.011106728,0.008988726,9243.414,6900.4346,6987.148,4900.627,0.3033371,0.0,0.0,0.0
93.53516,56922.312,1.149,0.0,0.0,295.15323,10602.0,100.0,0.0,2.9462235,0.0,8.0,0.0,0.0,488704.34,114.0,2.0,0.0,0.0,9.201364,0.0,0.0,381.53046,87.64827,1224.6508,-1.3251184,0.1641588,-0.0077230176,299.90558,299.88565,295.4639,294.5115,401.0,401.0,473.0,471.0,65.0,59.0,49.0,48.0,5.174968,4.6018777,4.3662663,3.0493429,0.05131689,0.047644954,0.054575726,0.049935132,1.2689083,0.2992898,1.0322033,0.045821067,48.37363,14.685092,27.479225,8.408724,0.0,82474.016,12221.495,1.0,1.0,-0.040649083,-0.0066976263,-8.559227E-4,94.0,92.0,86.0,81.0,21.782478,21.61968,24.036297,23.708353,0.014761914,0.017554857,-3.8790284E-4,-3.62845E-4,1083.6589,0.0,0.0,0.0,0.0,0.0,0.0,0.0,0.0,0.0,0.0,0.0,0.0,0.0,-2.5100696,-0.0012621913,81.94858,-3.9086488E-5,-0.1615293,-0.0016153476,542727.5,80732.12,0.01105331,0.008935861,9264.432,6901.1924,7009.2476,4903.969,0.30328465,0.0,0.0,0.0
97.65234,56926.43,1.216,0.0,0.0,295.4125,10611.0,100.0,0.0,3.0189626,0.0,8.0,0.0,0.0,488290.16,114.0,2.0,0.0,0.0,9.200016,0.0,0.0,381.3876,87.64825,1228.7495,-1.3465521,0.16114244,-0.0108217215,300.16315,300.13818,295.7314,294.759,399.0,399.0,471.0,469.0,66.0,59.0,49.0,48.0,5.1764865,4.6023707,4.36654,3.0495822,0.05135413,0.04761551,0.054621976,0.049905084,0.0,0.0,0.0,0.0,4.6938653,-14.738738,12.016292,-7.550418,0.0,86101.305,12635.695,1.0,1.0,-0.048818585,-0.0068092644,-8.5926056E-4,94.0,92.0,86.0,81.0,21.78313,21.619892,24.036505,23.708286,0.01471587,0.017553898,-3.8799123E-4,-3.5992198E-4,1084.8932,0.0,0.0,0.0,0.0,0.0,0.0,0.0,0.0,0.0,0.0,0.0,0.0,0.0,-3.170306,-0.001473234,81.997765,2.0190672E-4,-0.16507465,-0.002396027,542884.8,80100.79,0.011028349,0.008905997,9288.863,6886.461,7027.6533,4885.425,0.30325317,0.0,0.0,0.0
101.77344,56930.55,1.266,0.0,0.0,295.6648,10620.0,100.0,0.0,3.037908,0.0,8.0,0.0,0.0,487931.5,114.0,2.0,0.0,0.0,9.1986685,0.0,0.0,381.21143,87.64823,1232.8506,-1.3652205,0.15750745,-0.009731919,300.4088,300.38092,295.9893,295.00363,398.0,397.0,470.0,467.0,66.0,59.0,49.0,48.0,5.1764865,4.6023707,4.36654,3.0495822,0.051386986,0.047588132,0.054674678,0.049886186,0.0,0.0,0.0,0.0,-28.52529,-8.153914,-19.070501,4.599988,0.0,89731.586,12994.357,1.0,1.0,-0.057141438,-0.006910548,-8.536577E-4,94.0,92.0,86.0,81.0,21.78379,21.6201,24.03672,23.70822,0.014663413,0.017525181,-3.8503518E-4,-3.5963918E-4,1086.1146,0.0,0.0,0.0,0.0,0.0,0.0,0.0,0.0,0.0,0.0,0.0,0.0,0.0,-3.8405213,-9.478497E-4,82.03927,2.9567396E-4,-0.16718267,-0.0014558226,543035.44,79084.664,0.010996069,0.008890343,9315.087,6878.715,7054.665,4881.953,0.30323124,0.0,0.0,0.0
105.89844,56934.676,1.299,0.0,0.0,295.91043,10628.0,100.0,0.0,3.0381513,0.0,8.0,0.0,0.0,487628.06,114.0,2.0,0.0,0.0,9.197321,0.0,0.0,381.00153,87.64818,1236.9534,-1.3789804,0.1544407,-0.009312362,300.64426,300.61856,296.23462,295.24796,396.0,395.0,468.0,465.0,66.0,59.0,49.0,48.0,5.1780424,4.602864,4.366823,3.0498295,0.051414408,0.04755861,0.054714873,0.0498756,0.9747594,-0.114887945,1.0118632,0.033974644,36.679207,48.708908,12.405212,24.086233,0.0,93364.805,13297.808,1.0,1.0,-0.06550979,-0.0069883536,-8.4233284E-4,94.0,92.0,86.0,81.0,21.784458,21.620304,24.03694,23.708153,0.0146203665,0.017486436,-3.8333744E-4,-3.5904255E-4,1087.225,0.0,0.0,0.0,0.0,0.0,0.0,0.0,0.0,0.0,0.0,0.0,0.0,0.0,-4.5183406,-0.0013552278,82.07307,1.7133386E-4,-0.16727145,-0.0014351925,543181.4,78106.11,0.010937323,0.008856319,9334.433,6878.787,7079.536,4884.6387,0.30318165,0.0,0.0,0.0
110.03516,56938.812,1.366,0.0,0.0,296.1504,10636.0,100.0,0.0,2.9923089,0.0,8.0,0.0,0.0,487377.94,114.0,2.0,0.0,0.0,9.195973,0.0,0.0,380.75766,87.64814,1241.0579,-1.3810253,0.15156277,-0.010905863,300.87253,300.8538,296.47028,295.49307,394.0,394.0,466.0,464.0,66.0,59.0,49.0,48.0,5.1780424,4.602864,4.366823,3.0498295,0.051420104,0.04756438,0.05473521,0.04987931,0.0,0.0,0.0,0.0,19.083914,18.976625,-9.843705,25.132296,0.0,97000.85,13547.931,1.0,1.0,-0.07383226,-0.007006156,-8.3982944E-4,94.0,92.0,86.0,81.0,21.78513,21.620512,24.037167,23.708082,0.014587053,0.017440196,-3.8024355E-4,-3.603377E-4,1088.3296,0.0,0.0,0.0,0.0,0.0,0.0,0.0,0.0,0.0,0.0,0.0,0.0,0.0,-5.1993136,-0.0015056569,82.099525,-3.322408E-5,-0.16544068,3.609045E-4,543324.3,77160.0,0.01090536,0.008829611,9342.432,6879.508,7086.47,4887.2944,0.30315304,0.0,0.0,0.0
114.171875,56942.95,1.416,0.0,0.0,296.3859,10644.0,100.0,0.0,2.9571805,0.0,8.0,0.0,0.0,487179.56,114.0,2.0,0.0,0.0,9.194626,0.0,0.0,380.47974,87.64812,1245.1633,-1.3760031,0.149005,-0.009840634,301.09415,301.08356,296.6993,295.73663,392.0,392.0,465.0,462.0,66.0,59.0,49.0,48.0,5.1795983,4.603351,4.3671002,3.0500731,0.051431656,0.04762579,0.054735944,0.04990638,0.0,0.0,0.0,0.0,-16.683338,-9.293854,-12.418625,-13.062355,0.0,100639.65,13746.303,1.0,1.0,-0.08203754,-0.0069649345,-8.522272E-4,94.0,92.0,86.0,81.0,21.785805,21.620718,24.037395,23.708023,0.014550708,0.017382607,-3.7914922E-4,-3.5943597E-4,1089.4274,0.0,0.0,0.0,0.0,0.0,0.0,0.0,0.0,0.0,0.0,0.0,0.0,0.0,-5.879041,-0.0010122523,82.11924,-2.6549667E-4,-0.16294041,0.0011110023,543463.56,76240.47,0.01088369,0.008783251,9349.129,6891.5264,7086.0913,4900.1416,0.3031168,0.0,0.0,0.0
118.31641,56947.094,1.466,0.0,0.0,296.61844,10652.0,100.0,0.0,2.8705618,0.0,8.0,0.0,0.0,487031.7,114.0,2.0,0.0,0.0,9.193278,0.0,0.0,380.168,87.64805,1249.27,-1.3573364,0.1472194,-0.008817654,301.31116,301.3107,296.9211,295.98407,391.0,390.0,463.0,460.0,66.0,59.0,49.0,48.0,5.1795983,4.603351,4.3671002,3.0500731,0.05141809,0.047710102,0.05470869,0.049954835,0.0,0.0,0.0,0.0,56.9567,46.764305,25.065239,24.582443,0.0,104281.17,13894.204,1.0,1.0,-0.09005889,-0.0068479506,-8.536577E-4,94.0,92.0,86.0,81.0,21.786484,21.620924,24.03762,23.707964,0.014528509,0.017309401,-3.7744778E-4,-3.6034477E-4,1090.5209,0.0,0.0,0.0,0.0,0.0,0.0,0.0,0.0,0.0,0.0,0.0,0.0,0.0,-6.5511947,-0.0014354769,82.133156,-3.5485928E-4,-0.15842797,0.0024305028,543600.5,75342.45,0.010815656,0.0087033985,9341.472,6913.966,7079.8203,4931.5557,0.30304718,0.0,0.0,0.0
122.46484,56951.242,1.499,0.0,0.0,296.8486,10660.0,100.0,0.0,2.765875,0.0,8.0,0.0,0.0,486933.25,114.0,2.0,0.0,0.0,9.191931,0.0,0.0,379.82303,87.64804,1253.3767,-1.3302071,0.14435232,-0.0028757146,301.52203,301.5606,297.13986,296.23267,389.0,388.0,461.0,459.0,66.0,59.0,49.0,48.0,5.181112,4.6038256,4.367354,3.050299,0.051375397,0.04797179,0.054684233,0.050003335,-1.7154961,6.4676995,0.23201106,0.2903491,-42.325256,-4.479303,80.62719,-57.063988,0.0,107925.305,13992.643,1.0,1.0,-0.097839266,-0.006743055,-8.4245205E-4,94.0,92.0,86.0,81.0,21.78716,21.621134,24.037846,23.707912,0.01447742,0.01728495,-3.7236023E-4,-3.6014957E-4,1091.6248,0.0,0.0,0.0,0.0,0.0,0.0,0.0,0.0,0.0,0.0,0.0,0.0,0.0,-7.2114635,4.049185E-4,82.142,6.7481404E-4,-0.15316233,0.0013209888,543742.4,74458.93,0.01079824,0.008715215,9328.786,6916.51,7072.051,4948.4053,0.30304146,0.0,0.0,0.0
126.61719,56955.395,1.549,0.0,0.0,297.07788,10668.0,100.0,0.0,2.6603556,0.0,8.0,0.0,0.0,486883.53,114.0,2.0,0.0,0.0,9.190583,0.0,0.0,379.44537,87.64796,1257.4834,-1.293902,0.14434229,-0.010704105,301.74094,301.75806,297.35635,296.47937,387.0,387.0,459.0,457.0,66.0,58.0,49.0,48.0,5.181112,4.6038256,4.367354,3.050299,0.051362775,0.047972184,0.054598812,0.05009777,-0.04380941,4.2285023,-1.804456,2.1739302,62.656387,183.30215,33.48737,-5.216903,0.0,111572.21,14042.367,1.0,1.0,-0.10535994,-0.0064698467,-8.764267E-4,94.0,92.0,86.0,81.0,21.787838,21.621344,24.038069,23.707867,0.014496986,0.01714484,-3.7348425E-4,-3.6279138E-4,1092.7024,0.0,0.0,0.0,0.0,0.0,0.0,0.0,0.0,0.0,0.0,0.0,0.0,0.0,-7.8558636,-0.0024331978,82.14685,-0.0015544349,-0.147906,0.005241641,543871.0,73594.43,0.010747842,0.008581884,9303.125,6974.0405,7025.409,4998.0273,0.30296993,0.0,0.0,0.0
130.76562,56959.543,1.599,0.0,0.0,297.3066,10675.0,100.0,0.0,2.5339267,0.0,8.0,0.0,0.0,486877.06,114.0,2.0,0.0,0.0,9.189235,0.0,0.0,379.03598,87.647865,1261.5901,-1.2525855,0.14329168,-0.0017569201,301.95065,301.97156,297.57108,296.72946,386.0,385.0,458.0,455.0,66.0,58.0,49.0,48.0,5.182553,4.6042833,4.3675685,3.0504959,0.051374555,0.048127525,0.054544713,0.050187614,-0.2042949,1.2246518,-0.94436103,1.4790146,-50.452343,-113.92681,-3.634393,-16.884504,0.0,115221.66,14048.837,1.0,1.0,-0.11260297,-0.00625769,-9.063482E-4,94.0,92.0,86.0,81.0,21.788517,21.621563,24.038288,23.707832,0.01447007,0.017022181,-3.7163027E-4,-3.6444038E-4,1093.6819,0.0,0.0,0.0,0.0,0.0,0.0,0.0,0.0,0.0,0.0,0.0,0.0,0.0,-8.481976,-4.199833E-4,82.14844,-4.5782785E-4,-0.14174795,0.0043875333,544001.56,73005.695,0.010682589,0.008444498,9293.188,7025.7705,7007.708,5041.579,0.30286407,0.0,0.0,0.0
134.91797,56963.695,1.666,0.0,0.0,297.5359,10683.0,100.0,0.0,2.3132865,0.0,8.0,0.0,0.0,486878.8,114.0,2.0,0.0,0.0,9.187884,0.0,0.0,378.5959,87.647865,1265.6968,-1.1892359,0.14253196,-0.007150422,302.16174,302.19543,297.77313,296.99646,384.0,383.0,456.0,454.0,66.0,58.0,49.0,48.0,5.182553,4.6042833,4.3675685,3.0504959,0.051265888,0.048203427,0.054445904,0.050306056,0.0,0.0,0.0,0.0,8.19414,24.743376,-21.564959,14.027952,0.0,118873.695,14048.837,1.0,1.0,-0.11939752,-0.005932084,-8.891821E-4,94.0,92.0,86.0,81.0,21.78919,21.62179,24.038498,23.707808,0.014497514,0.01688465,-3.683617E-4,-3.6839244E-4,1094.7714,0.0,0.0,0.0,0.0,0.0,0.0,0.0,0.0,0.0,0.0,0.0,0.0,0.0,-9.07978,5.3686195E-4,82.14859,-6.523703E-4,-0.13035966,0.0073269927,544135.7,73005.69,0.010656696,0.008454964,9226.71,7076.5654,6959.056,5099.5596,0.30286407,0.0,0.0,0.0
139.07031,56967.848,1.716,0.0,0.0,297.76245,10689.0,100.0,0.46922103,1.9427464,0.0,8.0,0.0,0.0,486973.22,114.0,2.0,0.0,0.0,9.186534,0.0,0.0,378.127,87.647865,1269.8035,-1.0902919,0.13325106,-0.00994019,302.32523,302.37466,297.91864,297.23413,382.0,382.0,454.0,452.0,66.0,58.0,49.0,48.0,5.1837316,4.6046133,4.3677244,3.050655,0.051151436,0.048360854,0.054283056,0.050461017,0.0,0.0,0.0,0.0,-16.830868,86.43417,-68.07446,27.97544,90.14691,122528.25,14048.837,1.0,1.0,-0.12547761,-0.0054473383,-8.929968E-4,94.0,92.0,86.0,81.0,21.789852,21.622023,24.038692,23.707794,0.014436021,0.016561558,-4.9728464E-4,-5.3863204E-4,1095.5989,0.0,0.0,0.0,0.0,0.0,0.0,0.0,0.0,0.0,0.0,0.0,0.0,0.0,-9.635892,-7.785729E-4,82.14858,-0.0015530658,-0.11258593,0.011958209,544241.3,73005.69,0.01067249,0.008451876,9139.815,7160.922,6881.675,5175.07,0.3028698,0.0,0.0,0.0
143.22656,56972.004,1.766,0.0,0.0,297.12985,10583.0,91.721985,19.922173,1.4371691,0.0,8.0,0.0,0.0,492745.7,114.0,2.0,0.0,0.0,9.185212,0.0,0.0,377.6325,87.64785,1273.9061,-0.94713897,-0.574775,0.01063182,299.41293,299.285,295.66772,294.89224,388.0,388.0,459.0,457.0,66.0,58.0,49.0,48.0,5.1837316,4.6046133,4.3677244,3.050655,0.050928187,0.04849162,0.053960714,0.050597373,0.0,0.0,0.0,0.0,-219.60582,-259.10135,165.37158,153.85149,5862.3193,126085.87,14048.837,1.0,1.0,-0.13038355,-0.0047625615,-5.4979324E-4,94.0,92.0,86.0,81.0,21.790462,21.622238,24.038889,23.70782,0.007168098,0.008221308,-0.005774183,-0.0066857827,1081.0435,0.0,0.0,0.0,0.0,0.0,0.0,0.0,0.0,0.0,0.0,0.0,0.0,0.0,-10.100151,0.0028206573,81.91575,0.011606552,-0.08436169,0.017759088,542389.6,67811.695,0.010264398,0.008941899,8818.9375,7091.9062,7063.1367,5565.508,0.30285645,0.0,0.0,0.0
147.36719,56976.145,1.799,0.0,0.0,295.01212,10443.0,55.32769,36.52215,0.9518039,0.0,8.0,0.0,0.0,498744.94,114.0,2.0,0.0,0.0,9.184312,0.0,0.0,377.11847,87.64823,1277.9873,-0.7462703,-1.4817327,0.019588323,294.34164,294.0996,292.17996,291.5146,403.0,402.0,471.0,469.0,66.0,58.0,49.0,48.0,5.184354,4.6046634,4.3679857,3.0509605,0.049890257,0.047981072,0.05376704,0.051095437,-25.338604,-14.894977,-2.2331624,12.808665,-262.91013,-340.15775,218.70728,259.54398,11861.569,128364.0,14048.837,1.0,1.0,-0.13369752,-0.0037406043,3.4332275E-4,94.0,92.0,86.0,81.0,21.790968,21.622398,24.039112,23.707937,-0.0025733188,-0.0025414769,-0.010126989,-0.011353095,1058.4049,0.0,0.0,0.0,0.0,0.0,0.0,0.0,0.0,0.0,0.0,0.0,0.0,0.0,-10.418285,0.013194403,81.28285,0.017910838,-0.051174015,0.024371058,538150.3,36995.09,0.009668275,0.010621525,8256.123,6910.7593,7323.984,6151.086,0.30323124,0.0,0.0,0.0
151.46875,56980.246,1.849,0.0,0.0,291.54825,10214.0,25.169758,54.913254,0.66609603,0.0,8.0,0.0,0.0,504744.2,114.0,2.0,0.0,0.0,9.183895,0.0,0.0,376.59253,87.64908,1282.0267,-0.5397526,-2.2091782,0.006645106,288.26837,288.00888,287.03574,286.45593,424.0,424.0,490.0,487.0,66.0,58.0,49.0,48.0,5.184354,4.6046634,4.3679857,3.0509605,0.048937235,0.047328442,0.05338844,0.051383402,-16.374437,-14.807804,-10.067448,1.3451277,276.33463,-15.811615,-200.4817,-365.97397,17860.82,129532.8,14048.837,1.0,1.0,-0.13557659,-0.0027706267,0.0010803938,94.0,92.0,86.0,81.0,21.791338,21.62248,24.039328,23.70811,-0.011146845,-0.011559572,-0.015838878,-0.017211733,1013.45087,0.0,0.0,0.0,0.0,0.0,0.0,0.0,0.0,0.0,0.0,0.0,0.0,0.0,-10.583207,0.019930692,80.29114,0.0110853445,-0.028581824,0.01784392,526846.2,17559.305,0.009706062,0.012542039,7627.9043,6705.284,7361.157,6486.586,0.30408287,0.0,0.0,0.0
155.51562,56984.293,1.899,0.0,0.0,286.81134,9945.0,5.101091,74.30668,0.62041104,0.0,8.0,0.0,0.0,510743.44,114.0,2.0,0.0,0.0,9.183829,0.0,0.0,376.0621,87.65022,1286.0079,-0.38667572,-2.9579918,0.006313325,280.93335,280.68146,280.15903,279.46796,452.0,451.0,514.0,512.0,66.0,58.0,50.0,48.0,5.1854386,4.605369,4.3689966,3.052057,0.047976106,0.046223663,0.052922603,0.051326554,-17.185806,-22.902264,-11.55652,-5.408004,220.22276,43.237263,-216.48106,-349.77344,23860.07,129939.77,14048.837,1.0,1.0,-0.13680513,-0.0021895994,0.0017796755,94.0,92.0,86.0,81.0,21.791584,21.622494,24.039515,23.708303,-0.02026221,-0.02074443,-0.023441564,-0.025263887,958.91815,0.0,0.0,0.0,0.0,0.0,0.0,0.0,0.0,0.0,0.0,0.0,0.0,0.0,-10.614181,0.026040379,78.959595,0.0154452,-0.0231718,0.00995304,511980.9,1627.792,0.010077185,0.014707339,7020.066,6456.193,7435.992,6732.3906,0.30523396,0.0,0.0,0.0
159.48438,56988.26,1.966,0.0,0.0,280.61923,9632.0,1.1337453,96.03414,0.7619951,0.0,8.0,0.0,0.0,516534.66,113.0,2.0,0.0,0.0,9.183829,0.0,0.0,375.5329,87.65179,1289.9121,-0.31706452,-3.767133,0.017172245,272.1905,271.81995,270.80432,269.55475,485.0,484.0,546.0,544.0,66.0,58.0,50.0,49.0,5.1854386,4.605369,4.3689966,3.052057,0.04654348,0.04462141,0.052478984,0.05102711,0.0,0.0,0.0,0.0,-631.3248,-399.9442,213.15512,251.32292,29859.32,129939.77,14048.837,1.0,1.0,-0.13811424,-0.001983212,0.002686143,94.0,92.0,86.0,81.0,21.791706,21.622404,24.039679,23.708496,-0.029927187,-0.030708563,-0.03504172,-0.03871394,884.49695,0.0,0.0,0.0,0.0,0.0,0.0,0.0,0.0,0.0,0.0,0.0,0.0,0.0,-10.541806,0.037193157,77.23366,0.019677268,-0.029261984,0.0069318814,487592.34,0.0,0.010599893,0.01757174,6425.8057,6008.595,7617.3027,6970.592,0.30679035,0.0,0.0,0.0
163.35938,56992.137,2.016,0.0,0.0,273.6296,9344.0,0.0,100.0,0.9475324,0.0,8.0,0.0,0.0,522144.97,113.0,2.0,0.0,0.0,9.183829,0.0,0.0,375.00888,87.65396,1293.7228,-0.3100109,-3.9833405,-1.1544395E-4,264.09625,263.78888,263.00726,261.3067,518.0,518.0,580.0,578.0,66.0,58.0,51.0,49.0,5.1873603,4.606825,4.3712635,3.054654,0.044087645,0.042271085,0.052197393,0.050824054,0.0,0.0,0.0,0.0,-147.66905,-148.91623,-55.521725,-81.673256,35858.57,129939.77,14048.837,1.0,1.0,-0.13988121,-0.0018931421,0.0036000013,94.0,92.0,86.0,81.0,21.791735,21.622221,24.039814,23.708668,-0.035012703,-0.03539774,-0.039115872,-0.044432197,811.8711,0.0,0.0,0.0,0.0,0.0,0.0,0.0,0.0,0.0,0.0,0.0,0.0,0.0,-10.423825,0.047990043,75.290054,0.0153153185,-0.04003533,0.002753373,461350.78,0.0,0.011714792,0.02102329,6019.4854,5602.7334,7537.767,6914.504,0.30895996,0.0,0.0,0.0
167.11719,56995.895,2.049,0.0,0.0,266.64618,10518.0,0.0,100.0,0.8597714,0.0,7.0,0.0,0.0,530287.4,113.0,2.0,0.0,0.0,9.18294,0.0,0.0,374.4909,87.65634,1297.4358,-0.30909848,-3.9081109,-0.036467038,257.6056,257.04623,255.78978,253.76637,549.0,548.0,610.0,608.0,66.0,58.0,51.0,50.0,5.1873603,4.606825,4.3712635,3.054654,0.041563906,0.039800018,0.051839218,0.050469156,-46.918762,-46.450493,-7.617026,-7.562935,279.47272,254.0588,-15.918903,-0.5766677,41857.82,132231.11,14048.837,1.0,1.0,-0.1420137,-0.001890981,0.0042476654,94.0,92.0,86.0,81.0,21.791706,21.621975,24.039906,23.708797,-0.033732444,-0.03496689,-0.040968157,-0.04751884,1072.1836,0.0,0.0,0.0,0.0,0.0,0.0,0.0,0.0,0.0,0.0,0.0,0.0,0.0,-10.30207,0.044033416,73.34842,0.009825166,-0.042706646,0.002077027,541268.8,0.0,0.01332666,0.024293693,5731.2495,5295.9585,7281.3184,6657.419,0.3113451,0.0,0.0,0.0
170.76953,56999.547,2.099,0.0,0.0,259.72177,10199.0,0.0,100.0,0.6579248,0.0,7.0,0.0,0.0,535853.8,113.0,2.0,0.0,0.0,9.18294,0.0,0.0,373.9792,87.65827,1301.0525,-0.28266886,-3.931642,-0.03327222,249.82135,249.47137,248.6513,246.38118,576.0,576.0,637.0,635.0,66.0,58.0,52.0,51.0,5.189358,4.608391,4.373742,3.0576613,0.03941216,0.037749648,0.051470768,0.050177574,-42.36102,-39.151085,-6.308779,-3.9093192,38.90533,117.05154,73.854614,130.4358,47857.07,132231.11,14048.837,1.0,1.0,-0.14399107,-0.0017690504,0.0047678947,94.0,92.0,86.0,81.0,21.791624,21.621685,24.03995,23.708897,-0.038106192,-0.03903303,-0.042888362,-0.050805755,1010.52026,0.0,0.0,0.0,0.0,0.0,0.0,0.0,0.0,0.0,0.0,0.0,0.0,0.0,-10.170279,0.03468245,71.42448,0.010800073,-0.03573991,0.006228501,526095.3,0.0,0.014625914,0.026924,5496.7646,5099.3926,7074.2783,6491.6855,0.31328392,0.0,0.0,0.0
174.32812,57003.105,2.149,0.0,0.0,252.79025,9902.0,0.0,100.0,0.43314958,0.0,7.0,0.0,0.0,541433.06,113.0,2.0,0.0,0.0,9.18294,0.0,0.0,373.47464,87.65993,1304.573,-0.23670602,-3.9174764,-0.019207582,242.52629,242.26067,241.56502,239.44003,602.0,601.0,662.0,659.0,66.0,59.0,53.0,52.0,5.189358,4.608391,4.373742,3.0576613,0.037377987,0.035988938,0.051162824,0.050074693,-39.292347,-33.59802,-6.6067276,-2.0167975,84.38232,98.34319,-42.36551,-6.8932767,53856.32,132231.11,14048.837,1.0,1.0,-0.14550427,-0.0014835014,0.005300164,94.0,92.0,86.0,81.0,21.791496,21.621359,24.039965,23.708982,-0.04065213,-0.04120937,-0.04448796,-0.052351344,948.5978,0.0,0.0,0.0,0.0,0.0,0.0,0.0,0.0,0.0,0.0,0.0,0.0,0.0,-10.015676,0.033539,69.50155,0.00821444,-0.024997618,0.0078189485,508670.06,0.0,0.015599495,0.029286468,5255.3413,4922.5264,6901.6934,6417.1865,0.31493187,0.0,0.0,0.0
177.78516,57006.562,2.216,0.0,0.0,245.90265,9611.0,0.0,100.0,0.0314035,0.0,7.0,0.0,0.0,547024.56,113.0,2.0,0.0,0.0,9.18294,0.0,0.0,372.97873,87.66164,1307.9977,-0.15525034,-3.8881164,-0.023964101,235.37032,235.16205,234.14592,232.36465,624.0,624.0,684.0,682.0,67.0,59.0,53.0,52.0,5.191459,4.6101346,4.376484,3.0609004,0.035418376,0.034459263,0.05073238,0.049964197,0.0,0.0,0.0,0.0,-53.9257,24.931067,-65.7007,-7.067613,59855.57,132231.11,14048.837,1.0,1.0,-0.14628969,-9.999162E-4,0.0057332516,94.0,92.0,86.0,81.0,21.791323,21.621002,24.039948,23.709059,-0.042678382,-0.043398432,-0.047560364,-0.054734882,879.6887,0.0,0.0,0.0,0.0,0.0,0.0,0.0,0.0,0.0,0.0,0.0,0.0,0.0,-9.826057,0.034300204,67.59583,0.006735471,-0.0070502763,0.012560964,486001.34,0.0,0.016746743,0.03153259,4977.9795,4767.3564,6631.093,6300.3843,0.3166361,0.0,0.0,0.0
181.15234,57009.93,2.266,0.0,0.0,239.06725,9319.0,0.0,100.0,-0.5255148,0.0,7.0,0.0,0.0,552628.2,113.0,2.0,0.0,0.0,9.18294,0.0,0.0,372.4936,87.663284,1311.3276,-0.034702957,-3.8613012,-0.029315252,228.09094,228.08174,226.39598,225.49701,645.0,645.0,704.0,702.0,67.0,59.0,54.0,53.0,5.191459,4.6101346,4.376484,3.0609004,0.033408772,0.033091377,0.05019682,0.0499396,0.0,0.0,0.0,0.0,-9.481658,71.1724,-27.54627,30.952686,65854.82,132231.11,14048.837,1.0,1.0,-0.1459882,-2.4191328E-4,0.006153941,94.0,92.0,86.0,81.0,21.791105,21.620623,24.039883,23.709126,-0.045457803,-0.045904994,-0.052311774,-0.056799185,805.2042,0.0,0.0,0.0,0.0,0.0,0.0,0.0,0.0,0.0,0.0,0.0,0.0,0.0,-9.584576,0.032131165,65.71225,0.0058704084,0.017087396,0.01659056,458789.78,0.0,0.017843429,0.033700433,4669.2573,4653.6567,6333.883,6243.2266,0.318285,0.0,0.0,0.0
184.42188,57013.2,2.316,0.0,0.0,232.27809,10764.0,0.0,100.0,-0.97023857,0.0,7.0,0.0,0.0,560760.4,113.0,2.0,0.0,0.0,9.1820545,0.0,0.0,372.02203,87.66481,1314.5641,0.08629429,-3.8386207,-0.029689178,220.59,220.83305,218.24937,218.82271,664.0,664.0,722.0,720.0,67.0,59.0,55.0,54.0,5.193328,4.611838,4.3793116,3.0637848,0.031477164,0.031840872,0.04966565,0.049950797,0.0,0.0,0.0,0.0,46.844784,26.594122,21.63202,-0.6303173,71854.07,134493.19,14048.837,1.0,1.0,-0.14452791,5.465775E-4,0.0065504313,94.0,92.0,86.0,81.0,21.790846,21.620222,24.039778,23.709196,-0.049537897,-0.04932289,-0.05924132,-0.058260974,1105.9542,0.0,0.0,0.0,0.0,0.0,0.0,0.0,0.0,0.0,0.0,0.0,0.0,0.0,-9.287566,0.029128501,63.84974,0.005579772,0.038183365,0.015099004,545557.44,0.0,0.018839255,0.035712156,4385.166,4554.1113,6052.5347,6201.3955,0.31981564,0.0,0.0,0.0
187.60156,57016.38,2.366,0.0,0.0,226.1031,10278.0,0.0,100.0,-1.3081836,0.0,6.0,0.0,0.0,566325.4,113.0,2.0,0.0,0.0,9.1820545,0.0,0.0,371.5664,87.66643,1317.71,0.22608456,-3.0736957,-0.030084208,217.51933,217.9011,218.12492,217.8153,682.0,681.0,739.0,737.0,67.0,60.0,55.0,54.0,5.193328,4.611838,4.3793116,3.0637848,0.030359428,0.031112805,0.048718806,0.049726315,0.0,0.0,0.0,0.0,802.3694,797.55475,-1025.6765,-897.8023,77853.32,134493.19,14048.837,1.0,1.0,-0.14221935,8.069035E-4,0.006323695,94.0,92.0,86.0,81.0,21.790567,21.619823,24.039669,23.709288,-0.036251254,-0.036145568,-0.030172482,-0.033996534,1025.9441,0.0,0.0,0.0,0.0,0.0,0.0,0.0,0.0,0.0,0.0,0.0,0.0,0.0,-8.957545,0.032272454,62.164356,-0.022826623,0.051407915,0.007737066,530019.8,0.0,0.020675628,0.03696339,4291.6035,4574.7373,5607.3164,6010.9526,0.32143974,0.0,0.0,0.0
190.69531,57019.473,2.399,0.0,0.0,220.25386,10014.0,0.0,100.0,-1.5054748,0.0,6.0,0.0,0.0,571901.56,113.0,2.0,0.0,0.0,9.1820545,0.0,0.0,371.12787,87.6675,1320.7758,0.30634314,-3.0906222,-0.046156295,211.89526,212.33409,212.7658,212.48029,698.0,697.0,754.0,752.0,67.0,60.0,56.0,55.0,5.194718,4.6131897,4.3813415,3.0658402,0.029546421,0.030861294,0.047956254,0.049278922,-19.856392,-9.697526,-12.932493,-5.177557,-10.246009,-93.13299,-181.90738,5.98134,83852.57,134493.19,14048.837,1.0,1.0,-0.13941634,0.0014873791,0.0062292814,94.0,92.0,86.0,81.0,21.790272,21.619421,24.039509,23.709337,-0.036259208,-0.035723146,-0.029839277,-0.033671282,975.0043,0.0,0.0,0.0,0.0,0.0,0.0,0.0,0.0,0.0,0.0,0.0,0.0,0.0,-8.599687,0.01400523,60.574226,-0.0010754938,0.058369588,0.017197318,516982.62,0.0,0.021808608,0.037863296,4040.3696,4491.782,5287.334,5839.9727,0.3225088,0.0,0.0,0.0
193.71094,57022.49,2.449,0.0,0.0,214.37923,9733.0,0.0,100.0,-1.9510249,0.0,6.0,0.0,0.0,577489.56,113.0,2.0,0.0,0.0,9.1820545,0.0,0.0,370.70782,87.66799,1323.7627,0.3750293,-3.2304866,-0.009482932,206.04558,206.5728,207.97147,207.57672,713.0,712.0,768.0,766.0,67.0,60.0,56.0,55.0,5.194718,4.6131897,4.3813415,3.0658402,0.028438969,0.030203756,0.047844738,0.049344968,-22.923944,-15.780777,-1.8341838,3.8241591,60.20885,131.20027,-320.0814,223.11952,89851.82,134493.19,14048.837,1.0,1.0,-0.1363135,0.00220369,0.006646633,94.0,92.0,86.0,81.0,21.789948,21.619005,24.039335,23.709393,-0.03764515,-0.036752038,-0.030122701,-0.03282506,908.1647,0.0,0.0,0.0,0.0,0.0,0.0,0.0,0.0,0.0,0.0,0.0,0.0,0.0,-8.215048,0.009982726,58.98042,0.0021359622,0.06851173,0.019435173,495444.38,0.0,0.021719562,0.038842823,3842.2935,4411.4043,5263.171,5926.3975,0.32298946,0.0,0.0,0.0
196.64453,57025.42,2.499,0.0,0.0,208.61627,9458.0,0.0,100.0,-2.952447,0.0,6.0,0.0,0.0,583089.0,112.0,2.0,0.0,0.0,9.1820545,0.0,0.0,370.3081,87.66873,1326.6711,0.48840308,-3.2659702,-0.0038697645,200.23807,200.91144,201.56522,202.27934,726.0,726.0,781.0,779.0,67.0,60.0,57.0,56.0,5.1960716,4.6146145,4.3834605,3.067806,0.027423477,0.029848337,0.047441937,0.049435742,-21.05534,-12.9313755,-4.318133,-0.4841387,-5.4784007,-475.0929,162.21996,-230.1201,95851.07,134493.19,14048.837,1.0,1.0,-0.13230166,0.0029566723,0.006773114,94.0,92.0,86.0,81.0,21.7896,21.618582,24.039148,23.709448,-0.038966853,-0.037911605,-0.037453227,-0.033575207,842.58594,0.0,0.0,0.0,0.0,0.0,0.0,0.0,0.0,0.0,0.0,0.0,0.0,0.0,-7.7868524,0.019243965,57.4234,0.0016372647,0.09592083,0.015445601,473033.5,0.0,0.022240764,0.039696243,3674.9937,4409.217,4994.954,5865.1406,0.32372952,0.0,0.0,0.0
199.4961,57028.273,2.566,0.0,0.0,202.98946,9181.0,0.0,100.0,-4.0605063,0.0,6.0,0.0,0.0,588699.7,112.0,2.0,0.0,0.0,9.1820545,0.0,0.0,369.93155,87.6698,1329.5029,0.6363456,-3.2049282,-0.02761084,194.48291,195.3129,194.17076,196.82465,739.0,738.0,793.0,791.0,67.0,60.0,57.0,56.0,5.1960716,4.6146145,4.3834605,3.067806,0.026193285,0.02942946,0.046798464,0.049494967,0.0,0.0,0.0,0.0,-1.5423201,-458.76498,379.19724,-258.48447,101850.32,134493.19,14048.837,1.0,1.0,-0.12636366,0.0039309277,0.0068951845,94.0,91.0,86.0,81.0,21.789227,21.618149,24.038933,23.7095,-0.03965404,-0.038757667,-0.047073487,-0.034084707,768.9316,0.0,0.0,0.0,0.0,0.0,0.0,0.0,0.0,0.0,0.0,0.0,0.0,0.0,-7.2957487,0.020568457,55.91197,0.0029939574,0.1384281,0.016155174,444707.78,0.0,0.023105338,0.04087347,3386.9814,4388.717,4643.6113,5829.148,0.3248005,0.0,0.0,0.0
202.27344,57031.05,2.616,0.0,0.0,197.5456,10392.0,0.0,100.0,-5.562775,0.0,5.0,0.0,0.0,596805.1,112.0,2.0,0.0,0.0,9.181172,0.0,0.0,369.5815,87.67073,1332.2601,0.9097259,-2.9608684,-0.0347114,189.60089,191.32626,187.40524,191.07457,750.0,750.0,803.0,802.0,67.0,60.0,58.0,57.0,5.1970406,4.615941,4.3853817,3.0694592,0.024934907,0.029054806,0.046110794,0.04961524,0.0,0.0,0.0,0.0,322.88428,53.557003,223.79005,-512.3823,107849.57,136745.69,14048.837,1.0,1.0,-0.117994055,0.005131592,0.0070250034,94.0,91.0,86.0,81.0,21.78883,21.617718,24.038702,23.709558,-0.035512507,-0.032674503,-0.047811963,-0.032845322,1048.3158,0.0,0.0,0.0,0.0,0.0,0.0,0.0,0.0,0.0,0.0,0.0,0.0,0.0,-6.721368,0.016703786,54.460575,-0.005812362,0.19365272,0.03368841,535636.3,0.0,0.023831086,0.0419333,3090.109,4445.95,4308.362,5897.1006,0.32575035,0.0,0.0,0.0
204.98047,57033.758,2.666,0.0,0.0,193.10803,10241.0,0.0,100.0,-7.5134845,0.0,5.0,0.0,0.0,602375.75,112.0,2.0,0.0,0.0,9.181172,0.0,0.0,369.2632,87.671425,1334.9491,1.3734069,-1.7381243,-0.055690587,187.81389,188.91801,189.26602,189.87868,761.0,761.0,813.0,812.0,67.0,61.0,58.0,57.0,5.1970406,4.615941,4.3853817,3.0694592,0.02402931,0.030162914,0.04428737,0.049613584,0.0,0.0,0.0,0.0,1132.0261,2287.3274,-2675.4363,-702.14856,113848.82,136745.69,14048.837,1.0,1.0,-0.10668946,0.00767216,0.0063682795,94.0,91.0,86.0,81.0,21.788414,21.617306,24.038454,23.709639,-0.023402493,-0.02483851,-0.0118345935,-0.018667473,1018.6939,0.0,0.0,0.0,0.0,0.0,0.0,0.0,0.0,0.0,0.0,0.0,0.0,0.0,-6.02503,0.00821829,53.301678,-0.051057376,0.262296,0.078297526,528175.6,0.0,0.025362775,0.04174949,2832.4062,4918.033,3511.8867,5912.322,0.32650566,0.0,0.0,0.0
207.6289,57036.406,2.699,0.0,0.0,188.82735,10012.0,0.0,100.0,-9.425901,0.0,5.0,0.0,0.0,607953.1,112.0,2.0,0.0,0.0,9.181172,0.0,0.0,368.98288,87.67115,1337.5863,1.4054067,-2.592593,-0.029433327,184.18439,185.32567,183.41785,188.55501,771.0,771.0,822.0,822.0,67.0,61.0,58.0,57.0,5.1976004,4.61712,4.3865485,3.0710835,0.023791052,0.03216334,0.043198332,0.04987094,-5.2458415,-6.621256,13.0820265,4.284605,61.784702,-3209.1418,2078.6313,-213.38312,119848.07,136745.69,14048.837,1.0,1.0,-0.0924618,0.009353793,0.0058909655,94.0,91.0,86.0,81.0,21.78799,21.616919,24.03814,23.709711,-0.023110915,-0.024002392,-0.049676694,-0.014586834,974.6359,0.0,0.0,0.0,0.0,0.0,0.0,0.0,0.0,0.0,0.0,0.0,0.0,0.0,-5.2301908,-0.010371714,52.190628,0.019304534,0.30317172,-0.010033144,516890.53,0.0,0.025843998,0.040908735,2795.6523,4957.078,3116.7017,5963.589,0.32627296,0.0,0.0,0.0
210.22656,57039.004,2.749,0.0,0.0,185.16597,9751.0,0.0,100.0,-12.303889,0.0,5.0,0.0,0.0,613537.7,112.0,2.0,0.0,0.0,9.181172,0.0,0.0,368.746,87.67085,1340.1733,1.7752023,-2.4054685,-0.018671516,177.02263,180.23105,170.41386,179.40875,780.0,781.0,831.0,831.0,67.0,61.0,58.0,58.0,5.1976004,4.61712,4.3865485,3.0710835,0.023372706,0.033272356,0.04220277,0.05046525,-24.471579,29.6887,-17.998962,21.714493,-986.83813,-445.83673,758.67615,241.59998,125847.32,136745.69,14048.837,1.0,1.0,-0.074574016,0.011379965,0.0057014227,94.0,91.0,86.0,81.0,21.787546,21.61654,24.03783,23.709814,-0.035551723,-0.030091904,-0.060625423,-0.03317448,912.534,0.0,0.0,0.0,0.0,0.0,0.0,0.0,0.0,0.0,0.0,0.0,0.0,0.0,-4.2862577,-0.0025806758,51.256084,0.007044677,0.38782382,0.028489245,496909.06,0.0,0.026066927,0.04050597,2489.5894,5372.3857,2588.6802,6224.6914,0.32643604,0.0,0.0,0.0
212.76172,57041.54,2.816,0.0,0.0,180.8111,9530.0,0.0,100.0,-13.900691,0.0,5.0,0.0,0.0,619133.94,112.0,2.0,0.0,0.0,9.181172,0.0,0.0,368.5576,87.67109,1342.706,1.9051136,-2.5078213,-0.01149055,174.70755,176.2592,168.49715,178.9798,789.0,790.0,839.0,839.0,67.0,61.0,59.0,58.0,5.198279,4.618908,4.388405,3.0738087,0.022087373,0.03238714,0.042286962,0.050886914,0.0,0.0,0.0,0.0,-837.8347,-16.656416,-439.2385,443.18137,131846.58,136745.69,14048.837,1.0,1.0,-0.05361649,0.011703194,0.0064594746,94.0,91.0,86.0,81.0,21.787079,21.616156,24.037514,23.70994,-0.030737305,-0.03084799,-0.07094775,-0.023285659,860.822,0.0,0.0,0.0,0.0,0.0,0.0,0.0,0.0,0.0,0.0,0.0,0.0,0.0,-3.2962792,0.011192208,50.11702,0.013587418,0.44517827,0.0038556266,479620.22,0.0,0.025939817,0.042091202,2161.8062,5179.2217,2694.1938,6455.0586,0.3270712,0.0,0.0,0.0
215.23828,57044.016,2.866,0.0,0.0,176.85608,9369.0,0.0,100.0,-15.161448,0.0,5.0,0.0,0.0,624739.6,112.0,2.0,0.0,0.0,9.181172,0.0,0.0,368.42056,87.67154,1345.1837,2.184303,-1.9574188,-0.07128426,171.70358,173.25706,171.30174,174.93475,797.0,798.0,846.0,847.0,67.0,61.0,59.0,59.0,5.198279,4.618908,4.388405,3.0738087,0.020765867,0.03145595,0.04163738,0.050678506,0.0,0.0,0.0,0.0,722.5936,157.08354,279.0838,-1490.0072,137845.83,136745.69,14048.837,1.0,1.0,-0.029823039,0.012334335,0.006667733,94.0,91.0,86.0,81.0,21.786592,21.615768,24.03719,23.710075,-0.021697093,-0.027537305,-0.031384103,-0.01292546,818.653,0.0,0.0,0.0,0.0,0.0,0.0,0.0,0.0,0.0,0.0,0.0,0.0,0.0,-2.2328422,0.003649272,49.07592,-0.0071026604,0.5027444,0.024686012,463963.3,0.0,0.02710238,0.043400202,1918.7255,5203.408,2263.7654,6364.001,0.32816982,0.0,0.0,0.0
217.66016,57046.438,2.899,0.0,0.0,173.33752,9211.0,0.0,80.12476,-15.954025,0.0,5.0,0.0,0.0,630352.06,112.0,2.0,0.0,0.0,9.181172,0.0,0.0,368.33856,87.671165,1347.6125,2.2794151,-1.8358425,-0.061635464,168.9761,170.49397,166.54305,172.35715,804.0,805.0,852.0,853.0,67.0,62.0,59.0,59.0,5.198883,4.621019,4.389487,3.0769463,0.01958639,0.031478282,0.04109323,0.051091686,-31.101776,-24.594067,26.428251,11.213421,-451.181,-2460.8193,2984.3462,50.88146,143845.08,136745.69,14048.837,1.0,1.0,-0.0046628565,0.013158013,0.0066856146,94.0,91.0,86.0,81.0,21.7861,21.6154,24.036848,23.710213,-0.018140629,-0.024145782,-0.040850896,-0.0075678187,776.83295,0.0,0.0,0.0,0.0,0.0,0.0,0.0,0.0,0.0,0.0,0.0,0.0,0.0,-1.1128428,-0.014299486,48.136448,0.008689914,0.50655055,-0.0041591013,447814.22,0.0,0.027680174,0.043745745,1916.864,5411.6094,1858.1722,6313.527,0.32886696,0.0,0.0,0.0
220.03125,57048.81,2.966,0.0,0.0,170.3321,9044.0,0.0,56.606762,-16.515238,0.0,5.0,0.0,0.0,635969.25,112.0,2.0,0.0,0.0,9.181172,0.0,0.0,368.31393,87.67018,1349.9983,2.3699436,-1.7596779,-0.044600625,165.27171,166.8637,156.8342,168.20964,808.0,809.0,855.0,857.0,67.0,62.0,59.0,60.0,5.198883,4.621019,4.389487,3.0769463,0.017595205,0.030101974,0.041624475,0.052333735,0.0,0.0,0.0,0.0,-153.63005,-363.8081,523.0977,-273.4243,149844.33,136745.69,14048.837,1.0,1.0,0.020647446,0.013658119,0.007417083,94.0,91.0,86.0,81.0,21.785604,21.615046,24.036499,23.710365,-0.020516071,-0.026652496,-0.061146785,-0.017302196,733.4956,0.0,0.0,0.0,0.0,0.0,0.0,0.0,0.0,0.0,0.0,0.0,0.0,0.0,0.052970484,-0.021015948,47.31444,0.028013073,0.49455953,-0.00944325,430639.62,0.0,0.02762559,0.044995,1865.3651,5693.461,1571.9603,6353.4136,0.32910442,0.0,0.0,0.0
222.35156,57051.13,3.016,0.0,0.0,167.24753,8899.0,0.0,44.457443,-17.32518,0.0,5.0,0.0,0.0,641593.2,112.0,2.0,0.0,0.0,9.181172,0.0,0.0,368.3467,87.669525,1352.3407,2.3909376,-1.6593282,-0.043797173,162.68651,164.2669,154.06424,165.70876,811.0,811.0,856.0,858.0,67.0,62.0,60.0,60.0,5.1994257,4.6230564,4.3907175,3.0804267,0.015211388,0.02768149,0.04266618,0.053080752,0.0,0.0,0.0,0.0,-399.18982,74.8471,-1167.7666,-90.60499,155843.58,136745.69,14048.837,1.0,1.0,0.04572301,0.013091813,0.008683443,94.0,91.0,86.0,81.0,21.785103,21.614685,24.036163,23.710537,-0.017902879,-0.02479686,-0.06339887,-0.014614848,698.3467,0.0,0.0,0.0,0.0,0.0,0.0,0.0,0.0,0.0,0.0,0.0,0.0,0.0,1.1950599,-0.00930391,46.442272,0.014694739,0.5139463,-0.006115484,416684.06,0.0,0.027052421,0.047428884,1708.0701,5469.337,1696.0316,6441.08,0.33027172,0.0,0.0,0.0
224.6211,57053.4,3.049,0.0,0.0,164.73206,8838.0,0.0,39.05127,-18.66367,0.0,5.0,0.0,0.0,647181.06,112.0,2.0,0.0,0.0,9.181172,0.0,0.0,368.4365,87.66869,1354.6418,2.5054295,-1.1557009,-0.09409417,161.8229,163.30824,158.80833,164.32875,812.0,813.0,857.0,859.0,67.0,62.0,60.0,61.0,5.1994257,4.6230564,4.3907175,3.0804267,0.013581524,0.026306244,0.04234991,0.05295093,-19.935293,-4.833005,-21.75696,-1.3444571,535.66394,1509.4598,-1194.991,649.96625,161801.89,136745.69,14048.837,1.0,1.0,0.07199017,0.013152023,0.008880615,94.0,91.0,86.0,81.0,21.784594,21.614332,24.035822,23.710714,-0.008064094,-0.016594667,-0.022600535,-0.008232052,684.07825,0.0,0.0,0.0,0.0,0.0,0.0,0.0,0.0,0.0,0.0,0.0,0.0,0.0,2.3497777,-0.02639611,45.698524,-0.0055489084,0.5366294,0.020906616,410987.66,0.0,0.028225899,0.048694964,1709.1185,5637.1826,1268.3,6174.492,0.3317337,0.0,0.0,0.0
226.85156,57055.63,3.099,0.0,0.0,162.15253,8675.0,0.0,38.711582,-20.302912,0.0,5.0,0.0,0.0,652763.94,112.0,2.0,0.0,0.0,9.181172,0.0,0.0,368.58435,87.666756,1356.907,2.41749,-1.558069,-0.0750744,159.59651,161.14539,148.82846,162.44836,814.0,814.0,858.0,860.0,66.0,63.0,60.0,62.0,5.1999364,4.625059,4.391614,3.0848036,0.0126509275,0.025969798,0.04215649,0.05306629,-20.483303,-21.58474,11.145024,3.338456,-157.27809,-952.7742,893.3901,84.86508,167750.19,136745.69,14048.837,1.0,1.0,0.09815614,0.0131014185,0.009325147,94.0,91.0,86.0,81.0,21.78408,21.613985,24.035467,23.710892,-0.0138067035,-0.021053115,-0.079377934,-0.013380599,646.5915,0.0,0.0,0.0,0.0,0.0,0.0,0.0,0.0,0.0,0.0,0.0,0.0,0.0,3.4850163,-0.046796456,44.907322,0.021077316,0.5152335,-0.021890597,395765.12,0.0,0.028477576,0.049449276,1666.2577,5519.4688,1334.4468,6193.5405,0.33210468,0.0,0.0,0.0
229.03516,57057.812,3.149,0.0,0.0,159.9606,8578.0,0.0,35.55736,-21.797533,0.0,5.0,0.0,0.0,658343.06,112.0,2.0,0.0,0.0,9.181172,0.0,0.0,368.78958,87.66421,1359.1335,2.5502577,-1.2130492,-0.0590665,156.93379,158.46501,151.35419,159.22543,815.0,816.0,858.0,861.0,66.0,63.0,60.0,62.0,5.1999364,4.625059,4.391614,3.0848036,0.012080323,0.025816161,0.042011634,0.05319381,-11.210403,7.399544,-12.314467,7.992088,-38.472916,489.6573,-233.37895,114.704666,173690.45,136745.69,14048.837,1.0,1.0,0.12550323,0.0133921085,0.009544849,94.0,91.0,86.0,81.0,21.78356,21.613638,24.035126,23.711094,-0.008467122,-0.017717613,-0.035996664,-0.0102736335,624.6962,0.0,0.0,0.0,0.0,0.0,0.0,0.0,0.0,0.0,0.0,0.0,0.0,0.0,4.6568723,-0.054190166,44.188763,0.0019117427,0.55823237,0.011022312,386687.25,0.0,0.02862852,0.049705118,1635.642,5714.4746,1138.0032,6233.417,0.3323574,0.0,0.0,0.0
231.17578,57059.953,3.216,0.0,0.0,157.48552,8466.0,0.0,34.831635,-22.769905,0.0,5.0,0.0,0.0,663725.5,112.0,2.0,0.0,0.0,9.181172,0.0,0.0,369.05203,87.66137,1361.3209,2.536807,-1.1829131,-0.047409907,155.17152,156.63797,148.69771,157.47421,816.0,817.0,859.0,861.0,66.0,63.0,60.0,63.0,5.2004437,4.6271434,4.392513,3.0900826,0.011504043,0.025133127,0.04226917,0.053198557,0.0,0.0,0.0,0.0,362.2591,149.8416,164.84853,-692.4658,179427.92,136745.69,14048.837,1.0,1.0,0.1533607,0.012942394,0.00999558,94.0,91.0,86.0,81.0,21.783035,21.61329,24.03478,23.71131,-0.0048905336,-0.014842971,-0.051755093,-0.0044006733,599.8381,0.0,0.0,0.0,0.0,0.0,0.0,0.0,0.0,0.0,0.0,0.0,0.0,0.0,5.780492,-0.05755433,43.362347,0.0023612115,0.57171094,-0.007471178,376212.1,0.0,0.02861381,0.05046521,1587.2816,5484.214,1287.883,6303.741,0.3327074,0.0,0.0,0.0
233.2539,57062.03,3.249,0.0,0.0,155.28287,8319.0,0.0,32.710735,-23.941017,0.0,5.0,0.0,0.0,669373.7,111.0,2.0,0.0,0.0,9.181172,0.0,0.0,369.3713,87.65833,1363.4688,2.5371063,-1.2723191,-0.05937223,152.12323,153.68903,143.42758,154.29962,816.0,817.0,859.0,861.0,66.0,64.0,60.0,64.0,5.2004437,4.6271434,4.392513,3.0900826,0.011147741,0.025127335,0.041907407,0.053221785,-10.646469,-3.4457443,-2.8359888,2.2043285,-240.61087,-510.81998,526.0616,82.06217,185427.17,136745.69,14048.837,1.0,1.0,0.18240952,0.013101943,0.0100239515,94.0,91.0,86.0,81.0,21.782505,21.61295,24.034431,23.711538,-0.009165857,-0.019145919,-0.055969078,-0.011859091,567.9456,0.0,0.0,0.0,0.0,0.0,0.0,0.0,0.0,0.0,0.0,0.0,0.0,0.0,6.9162846,-0.0643756,42.57598,0.007954339,0.57661664,-0.005983024,362503.88,0.0,0.029370468,0.0506953,1563.9258,5647.5254,1039.2479,6127.6807,0.33345413,0.0,0.0,0.0
235.29688,57064.074,3.299,0.0,0.0,153.1565,9688.0,0.0,31.937647,-26.441347,0.0,5.0,0.0,0.0,676202.0,111.0,2.0,0.0,0.0,9.180383,0.0,0.0,369.74625,87.65499,1365.5756,2.597574,-0.96149004,-0.06304138,151.20479,152.79552,144.89182,152.7935,817.0,818.0,859.0,862.0,66.0,64.0,60.0,65.0,5.200952,4.6292553,4.3934183,3.0971758,0.010664211,0.024818182,0.042005252,0.05319517,-2.9930656,8.428842,-9.234175,-1.2197344,425.928,1130.0614,-1091.2566,216.02509,190342.22,138774.38,14048.837,1.0,1.0,0.21167429,0.012945142,0.010317206,94.0,91.0,86.0,81.0,21.781967,21.612608,24.03409,23.711788,-0.0012011477,-0.010910046,-0.038785063,-0.0078052385,897.6285,0.0,0.0,0.0,0.0,0.0,0.0,0.0,0.0,0.0,0.0,0.0,0.0,0.0,8.035443,-0.070005566,41.777668,-0.005458611,0.6028196,0.013265526,491971.0,0.0,0.029662358,0.051388085,1489.8788,5560.957,1014.3424,6163.457,0.33397484,0.0,0.0,0.0
237.3086,57066.086,3.349,0.0,0.0,150.96066,9320.0,0.0,32.001556,-29.988415,0.0,4.0,0.0,0.0,681725.56,111.0,2.0,0.0,0.0,9.180383,0.0,0.0,370.1777,87.65143,1367.6433,2.6274087,-1.382192,0.029587934,148.9178,150.49568,136.27179,150.87956,817.0,818.0,859.0,862.0,66.0,64.0,60.0,65.0,5.200952,4.6292553,4.3934183,3.0971758,0.010461857,0.025613224,0.0417705,0.05370602,-9.318943,9.125433,-2.49356,13.90323,-727.8039,-973.5613,-481.36255,-543.2814,196260.62,138774.38,14048.837,1.0,1.0,0.24193247,0.013634889,0.010004044,94.0,91.0,86.0,81.0,21.781431,21.612278,24.033972,23.712063,-0.008030873,-0.018520363,-0.086393796,-0.013476647,805.53394,0.0,0.0,0.0,0.0,0.0,0.0,0.0,0.0,0.0,0.0,0.0,0.0,0.0,9.153305,-0.056302935,40.92229,8.4618136E-4,0.60560954,0.0018768315,458928.4,0.0,0.030332051,0.051360242,1541.2249,5790.5996,1031.0688,6404.5366,0.33435726,0.0,0.0,0.0
239.28516,57068.062,3.399,0.0,0.0,148.84756,9188.0,0.0,32.808548,-33.151157,0.0,4.0,0.0,0.0,687050.25,111.0,2.0,0.0,0.0,9.180383,0.0,0.0,370.6646,87.64911,1369.6669,2.5545483,-1.1769309,-0.06854482,146.10707,147.6515,135.1837,147.34389,818.0,819.0,859.0,862.0,66.0,64.0,60.0,66.0,5.2014527,4.6314573,4.394217,3.10765,0.010474566,0.025045943,0.04110212,0.053454608,5.3535213,-22.492891,-18.098875,-3.9354708,374.22177,-923.9538,354.53427,68.32928,201972.66,138774.38,14048.837,1.0,1.0,0.27262428,0.012639284,0.009858608,94.0,91.0,86.0,81.0,21.78089,21.611946,24.033972,23.71236,-0.0061004143,-0.017683467,-0.06289388,-0.012155605,770.7167,0.0,0.0,0.0,0.0,0.0,0.0,0.0,0.0,0.0,0.0,0.0,0.0,0.0,10.242548,-0.04862491,40.057766,-0.009307021,0.5943515,-0.06207955,445400.56,0.0,0.03192354,0.05279497,1520.9609,5512.534,647.49365,6125.7734,0.33634567,0.0,0.0,0.0
