LapDistance [m],TotalDistance [m],LapTime [s],Sector1Time [s],Sector2Time [s],Speed [km/h],EngineRevs [rpm],ThrottlePercentage [%],BrakePercentage [%],Steer [%],Clutch [%],Gear [int],DRS [0/1],CanUseDRS [0/1],KERSLevel [J],EngineTemperature [C],RacePosition [int],Sector [int],InPits [int],FuelRemaining [kg],CurrentFlag [int],CurrentLapInvalid [int],X [m],Y [m],Z [m],GForceLatitudinal [G],GForceLongitudinal [G],GForceVertical [G],WheelSpeedRearLeft [km/h],WheelSpeedRearRight [km/h],WheelSpeedFrontLeft [km/h],WheelSpeedFrontRight [km/h],BrakeTemperatureRearLeft [C],BrakeTemperatureRearRight [C],BrakeTemperatureFrontLeft [C],BrakeTemperatureFrontRight [C],TyreTemperatureRearLeft [C],TyreTemperatureRearRight [C],TyreTemperatureFrontLeft [C],TyreTemperatureFrontRight [C],TyreWearRearLeft [%],TyreWearRearRight [%],TyreWearFrontLeft [%],TyreWearFrontRight [%],SuspensionPositionRearLeft [m],SuspensionPositionRearRight [m],SuspensionPositionFrontLeft [m],SuspensionPositionFrontRight [m],SuspensionVelocityRearLeft [m/s],SuspensionVelocityRearRight [m/s],SuspensionVelocityFrontLeft [m/s],SuspensionVelocityFrontRight [m/s],SuspensionAccelerationRearLeft [m/s^2],SuspensionAccelerationRearRight [m/s^2],SuspensionAccelerationFrontLeft [m/s^2],SuspensionAccelerationFrontRight [m/s^2],MGUKHarvested [J],MGUHHarvested [J],ERSSpent [J],ERSMode [int],FuelMixMode [int],Yaw [rad],Roll [rad],Pitch [rad],TyreCarcassTemperatureRearLeft [C],TyreCarcassTemperatureRearRight [C],TyreCarcassTemperatureFrontLeft [C],TyreCarcassTemperatureFrontRight [C],TyrePressureRearLeft [PSI],TyrePressureRearRight [PSI],TyrePressureFrontLeft [PSI],TyrePressureFrontRight [PSI],WheelSlipRearLeft [%],WheelSlipRearRight [%],WheelSlipFrontLeft [%],WheelSlipFrontRight [%],Torque [Nm],Handbrake [%],RearLeftInside [C],RearLeftMiddle [C],RearLeftOutside [C],RearRightInside [C],RearRightMiddle [C],RearRightOutside [C],FrontLeftInside [C],FrontLeftMiddle [C],FrontLeftOutside [C],FrontRightInside [C],FrontRightMiddle [C],FrontRightOutside [C],WoldSpeedX [km/h],WoldSpeedY [km/h],WoldSpeedZ [km/h],LocalAngularVelocityX [rad/s],LocalAngularVelocityY [rad/s],LocalAngularVelocityZ [rad/s],IcePower [W],MgukPower [W],FrontRideHeight [m],RearRideHeight [m],LoadRearLeft [N],LoadRearRight [N],LoadFrontLeft [N],LoadFrontRight [N],Extra1 [m],Extra2 [],Extra3 [],Extra4 []
1.3455611,1.3455611,0.0,0.0,0.0,310.1597,11101.0,100.0,0.0,0.11987777,0.0,8.0,0.0,0.0,4000000.0,110.0,1.0,0.0,0.0,10.0,0.0,0.0,-616.37726,-3.0343957,601.3028,0.027427785,0.21198007,-0.0041007195,315.38907,315.85715,310.01917,310.0235,308.0,308.0,346.0,341.0,89.0,89.0,89.0,89.0,0.0,0.0,0.0,0.0,0.052269507,0.052162685,0.054123137,0.05439473,-0.20071863,-1.6770511,-1.0664015,2.1493433,83.497154,274.83252,-107.70409,65.79458,0.0,0.0,0.0,2.0,1.0,3.0550342,-0.006367785,-0.0057780743,89.0,89.0,89.0,89.0,22.560669,22.560669,25.12438,25.12438,0.016905729,0.018397901,-4.376722E-4,-4.4690483E-4,1149.377,0.0,0.0,0.0,0.0,0.0,0.0,0.0,0.0,0.0,0.0,0.0,0.0,0.0,7.520152,0.40016463,-85.825714,-0.0027085452,0.0010682389,0.015965037,549765.4,119984.91,0.008482506,0.00547492,8542.494,8515.505,6234.62,6373.245,0.2980528,0.0,0.0,0.0
5.6732755,5.6732755,0.066,0.0,0.0,310.53027,11114.0,100.0,0.0,0.06964912,0.0,8.0,0.0,0.0,4000000.0,110.0,1.0,0.0,0.0,10.0,0.0,0.0,-616.0015,-3.0142605,597.0088,0.024747461,0.20879838,-0.003219458,315.75586,316.22067,310.39102,310.39206,307.0,306.0,345.0,340.0,89.0,89.0,89.0,89.0,0.0,0.0,0.0,0.0,0.052295554,0.05223068,0.0541853,0.054429654,0.0,0.0,0.0,0.0,-122.91222,57.23834,-178.21935,36.33052,0.0,0.0,0.0,2.0,1.0,3.0550618,-0.00704946,-0.005797386,89.0,89.0,89.0,89.0,22.560669,22.560669,25.12438,25.12438,0.01687462,0.018359661,-4.3252614E-4,-4.5014458E-4,1150.7517,0.0,0.0,0.0,0.0,0.0,0.0,0.0,0.0,0.0,0.0,0.0,0.0,0.0,7.5165777,0.40333846,-85.929344,7.5948855E-4,9.2013937E-4,0.014964634,549779.1,119984.914,0.008415561,0.0055840835,8562.109,8529.878,6268.179,6388.468,0.2981615,0.0,0.0,0.0
10.006278,10.006278,0.116,0.0,0.0,310.8971,11126.0,100.0,0.0,0.049474806,0.0,8.0,0.0,0.0,4000000.0,110.0,1.0,0.0,0.0,10.0,0.0,0.0,-615.6258,-2.993985,592.7096,0.025047265,0.20700616,0.017038,316.1007,316.57056,310.75046,310.7655,306.0,305.0,343.0,339.0,89.0,89.0,89.0,89.0,0.0,0.0,0.0,0.0,0.052394185,0.052351125,0.05428204,0.054442003,0.0,0.0,0.0,0.0,-88.80793,65.150856,-63.48788,62.49546,0.0,0.0,0.0,2.0,1.0,3.0551815,-0.007676018,-0.005933404,89.0,89.0,89.0,89.0,22.560669,22.560669,25.12438,25.12438,0.016803544,0.018266061,-4.337026E-4,-4.4921075E-4,1152.0215,0.0,0.0,0.0,0.0,0.0,0.0,0.0,0.0,0.0,0.0,0.0,0.0,0.0,7.513014,0.40905538,-86.031906,0.0024472827,0.0032537254,0.011106024,549792.1,119984.9,0.0079870755,0.005175799,8617.329,8592.128,6343.132,6417.281,0.2978878,0.0,0.0,0.0
14.34429,14.34429,0.15,0.0,0.0,311.26105,11137.0,100.0,0.0,0.052186877,0.0,8.0,0.0,0.0,4000000.0,110.0,1.0,0.0,0.0,10.0,0.0,0.0,-615.25006,-2.9730558,588.40533,0.029729731,0.20625237,0.056137685,316.44434,316.86157,311.11288,311.13065,304.0,304.0,342.0,338.0,89.0,89.0,89.0,89.0,0.0,0.0,0.0,0.0,0.052511863,0.05270326,0.054377172,0.05448854,-1.4095007,13.622715,0.11533498,0.15199183,-328.7583,454.20523,-204.58548,-135.21013,0.0,0.0,0.0,2.0,1.0,3.0553625,-0.008130412,-0.006077051,89.0,89.0,89.0,89.0,22.560669,22.560669,25.12438,25.12438,0.016727779,0.018020453,-4.3759422E-4,-4.4831293E-4,1153.1854,0.0,0.0,0.0,0.0,0.0,0.0,0.0,0.0,0.0,0.0,0.0,0.0,0.0,7.5083537,0.43064094,-86.1337,-5.552452E-4,0.0034591553,0.010784116,549804.06,119984.91,0.0077184467,0.0044078655,8673.633,8787.139,6386.6826,6437.718,0.29779434,0.0,0.0,0.0
18.68734,18.68734,0.2,0.0,0.0,311.61557,11152.0,100.0,0.0,0.038721453,0.0,8.0,0.0,0.0,4000000.0,110.0,1.0,0.0,0.0,10.0,0.0,0.0,-614.8745,-2.9513047,584.09595,0.0318216,0.20036031,-0.04065683,316.85336,317.31747,311.4685,311.48703,303.0,303.0,341.0,336.0,89.0,89.0,89.0,89.0,0.0,0.0,0.0,0.0,0.05224397,0.052132063,0.054315343,0.05433367,-8.036121,-6.3125787,-3.932118,-2.535358,-218.31837,921.8751,-160.7984,45.08793,0.0,0.0,0.0,2.0,1.0,3.0555449,-0.008498879,-0.005970001,89.0,89.0,89.0,89.0,22.560669,22.560669,25.12438,25.12438,0.016867552,0.018302757,-4.304879E-4,-4.4507944E-4,1154.7725,0.0,0.0,0.0,0.0,0.0,0.0,0.0,0.0,0.0,0.0,0.0,0.0,0.0,7.502752,0.4296571,-86.23304,-0.0011435541,0.003845482,-0.0034034117,549820.2,119984.9,0.008132254,0.005356136,8510.584,8513.311,6292.8335,6307.226,0.2984705,0.0,0.0,0.0
23.035326,23.035326,0.25,0.0,0.0,311.9703,11164.0,100.0,0.0,0.040915135,0.0,8.0,0.0,0.0,4000000.0,110.0,1.0,0.0,0.0,10.0,0.0,0.0,-614.4999,-2.9302914,579.7816,0.032641575,0.20081721,-0.021033948,317.1975,317.652,311.82117,311.84262,302.0,301.0,340.0,335.0,89.0,89.0,89.0,89.0,0.0,0.0,0.0,0.0,0.052280914,0.052285038,0.05424461,0.054381646,7.2989607,-0.7465481,1.8565356,0.237599,417.91492,-424.99597,211.37144,-63.890213,0.0,0.0,0.0,2.0,1.0,3.055747,-0.008655023,-0.0059689283,89.0,89.0,89.0,89.0,22.560669,22.560669,25.12438,25.12438,0.016829226,0.018226068,-4.3210184E-4,-4.4527848E-4,1156.0419,0.0,0.0,0.0,0.0,0.0,0.0,0.0,0.0,0.0,0.0,0.0,0.0,0.0,7.4959073,0.41433403,-86.33262,8.398754E-5,0.0041941074,0.00935251,549832.94,119984.914,0.007981556,0.005138355,8538.954,8582.876,6316.8555,6371.431,0.2985468,0.0,0.0,0.0
27.388205,27.388205,0.3,0.0,0.0,312.3218,11176.0,100.0,0.0,0.04527762,0.0,8.0,0.0,0.0,4000000.0,110.0,1.0,0.0,0.0,10.0,0.0,0.0,-614.12524,-2.9095652,575.46234,0.03504567,0.19808148,0.014169489,317.5219,317.9822,312.17102,312.1963,301.0,300.0,338.0,334.0,89.0,89.0,89.0,89.0,0.0,0.0,0.0,0.0,0.05242185,0.05246838,0.054350704,0.0544283,0.8464604,3.1922755,1.5156715,1.4727561,-97.39101,-73.92168,-34.238388,17.742811,0.0,0.0,0.0,2.0,1.0,3.055975,-0.008949718,-0.0059798956,89.0,89.0,89.0,89.0,22.560669,22.560669,25.12438,25.12438,0.016719345,0.018123534,-4.3230876E-4,-4.4412838E-4,1157.3104,0.0,0.0,0.0,0.0,0.0,0.0,0.0,0.0,0.0,0.0,0.0,0.0,0.0,7.4873223,0.41689563,-86.43136,-0.0011673906,0.0047970046,0.0037346946,549845.25,119984.91,0.00767347,0.0047204345,8624.016,8659.43,6381.492,6417.0894,0.29841805,0.0,0.0,0.0
31.745932,31.745932,0.366,0.0,0.0,312.67902,11179.0,100.0,0.0,0.061111383,0.0,8.0,0.0,0.0,4000000.0,110.0,1.0,0.0,0.0,10.0,0.0,0.0,-613.7513,-2.8885536,571.1381,0.05796771,0.1936711,-0.015638804,317.83267,317.8539,312.54065,312.5465,299.0,299.0,337.0,333.0,89.0,89.0,89.0,89.0,0.0,0.0,0.0,0.0,0.0522757,0.052415002,0.054346986,0.054400362,0.0,0.0,0.0,0.0,-222.26123,-144.47717,-134.91508,45.973053,0.0,0.0,0.0,2.0,1.0,3.0561457,-0.008961006,-0.0058858395,89.0,89.0,89.0,89.0,22.560669,22.560669,25.12438,25.12438,0.01651239,0.016584937,-4.3601394E-4,-4.242443E-4,1157.6285,0.0,0.0,0.0,0.0,0.0,0.0,0.0,0.0,0.0,0.0,0.0,0.0,0.0,7.469569,0.4190099,-86.53248,-0.0027262645,3.1507388E-4,-0.0060059554,549848.8,119984.91,0.007984632,0.005061137,8544.824,8645.338,6337.732,6365.0366,0.2987976,0.0,0.0,0.0
36.108536,36.108536,0.416,0.0,0.0,313.01553,11191.0,100.0,0.0,0.05878445,0.0,8.0,0.0,0.0,4000000.0,110.0,1.0,0.0,0.0,10.0,0.0,0.0,-613.37805,-2.8680224,566.80896,0.029715985,0.19029565,-0.031937808,318.18103,318.18985,312.8893,312.86984,298.0,297.0,336.0,331.0,89.0,89.0,89.0,89.0,0.0,0.0,0.0,0.0,0.052194264,0.052333083,0.054346558,0.05437415,0.0,0.0,0.0,0.0,418.94757,127.45854,113.765884,-61.717617,0.0,0.0,0.0,2.0,1.0,3.0560389,-0.008760438,-0.0058095455,89.0,89.0,89.0,89.0,22.560669,22.560669,25.12438,25.12438,0.01650979,0.016604472,-4.310625E-4,-4.2784153E-4,1158.8982,0.0,0.0,0.0,0.0,0.0,0.0,0.0,0.0,0.0,0.0,0.0,0.0,0.0,7.458271,0.40312997,-86.62736,6.585903E-4,-0.0035484235,-3.0533056E-4,549861.6,119984.91,0.008041989,0.00520998,8529.689,8611.578,6364.9014,6366.4805,0.298913,0.0,0.0,0.0
40.467506,40.467506,0.466,0.0,0.0,313.3498,11202.0,100.0,0.0,0.059717696,0.0,8.0,0.0,0.0,4000000.0,110.0,1.0,0.0,0.0,10.0,0.0,0.0,-613.0056,-2.8479884,562.4751,0.005490493,0.18840517,0.0069033606,318.4804,318.50092,313.22488,313.20276,297.0,296.0,335.0,330.0,89.0,89.0,89.0,89.0,0.0,0.0,0.0,0.0,0.052439205,0.052495565,0.0544618,0.05437904,0.0,0.0,0.0,0.0,17.876915,-115.03994,-24.51538,26.09789,0.0,0.0,0.0,2.0,1.0,3.0558507,-0.008627146,-0.005861163,89.0,89.0,89.0,89.0,22.560669,22.560669,25.12438,25.12438,0.016378006,0.016513173,-4.2988194E-4,-4.2807902E-4,1160.0615,0.0,0.0,0.0,0.0,0.0,0.0,0.0,0.0,0.0,0.0,0.0,0.0,0.0,7.4594154,0.4012201,-86.72046,7.126671E-4,-0.003852135,-0.003408072,549873.06,119984.9,0.007852195,0.004822217,8653.545,8679.7,6436.2866,6394.439,0.2986412,0.0,0.0,0.0
44.823402,44.823402,0.5,0.0,0.0,313.6796,11213.0,100.0,0.0,0.06018432,0.0,8.0,0.0,0.0,4000000.0,110.0,1.0,0.0,0.0,10.0,0.0,0.0,-612.6321,-2.8278067,558.13666,-0.008133685,0.18489803,-0.0022488963,318.80634,318.78754,313.55618,313.53232,295.0,295.0,333.0,329.0,89.0,89.0,89.0,89.0,0.0,0.0,0.0,0.0,0.05241171,0.052448038,0.054502174,0.054380693,-2.0661948,-1.0733305,0.15132128,0.5760043,12.794136,100.64989,-18.802284,112.71982,0.0,0.0,0.0,2.0,1.0,3.0556524,-0.008326253,-0.0058044195,89.0,89.0,89.0,89.0,22.560669,22.560669,25.12438,25.12438,0.016342115,0.016351592,-4.2875082E-4,-4.2651512E-4,1161.2249,0.0,0.0,0.0,0.0,0.0,0.0,0.0,0.0,0.0,0.0,0.0,0.0,0.0,7.468264,0.4040235,-86.81164,-0.0013750282,-0.0041199033,-0.006786681,549884.56,119984.91,0.0078082085,0.004840046,8648.881,8661.011,6445.284,6392.0156,0.29859352,0.0,0.0,0.0
49.183693,49.183693,0.55,0.0,0.0,314.00317,11224.0,100.0,0.0,0.04466839,0.0,8.0,0.0,0.0,4000000.0,110.0,1.0,0.0,0.0,10.0,0.0,0.0,-612.2584,-2.8076367,553.79376,-0.017999727,0.1824704,0.005711198,319.12198,319.10992,313.8789,313.85593,294.0,293.0,332.0,328.0,89.0,89.0,89.0,89.0,0.0,0.0,0.0,0.0,0.05246069,0.05246709,0.054559197,0.05442483,4.034936,2.4651735,2.1464376,1.4220177,255.96315,181.3039,94.52104,42.325253,0.0,0.0,0.0,2.0,1.0,3.0554457,-0.008140046,-0.005776286,89.0,89.0,89.0,89.0,22.560669,22.560669,25.12438,25.12438,0.016308308,0.016330672,-4.2686987E-4,-4.2697715E-4,1162.3894,0.0,0.0,0.0,0.0,0.0,0.0,0.0,0.0,0.0,0.0,0.0,0.0,0.0,7.4834538,0.40385923,-86.90054,0.001492925,-0.0038349389,-0.0011334937,549896.56,119984.91,0.0078076636,0.004917381,8677.008,8673.002,6501.164,6437.116,0.29864693,0.0,0.0,0.0
53.54847,53.54847,0.616,0.0,0.0,314.32227,11235.0,100.0,0.0,0.031163864,0.0,8.0,0.0,0.0,4000000.0,110.0,1.0,0.0,0.0,10.0,0.0,0.0,-611.8838,-2.7873561,549.4465,-0.022084739,0.1797941,0.0072428393,319.42838,319.42624,314.19604,314.17706,293.0,292.0,331.0,327.0,89.0,89.0,89.0,89.0,0.0,0.0,0.0,0.0,0.052541357,0.052482385,0.05457741,0.054433204,0.0,0.0,0.0,0.0,8.676946,-55.803352,-21.176037,22.423264,0.0,0.0,0.0,2.0,1.0,3.0552688,-0.008014997,-0.0058574677,89.0,89.0,89.0,89.0,22.560669,22.560669,25.12438,25.12438,0.016256519,0.01629927,-4.2545953E-4,-4.272152E-4,1163.5533,0.0,0.0,0.0,0.0,0.0,0.0,0.0,0.0,0.0,0.0,0.0,0.0,0.0,7.501645,0.40739337,-86.98792,0.0018486911,-0.0030425312,-0.0030218984,549908.25,119984.91,0.007824321,0.004866605,8717.881,8676.486,6490.2495,6428.089,0.29866123,0.0,0.0,0.0
57.91771,57.91771,0.666,0.0,0.0,314.6369,11246.0,100.0,0.0,0.027341183,0.0,8.0,0.0,0.0,4000000.0,110.0,1.0,0.0,0.0,10.0,0.0,0.0,-611.5082,-2.7668545,545.0948,-0.021219913,0.17735523,0.01111535,319.73425,319.74014,314.50626,314.49643,291.0,291.0,330.0,325.0,89.0,89.0,89.0,89.0,0.0,0.0,0.0,0.0,0.05257884,0.052515537,0.05455772,0.054485798,0.0,0.0,0.0,0.0,14.792378,-118.955956,15.650688,-32.226734,0.0,0.0,0.0,2.0,1.0,3.0551608,-0.007926671,-0.005915642,89.0,89.0,89.0,89.0,22.560669,22.560669,25.12438,25.12438,0.016225448,0.016265543,-4.2531177E-4,-4.255126E-4,1164.7172,0.0,0.0,0.0,0.0,0.0,0.0,0.0,0.0,0.0,0.0,0.0,0.0,0.0,7.5193415,0.41278273,-87.0741,6.556058E-4,-0.0015785301,8.802328E-4,549919.9,119984.91,0.007829822,0.0048217997,8738.086,8692.69,6484.962,6454.9307,0.29867172,0.0,0.0,0.0
62.291206,62.291206,0.7,0.0,0.0,314.94803,11257.0,100.0,0.0,0.016967574,0.0,8.0,0.0,0.0,4000000.0,110.0,1.0,0.0,0.0,10.0,0.0,0.0,-611.1317,-2.7462711,540.73883,-0.01681484,0.17573632,0.007068023,320.04294,320.0552,314.81503,314.8097,290.0,290.0,329.0,324.0,89.0,89.0,89.0,89.0,0.0,0.0,0.0,0.0,0.052588083,0.052483384,0.054568343,0.05451231,2.9325483,2.133697,1.561269,1.4302878,116.71631,122.72446,30.255316,19.177794,0.0,0.0,0.0,2.0,1.0,3.055106,-0.008038992,-0.005946636,89.0,89.0,89.0,89.0,22.560669,22.560669,25.12438,25.12438,0.016211314,0.016259713,-4.254453E-4,-4.2578686E-4,1165.8812,0.0,0.0,0.0,0.0,0.0,0.0,0.0,0.0,0.0,0.0,0.0,0.0,0.0,7.5355864,0.4125876,-87.15945,0.001609227,-8.1431743E-4,0.0024942555,549931.56,119984.9,0.0076048523,0.0046792626,8742.123,8681.768,6507.965,6482.7363,0.29847813,0.0,0.0,0.0
66.66898,66.66898,0.749,0.0,0.0,315.25558,11267.0,100.0,0.0,0.0072031333,0.0,8.0,0.0,0.0,4000000.0,110.0,1.0,0.0,0.0,10.0,0.0,0.0,-610.75476,-2.725259,536.3786,-0.010927175,0.17294464,0.03566394,320.32614,320.34137,315.12027,315.1198,289.0,288.0,327.0,323.0,89.0,89.0,89.0,89.0,0.0,0.0,0.0,0.0,0.052729476,0.052654818,0.054631043,0.054604527,-1.3965367,0.12271105,-0.6759166,0.9644776,-471.14337,-391.46832,-202.97615,-106.45687,0.0,0.0,0.0,2.0,1.0,3.0550914,-0.008063788,-0.006063342,89.0,89.0,89.0,89.0,22.560669,22.560669,25.12438,25.12438,0.016120918,0.016164452,-4.2457393E-4,-4.2546325E-4,1166.9396,0.0,0.0,0.0,0.0,0.0,0.0,0.0,0.0,0.0,0.0,0.0,0.0,0.0,7.548952,0.42878744,-87.243965,0.0015197631,4.2909378E-5,2.5231534E-4,549942.25,119984.9,0.007496088,0.0044942573,8808.54,8759.294,6532.9824,6527.663,0.29831314,0.0,0.0,0.0
71.051025,71.051025,0.816,0.0,0.0,315.55682,11278.0,100.0,0.0,0.0012055703,0.0,8.0,0.0,0.0,4000000.0,110.0,1.0,0.0,0.0,10.0,0.0,0.0,-610.37683,-2.703573,532.0142,-0.0057219286,0.16991855,0.0010869631,320.6493,320.66122,315.42102,315.4224,288.0,287.0,326.0,322.0,89.0,89.0,89.0,89.0,0.0,0.0,0.0,0.0,0.052600194,0.05252346,0.054592863,0.054584544,0.0,0.0,0.0,0.0,55.2535,2.118945,38.78474,-24.475153,0.0,0.0,0.0,2.0,1.0,3.055104,-0.00815311,-0.0060902834,89.0,89.0,89.0,89.0,22.560669,22.560669,25.12438,25.12438,0.01617516,0.016206153,-4.2281576E-4,-4.2334254E-4,1168.1044,0.0,0.0,0.0,0.0,0.0,0.0,0.0,0.0,0.0,0.0,0.0,0.0,0.0,7.5596952,0.4355019,-87.32699,3.864898E-4,2.9446508E-4,0.00239434,549954.25,119984.9,0.0075692176,0.004714571,8747.9795,8703.261,6504.9683,6498.8867,0.29844856,0.0,0.0,0.0
75.43718,75.43718,0.866,0.0,0.0,315.85562,11288.0,100.0,0.0,0.002091893,0.0,8.0,0.0,0.0,4000000.0,110.0,1.0,0.0,0.0,10.0,0.0,0.0,-609.9989,-2.6817884,527.6457,-0.003477592,0.16897485,0.009658619,320.94217,320.94873,315.72052,315.71927,286.0,286.0,325.0,321.0,89.0,89.0,89.0,89.0,0.0,0.0,0.0,0.0,0.05263121,0.0525863,0.054646358,0.05458516,0.0,0.0,0.0,0.0,269.2133,97.61899,126.492966,4.613399,0.0,0.0,0.0,2.0,1.0,3.0550978,-0.008243652,-0.006193042,89.0,89.0,89.0,89.0,22.560669,22.560669,25.12438,25.12438,0.01614176,0.016167039,-4.237308E-4,-4.23876E-4,1169.1632,0.0,0.0,0.0,0.0,0.0,0.0,0.0,0.0,0.0,0.0,0.0,0.0,0.0,7.5693526,0.4371907,-87.409454,0.003541802,-1.402532E-4,6.8998913E-4,549965.1,119984.9,0.0073403753,0.004515536,8768.426,8737.047,6560.6826,6524.3193,0.29830265,0.0,0.0,0.0
79.82697,79.82697,0.899,0.0,0.0,316.15225,11298.0,100.0,0.0,0.014123093,0.0,8.0,0.0,0.0,4000000.0,110.0,1.0,0.0,0.0,10.0,0.0,0.0,-609.6199,-2.6596255,523.273,-0.0027972115,0.16742684,0.019359592,321.22867,321.2268,316.01767,316.0157,285.0,285.0,324.0,320.0,89.0,89.0,89.0,89.0,0.0,0.0,0.0,0.0,0.05266735,0.052718222,0.05467057,0.05461579,-3.3605843,0.97163016,-1.8084793,0.8209794,-371.848,-131.33435,-186.44032,23.64367,0.0,0.0,0.0,2.0,1.0,3.0550864,-0.008123577,-0.0063476562,89.0,89.0,89.0,89.0,22.560669,22.560669,25.12438,25.12438,0.016092712,0.016086401,-4.241475E-4,-4.2289434E-4,1170.2216,0.0,0.0,0.0,0.0,0.0,0.0,0.0,0.0,0.0,0.0,0.0,0.0,0.0,7.5778627,0.4486334,-87.49136,0.0014225513,-3.447313E-4,-0.0015811913,549975.75,119984.91,0.0069997795,0.0040753707,8784.773,8797.178,6543.068,6531.7676,0.29785347,0.0,0.0,0.0
84.22061,84.22061,0.949,0.0,0.0,316.4454,11309.0,100.0,0.0,0.015876219,0.0,8.0,0.0,0.0,4000000.0,110.0,1.0,0.0,0.0,10.0,0.0,0.0,-609.24084,-2.636962,518.89636,-0.0033694878,0.16517742,0.0103297345,321.5308,321.53183,316.3116,316.30975,284.0,283.0,323.0,318.0,89.0,89.0,89.0,89.0,0.0,0.0,0.0,0.0,0.052643344,0.052653406,0.054679338,0.054594845,-2.0545719,-1.4483927,-1.2304633,-0.14461575,-192.78374,-57.86865,-127.69996,27.331705,0.0,0.0,0.0,2.0,1.0,3.0550678,-0.008025816,-0.006322384,89.0,89.0,89.0,89.0,22.560669,22.560669,25.12438,25.12438,0.01609757,0.016102472,-4.2341225E-4,-4.216099E-4,1171.3851,0.0,0.0,0.0,0.0,0.0,0.0,0.0,0.0,0.0,0.0,0.0,0.0,0.0,7.5861816,0.4566343,-87.57234,-0.0020861272,-3.5352493E-4,-0.0030028773,549987.1,119984.91,0.0069824993,0.0040325597,8769.254,8769.213,6549.4766,6516.8433,0.29771805,0.0,0.0,0.0
88.618454,88.618454,1.016,0.0,0.0,316.7345,11320.0,100.0,0.0,0.014804565,0.0,8.0,0.0,0.0,4000000.0,110.0,1.0,0.0,0.0,10.0,0.0,0.0,-608.8613,-2.614281,514.51556,-0.0043137716,0.16309938,-0.033200957,321.84372,321.84573,316.60242,316.59824,283.0,282.0,321.0,317.0,89.0,89.0,89.0,89.0,0.0,0.0,0.0,0.0,0.05249746,0.052487478,0.054578558,0.054549348,0.0,0.0,0.0,0.0,29.759115,3.9696689,9.89735,8.247792,0.0,0.0,0.0,2.0,1.0,3.0550382,-0.007939242,-0.0061662197,89.0,89.0,89.0,89.0,22.560669,22.560669,25.12438,25.12438,0.016159007,0.016173648,-4.2071444E-4,-4.2038315E-4,1172.5494,0.0,0.0,0.0,0.0,0.0,0.0,0.0,0.0,0.0,0.0,0.0,0.0,0.0,7.5952034,0.44771725,-87.652214,-0.0034745748,-7.1552943E-4,-6.745677E-5,549998.8,119984.9,0.0073228846,0.0044327825,8697.018,8683.587,6478.9507,6469.3745,0.29808235,0.0,0.0,0.0
93.02026,93.02026,1.066,0.0,0.0,317.02008,11330.0,100.0,0.0,0.029090196,0.0,8.0,0.0,0.0,4000000.0,110.0,1.0,0.0,0.0,10.0,0.0,0.0,-608.4812,-2.5922768,510.13086,-0.0066070966,0.16110195,-0.032984305,322.1253,322.12885,316.88828,316.88284,282.0,281.0,320.0,316.0,89.0,89.0,89.0,89.0,0.0,0.0,0.0,0.0,0.05250358,0.05250311,0.05455375,0.054578528,0.0,0.0,0.0,0.0,141.75473,67.05522,26.32588,61.90538,0.0,0.0,0.0,2.0,1.0,3.0549996,-0.00780056,-0.006061554,89.0,89.0,89.0,89.0,22.560669,22.560669,25.12438,25.12438,0.01613715,0.016159294,-4.2078653E-4,-4.1970727E-4,1173.6079,0.0,0.0,0.0,0.0,0.0,0.0,0.0,0.0,0.0,0.0,0.0,0.0,0.0,7.604828,0.4326818,-87.73108,-7.6620135E-4,-9.3342946E-4,5.760571E-4,550009.44,119984.91,0.0074065733,0.0045947754,8711.867,8688.98,6487.2964,6509.1455,0.29824352,0.0,0.0,0.0
97.4259,97.4259,1.116,0.0,0.0,317.30255,11339.0,100.0,0.0,0.02715812,0.0,8.0,0.0,0.0,4000000.0,110.0,1.0,0.0,0.0,10.0,0.0,0.0,-608.1009,-2.5707238,505.74225,-0.00850655,0.1591542,0.02647423,322.3624,322.37637,317.1704,317.1638,280.0,280.0,319.0,315.0,89.0,89.0,89.0,89.0,0.0,0.0,0.0,0.0,0.05282561,0.052703783,0.054679837,0.054697506,0.0,0.0,0.0,0.0,-139.12613,-289.4103,-149.41245,-162.99782,0.0,0.0,0.0,2.0,1.0,3.054947,-0.008101953,-0.0061444044,89.0,89.0,89.0,89.0,22.560669,22.560669,25.12438,25.12438,0.015979374,0.016039971,-4.2151054E-4,-4.2089968E-4,1174.5597,0.0,0.0,0.0,0.0,0.0,0.0,0.0,0.0,0.0,0.0,0.0,0.0,0.0,7.6152287,0.4352442,-87.80893,0.0027108476,-0.0011215145,0.00827075,550018.56,119984.9,0.007310021,0.0042844363,8852.816,8792.148,6594.948,6601.5117,0.29808807,0.0,0.0,0.0
101.8355,101.8355,1.149,0.0,0.0,317.5782,11349.0,100.0,0.0,0.012298407,0.0,8.0,0.0,0.0,4000000.0,110.0,1.0,0.0,0.0,10.0,0.0,0.0,-607.71967,-2.548764,501.3498,-0.006250658,0.15425639,0.0059111677,322.6499,322.6709,317.446,317.44272,279.0,279.0,318.0,314.0,89.0,89.0,89.0,89.0,0.0,0.0,0.0,0.0,0.052762363,0.05262582,0.05459022,0.05469373,-3.9064136,-2.8856096,-1.522824,1.7061083,-174.20946,-121.624756,6.8262215,116.87724,0.0,0.0,0.0,2.0,1.0,3.0549097,-0.008449052,-0.0061181784,89.0,89.0,89.0,89.0,22.560669,22.560669,25.12438,25.12438,0.015990667,0.016060399,-4.1672867E-4,-4.18826E-4,1175.6188,0.0,0.0,0.0,0.0,0.0,0.0,0.0,0.0,0.0,0.0,0.0,0.0,0.0,7.6250896,0.44136715,-87.884895,-0.0029658976,-4.7772148E-4,0.00853631,550029.44,119984.9,0.007835714,0.0047083898,8829.392,8750.801,6515.808,6574.921,0.2985649,0.0,0.0,0.0
106.248795,106.248795,1.199,0.0,0.0,317.84937,11359.0,100.0,0.0,0.0037532079,0.0,8.0,0.0,0.0,4000000.0,110.0,1.0,0.0,0.0,10.0,0.0,0.0,-607.33844,-2.5271432,496.95358,-0.003804355,0.15391055,-0.03672975,322.93994,322.96646,317.71466,317.71423,278.0,277.0,317.0,313.0,89.0,89.0,89.0,89.0,0.0,0.0,0.0,0.0,0.052597422,0.052415803,0.05452333,0.05469351,2.5836377,1.2845545,2.4884193,2.968311,656.551,530.21906,451.5767,312.55774,0.0,0.0,0.0,2.0,1.0,3.054905,-0.0090741655,-0.0060987473,89.0,89.0,89.0,89.0,22.560669,22.560669,25.12438,25.12438,0.016062712,0.016139625,-4.1677366E-4,-4.1906885E-4,1176.6781,0.0,0.0,0.0,0.0,0.0,0.0,0.0,0.0,0.0,0.0,0.0,0.0,0.0,7.633989,0.42286953,-87.95982,0.001996303,2.0679065E-5,0.016867587,550040.4,119984.9,0.007605638,0.0048555606,8763.488,8663.086,6512.9546,6590.0537,0.29862595,0.0,0.0,0.0
110.66596,110.66596,1.266,0.0,0.0,318.1231,11366.0,100.0,0.0,-0.008202374,0.0,8.0,0.0,0.0,4000000.0,110.0,1.0,0.0,0.0,10.0,0.0,0.0,-606.9563,-2.505663,492.5536,-3.2280758E-4,0.15473886,0.049878877,323.13327,323.1731,317.98444,317.98904,277.0,276.0,316.0,311.0,89.0,89.0,89.0,89.0,0.0,0.0,0.0,0.0,0.053087957,0.052824214,0.054723613,0.054845475,0.0,0.0,0.0,0.0,-639.9213,-1054.4567,-401.37912,-482.2477,0.0,0.0,0.0,2.0,1.0,3.0549378,-0.009715975,-0.006465316,89.0,89.0,89.0,89.0,22.560669,22.560669,25.12438,25.12438,0.0158007,0.015912827,-4.1972732E-4,-4.232644E-4,1177.4196,0.0,0.0,0.0,0.0,0.0,0.0,0.0,0.0,0.0,0.0,0.0,0.0,0.0,7.6410685,0.44125262,-88.035446,0.004002756,9.95941E-4,0.009087038,550048.0,119984.91,0.006473678,0.0034732944,8989.223,8839.307,6595.0366,6644.978,0.29743576,0.0,0.0,0.0
115.086914,115.086914,1.316,0.0,0.0,318.39185,11376.0,100.0,0.0,-0.0057919086,0.0,8.0,0.0,0.0,4000000.0,110.0,1.0,0.0,0.0,10.0,0.0,0.0,-606.574,-2.48243,488.14984,0.00383808,0.15088625,0.070005246,323.4112,323.44897,318.25317,318.26016,275.0,275.0,314.0,310.0,89.0,89.0,89.0,89.0,0.0,0.0,0.0,0.0,0.052992795,0.052838,0.054810833,0.055035617,0.0,0.0,0.0,0.0,-96.34494,-476.13226,-283.01324,-556.83997,0.0,0.0,0.0,2.0,1.0,3.0549943,-0.010244737,-0.006554723,89.0,89.0,89.0,89.0,22.560669,22.560669,25.12438,25.12438,0.015805941,0.015890993,-4.1917682E-4,-4.213063E-4,1178.4775,0.0,0.0,0.0,0.0,0.0,0.0,0.0,0.0,0.0,0.0,0.0,0.0,0.0,7.645741,0.4840788,-88.10975,-0.0025219205,0.0012174286,0.01568873,550058.3,119984.914,0.0059879967,0.0030714597,8960.944,8860.791,6657.633,6754.3745,0.29659748,0.0,0.0,0.0
119.511536,119.511536,1.349,0.0,0.0,318.65433,11388.0,100.0,0.0,-0.01653213,0.0,8.0,0.0,1.0,4000000.0,110.0,1.0,0.0,0.0,10.0,0.0,0.0,-606.19165,-2.457994,483.74243,0.009823796,0.14766556,-0.08104616,323.76736,323.7865,318.51697,318.5269,274.0,274.0,313.0,309.0,89.0,89.0,89.0,89.0,0.0,0.0,0.0,0.0,0.05247659,0.052390218,0.05462762,0.05463148,-14.257057,-11.372342,-6.9357452,-9.850636,-1.5288161,-42.861725,-196.217,-87.574135,0.0,0.0,0.0,2.0,1.0,3.0550644,-0.01073055,-0.0062367916,89.0,89.0,89.0,89.0,22.560669,22.560669,25.12438,25.12438,0.01608395,0.016118186,-4.1438048E-4,-4.143085E-4,1179.2769,0.0,0.0,0.0,0.0,0.0,0.0,0.0,0.0,0.0,0.0,0.0,0.0,0.0,7.6481676,0.47818816,-88.182755,-0.0086233765,0.0015890695,0.0026498865,549851.4,119984.91,0.007486325,0.0044223173,8678.429,8625.965,6438.9995,6432.0225,0.2976761,0.0,0.0,0.0
123.93984,123.93984,1.399,0.0,0.0,318.9149,11398.0,100.0,0.0,-0.024415392,0.0,8.0,0.0,1.0,4000000.0,110.0,1.0,0.0,0.0,10.0,0.0,0.0,-605.8093,-2.4358501,479.3314,0.012948859,0.14758034,-0.13655268,324.0656,324.06622,318.77823,318.7863,273.0,273.0,312.0,308.0,89.0,89.0,89.0,89.0,0.0,0.0,0.0,0.0,0.052173637,0.052201908,0.054443184,0.054344296,1.047179,2.8619168,0.3366172,-1.8956511,519.678,612.75055,151.49113,235.06877,0.0,0.0,0.0,2.0,1.0,3.0551283,-0.010757744,-0.005803585,89.0,89.0,89.0,89.0,22.560669,22.560669,25.12438,25.12438,0.01620862,0.016189514,-4.130992E-4,-4.1337276E-4,1179.8823,0.0,0.0,0.0,0.0,0.0,0.0,0.0,0.0,0.0,0.0,0.0,0.0,0.0,7.6497226,0.41082194,-88.25561,-0.0046881377,0.0013493758,-0.0053161485,549651.06,119984.914,0.00823573,0.0053530214,8542.975,8559.102,6399.573,6348.5957,0.29881668,0.0,0.0,0.0
128.37181,128.37181,1.466,0.0,0.0,319.17346,11404.0,100.0,0.0,-0.012116867,0.0,8.0,0.0,1.0,4000000.0,110.0,1.0,0.0,0.0,10.0,0.0,0.0,-605.427,-2.4159515,474.9167,0.011764079,0.14435606,0.026340336,324.232,324.21747,319.0357,319.0417,272.0,271.0,311.0,307.0,89.0,89.0,89.0,89.0,0.0,0.0,0.0,0.0,0.052800972,0.0529677,0.054773577,0.0546539,0.0,0.0,0.0,0.0,-1073.1249,-1242.4393,-450.0344,-489.08737,0.0,0.0,0.0,2.0,1.0,3.0551867,-0.010392527,-0.0058209896,89.0,89.0,89.0,89.0,22.560669,22.560669,25.12438,25.12438,0.015905153,0.015842348,-4.167077E-4,-4.1485726E-4,1180.2618,0.0,0.0,0.0,0.0,0.0,0.0,0.0,0.0,0.0,0.0,0.0,0.0,0.0,7.650159,0.40015465,-88.32772,0.005127851,9.948618E-4,-0.005987751,549538.56,119984.9,0.00778943,0.0048438734,8823.141,8895.416,6674.2256,6619.122,0.2986555,0.0,0.0,0.0
132.80731,132.80731,1.516,0.0,0.0,319.42352,11411.0,100.0,0.0,-0.010001202,0.0,8.0,0.0,1.0,4000000.0,110.0,1.0,0.0,0.0,10.0,0.0,0.0,-605.0447,-2.395143,470.49844,0.009851224,0.14077877,0.076672286,324.41837,324.41193,319.28323,319.28955,271.0,270.0,310.0,306.0,89.0,89.0,89.0,89.0,0.0,0.0,0.0,0.0,0.053045098,0.053140875,0.055054475,0.054973546,0.0,0.0,0.0,0.0,-201.4741,-228.28278,-343.85913,-265.52527,0.0,0.0,0.0,2.0,1.0,3.0552423,-0.009990943,-0.00627017,89.0,89.0,89.0,89.0,22.560669,22.560669,25.12438,25.12438,0.015705058,0.015667047,-4.188825E-4,-4.1789172E-4,1180.6993,0.0,0.0,0.0,0.0,0.0,0.0,0.0,0.0,0.0,0.0,0.0,0.0,0.0,7.650296,0.4339835,-88.39727,0.013671751,0.0012201233,-0.0063413214,549405.0,119984.9,0.0063433712,0.003730245,8997.37,9038.029,6837.1035,6806.558,0.2973652,0.0,0.0,0.0
137.24628,137.24628,1.566,0.0,0.0,319.6709,11419.0,100.0,0.0,-0.010341178,0.0,8.0,0.0,1.0,4000000.0,110.0,1.0,0.0,0.0,10.0,0.0,0.0,-604.66235,-2.371585,466.07675,0.008885484,0.13815081,0.13461,324.64478,324.64084,319.53253,319.5377,270.0,269.0,309.0,305.0,89.0,89.0,89.0,89.0,0.0,0.0,0.0,0.0,0.053229224,0.053288896,0.055184737,0.05513299,0.0,0.0,0.0,0.0,-671.49097,-562.1641,-596.3221,-468.5014,0.0,0.0,0.0,2.0,1.0,3.055293,-0.009673871,-0.006734729,89.0,89.0,89.0,89.0,22.560669,22.560669,25.12438,25.12438,0.015594035,0.015564735,-4.1871777E-4,-4.184411E-4,1181.1863,0.0,0.0,0.0,0.0,0.0,0.0,0.0,0.0,0.0,0.0,0.0,0.0,0.0,7.6510334,0.5054838,-88.4658,0.005219285,9.6605695E-4,-0.0050427928,549246.56,119984.91,0.0057910755,0.0028815593,9077.068,9108.907,6866.0034,6847.994,0.2966652,0.0,0.0,0.0
141.6885,141.6885,1.599,0.0,0.0,319.91034,11432.0,100.0,0.0,-0.034434307,0.0,8.0,0.0,1.0,4000000.0,110.0,1.0,0.0,0.0,10.0,0.0,0.0,-604.28,-2.3457243,461.65173,0.011431377,0.13503096,-0.113144785,325.026,325.02676,319.7739,319.78226,268.0,268.0,308.0,304.0,89.0,89.0,89.0,89.0,0.0,0.0,0.0,0.0,0.052418057,0.052491818,0.054723036,0.05475077,-25.929583,-24.52813,-14.827921,-12.161135,-687.24884,-597.3279,-479.09613,-367.71738,0.0,0.0,0.0,2.0,1.0,3.0553463,-0.009563319,-0.006602645,89.0,89.0,89.0,89.0,22.560669,22.560669,25.12438,25.12438,0.016028196,0.01599719,-4.095812E-4,-4.1251958E-4,1181.9635,0.0,0.0,0.0,0.0,0.0,0.0,0.0,0.0,0.0,0.0,0.0,0.0,0.0,7.6519556,0.5056101,-88.53248,-0.006847137,0.001492229,0.001751835,548982.94,119984.9,0.006633845,0.0041308305,8611.973,8649.01,6422.7397,6447.509,0.29766083,0.0,0.0,0.0
146.13416,146.13416,1.666,0.0,0.0,320.15787,11439.0,100.0,0.0,-0.017313886,0.0,8.0,0.0,1.0,4000000.0,110.0,1.0,0.0,0.0,10.0,0.0,0.0,-603.8977,-2.3217819,457.22327,0.011074721,0.14151295,-0.04296385,325.23315,325.24365,320.01822,320.02734,267.0,267.0,306.0,302.0,89.0,89.0,89.0,89.0,0.0,0.0,0.0,0.0,0.052646745,0.052601155,0.054734074,0.05474197,0.0,0.0,0.0,0.0,256.68735,449.56503,124.588585,188.7068,0.0,0.0,0.0,2.0,1.0,3.0554323,-0.009697551,-0.0065232515,89.0,89.0,89.0,89.0,22.560669,22.560669,25.12438,25.12438,0.015919205,0.015923537,-4.161491E-4,-4.1659782E-4,1182.3677,0.0,0.0,0.0,0.0,0.0,0.0,0.0,0.0,0.0,0.0,0.0,0.0,0.0,7.653102,0.46410847,-88.60162,0.0019289053,0.0016065047,0.0011587848,548834.6,119984.9,0.0057084565,0.00333451,8764.886,8753.32,6642.4526,6648.416,0.29676056,0.0,0.0,0.0
150.58327,150.58327,1.716,0.0,0.0,320.40637,11447.0,100.0,0.0,-0.03248925,0.0,8.0,0.0,1.0,4000000.0,110.0,1.0,0.0,0.0,10.0,0.0,0.0,-603.5154,-2.2982688,452.79135,0.014495861,0.139013,0.031320322,325.44678,325.46008,320.2678,320.27768,266.0,266.0,305.0,301.0,89.0,89.0,89.0,89.0,0.0,0.0,0.0,0.0,0.05284865,0.052807134,0.054817703,0.05492755,0.0,0.0,0.0,0.0,-518.36365,-391.49518,-332.64752,-266.63837,0.0,0.0,0.0,2.0,1.0,3.0555093,-0.009850194,-0.0064148903,89.0,89.0,89.0,89.0,22.560669,22.560669,25.12438,25.12438,0.015769511,0.015775863,-4.1447429E-4,-4.178824E-4,1182.8715,0.0,0.0,0.0,0.0,0.0,0.0,0.0,0.0,0.0,0.0,0.0,0.0,0.0,7.652826,0.47812763,-88.67086,-0.0091093145,0.0017457486,0.004708609,548684.75,119984.91,0.0050146244,0.0023829988,8872.154,8857.285,6656.8906,6717.1436,0.2954836,0.0,0.0,0.0
155.03572,155.03572,1.749,0.0,0.0,320.64102,11458.0,100.0,0.0,0.14682321,0.0,8.0,0.0,1.0,4000000.0,110.0,1.0,0.0,0.0,10.0,0.0,0.0,-603.13306,-2.2737,448.35608,-0.005912165,0.12988289,-0.12964731,325.76266,325.77692,320.5154,320.50623,265.0,264.0,304.0,300.0,89.0,89.0,89.0,89.0,0.0,0.0,0.0,0.0,0.052451868,0.05234293,0.054615952,0.054788493,-24.421064,-23.415907,-14.989524,-12.173204,-551.90466,-492.84247,-580.4165,-490.17365,0.0,0.0,0.0,2.0,1.0,3.0555344,-0.010210166,-0.00587368,89.0,89.0,89.0,89.0,22.560669,22.560669,25.12438,25.12438,0.015968034,0.016040275,-4.1544563E-4,-3.99011E-4,1183.5376,0.0,0.0,0.0,0.0,0.0,0.0,0.0,0.0,0.0,0.0,0.0,0.0,0.0,7.6564536,0.47688854,-88.73597,-0.015067703,-0.0024760736,0.012577951,548466.7,119984.89,0.0070371972,0.0044267303,8640.375,8577.94,6376.542,6468.0674,0.29749012,0.0,0.0,0.0
159.49158,159.49158,1.799,0.0,0.0,320.89227,11469.0,100.0,0.0,0.38794658,100.0,8.0,1.0,0.0,4000000.0,110.0,1.0,0.0,0.0,10.0,0.0,0.0,-602.7496,-2.252124,443.9175,-0.057812814,0.15340121,-0.14015974,326.0693,326.06357,320.80243,320.71185,264.0,263.0,303.0,299.0,89.0,89.0,89.0,89.0,0.0,0.0,0.0,0.0,0.052144177,0.05178601,0.054430917,0.054449365,-0.37863848,-3.6310403,-1.6526877,-4.3243914,386.8952,489.98584,-200.07936,-69.549675,0.0,0.0,0.0,2.0,1.0,3.0550508,-0.0112154605,-0.0053424835,89.0,89.0,89.0,89.0,22.560669,22.560669,25.12438,25.12438,0.01603792,0.016291685,-4.326237E-4,-4.0421914E-4,1184.2306,0.0,0.0,0.0,0.0,0.0,0.0,0.0,0.0,0.0,0.0,0.0,0.0,0.0,7.6823745,0.39681378,-88.804184,-0.007898403,-0.016818753,0.023395952,548261.5,119984.9,0.008299308,0.0058452166,8530.662,8335.738,6374.124,6379.497,0.29918098,0.0,0.0,0.0
163.95152,163.95152,1.849,0.0,0.0,321.1992,11479.0,100.0,0.0,0.2944788,100.0,8.0,1.0,0.0,4000000.0,110.0,1.0,0.0,0.0,10.0,0.0,0.0,-602.36414,-2.232932,439.47516,-0.09919599,0.18262497,0.0043884604,326.36514,326.34705,321.12973,320.9852,263.0,262.0,302.0,298.0,89.0,89.0,89.0,89.0,0.0,0.0,0.0,0.0,0.052282613,0.051771298,0.054720297,0.054556176,-4.318356,-1.0751187,5.655214,5.45986,-278.41324,124.18627,-155.83633,137.34251,0.0,0.0,0.0,2.0,1.0,3.0539224,-0.012311166,-0.0050753355,89.0,89.0,89.0,89.0,22.560669,22.560669,25.12438,25.12438,0.015916403,0.016264653,-4.3558938E-4,-4.3805884E-4,1184.828,0.0,0.0,0.0,0.0,0.0,0.0,0.0,0.0,0.0,0.0,0.0,0.0,0.0,7.7340727,0.38116398,-88.88534,-0.003276348,-0.02441417,0.018735439,548060.2,119984.9,0.00794651,0.0061561936,8605.855,8300.701,6637.6343,6569.175,0.2994337,0.0,0.0,0.0
168.41606,168.41606,1.916,0.0,0.0,321.5566,11492.0,100.0,0.0,-1.5592555E-4,0.0,8.0,1.0,0.0,4000000.0,110.0,1.0,0.0,0.0,10.0,0.0,0.0,-601.9758,-2.2133145,435.02844,-0.09759798,0.21241304,0.047920693,326.73352,326.7632,321.45053,321.3696,261.0,261.0,301.0,297.0,89.0,89.0,89.0,89.0,0.0,0.0,0.0,0.0,0.05200282,0.051523745,0.054788645,0.05466332,0.0,0.0,0.0,0.0,-38.100754,107.27496,7.282197,218.30496,0.0,0.0,0.0,2.0,1.0,3.0529597,-0.013139573,-0.004968405,89.0,89.0,89.0,89.0,22.560669,22.560669,25.12438,25.12438,0.016025776,0.016307272,-4.3812874E-4,-4.677861E-4,1185.5823,0.0,0.0,0.0,0.0,0.0,0.0,0.0,0.0,0.0,0.0,0.0,0.0,0.0,7.7928576,0.40268838,-88.979774,-0.004474833,-0.012215358,0.015962036,547788.75,119984.9,0.007661429,0.0064797103,8463.621,8158.6436,6634.622,6590.288,0.2994995,0.0,0.0,0.0
172.88593,172.88593,1.966,0.0,0.0,321.95905,11508.0,100.0,0.0,-0.092025355,0.0,8.0,1.0,0.0,4000000.0,110.0,1.0,0.0,0.0,10.0,0.0,0.0,-601.58484,-2.1922548,430.57663,-0.069003806,0.22986041,0.10575803,327.13492,327.22116,321.80356,321.81305,260.0,260.0,300.0,296.0,89.0,89.0,89.0,89.0,0.0,0.0,0.0,0.0,0.051770587,0.05129403,0.054932263,0.054805875,0.0,0.0,0.0,0.0,888.62915,630.64087,630.15814,226.66005,0.0,0.0,0.0,2.0,1.0,3.0527856,-0.013871367,-0.004894614,89.0,89.0,89.0,89.0,22.560669,22.560669,25.12438,25.12438,0.016133977,0.016344102,-4.536401E-4,-4.7008795E-4,1186.5874,0.0,0.0,0.0,0.0,0.0,0.0,0.0,0.0,0.0,0.0,0.0,0.0,0.0,7.8408613,0.44164884,-89.08759,0.00379103,0.0027438118,0.010291375,547490.9,119984.9,0.008292117,0.007549005,8369.148,8082.376,6821.879,6741.3647,0.30035496,0.0,0.0,0.0
177.36139,177.36139,1.999,0.0,0.0,322.3568,11523.0,100.0,0.0,-0.08482722,0.0,8.0,1.0,0.0,4000000.0,110.0,1.0,0.0,0.0,10.0,0.0,0.0,-601.19196,-2.169686,426.1194,-0.027113354,0.22405215,-0.021240352,327.58545,327.6685,322.18802,322.22717,259.0,259.0,299.0,295.0,89.0,89.0,89.0,89.0,0.0,0.0,0.0,0.0,0.051362462,0.051092997,0.054540668,0.05457707,-6.635561,-5.728304,-9.121075,-5.788877,334.2703,-117.46733,85.89774,-54.489067,0.0,0.0,0.0,2.0,1.0,3.053064,-0.014222049,-0.0051807165,89.0,89.0,89.0,89.0,22.560669,22.560669,25.12438,25.12438,0.016319452,0.016441798,-4.5365831E-4,-4.6056655E-4,1187.459,0.0,0.0,0.0,0.0,0.0,0.0,0.0,0.0,0.0,0.0,0.0,0.0,0.0,7.8710175,0.4506488,-89.19581,0.0033805235,0.0071971165,0.0092991125,547179.8,119984.9,0.010360513,0.009092182,8133.1807,7958.911,6383.5405,6409.698,0.30217743,0.0,0.0,0.0
181.84235,181.84235,2.049,0.0,0.0,322.7471,11537.0,100.0,0.0,-0.044521242,0.0,8.0,1.0,0.0,4000000.0,110.0,1.0,0.0,0.0,10.0,0.0,0.0,-600.798,-2.1474771,421.65674,0.00415044,0.21898638,-0.006009166,327.98843,328.0556,322.57706,322.6217,258.0,258.0,298.0,294.0,89.0,89.0,89.0,89.0,0.0,0.0,0.0,0.0,0.051361457,0.051068798,0.054310948,0.054481935,4.3145566,-0.96246594,-0.1374632,0.23402272,370.70807,-156.64098,380.00192,75.97356,0.0,0.0,0.0,2.0,1.0,3.0534563,-0.0147356605,-0.0052529573,89.0,89.0,89.0,89.0,22.560669,22.560669,25.12438,25.12438,0.016331492,0.016419351,-4.558339E-4,-4.5272493E-4,1188.3054,0.0,0.0,0.0,0.0,0.0,0.0,0.0,0.0,0.0,0.0,0.0,0.0,0.0,7.8824344,0.44113597,-89.30369,-0.001000158,0.007475681,0.011689328,546905.4,119984.9,0.012059516,0.010459361,8112.133,7968.912,6340.9194,6415.8506,0.30378437,0.0,0.0,0.0
186.32872,186.32872,2.099,0.0,0.0,323.13846,11550.0,100.0,0.0,0.027826784,0.0,8.0,1.0,0.0,4000000.0,110.0,1.0,0.0,0.0,10.0,0.0,0.0,-600.40356,-2.1279178,417.18872,0.015135874,0.22693004,0.02207641,328.3723,328.4213,322.97202,322.99686,257.0,256.0,297.0,293.0,89.0,89.0,89.0,89.0,0.0,0.0,0.0,0.0,0.051505253,0.05097664,0.054659232,0.054534487,57.178432,34.014656,36.032795,13.224854,2651.4836,2245.116,1130.1487,648.1289,0.0,0.0,0.0,2.0,1.0,3.0537577,-0.01644032,-0.0053397417,89.0,89.0,89.0,89.0,22.560669,22.560669,25.12438,25.12438,0.016328009,0.01643656,-4.7076365E-4,-4.5584154E-4,1189.076,0.0,0.0,0.0,0.0,0.0,0.0,0.0,0.0,0.0,0.0,0.0,0.0,0.0,7.885125,0.3784479,-89.41287,0.02115022,0.0037816395,0.02281536,546644.06,119984.89,0.008995068,0.008644819,8130.875,7993.435,6842.6714,6719.212,0.30158806,0.0,0.0,0.0
190.82065,190.82065,2.166,0.0,0.0,323.5374,11555.0,100.0,0.0,-0.018651381,0.0,8.0,1.0,0.0,4000000.0,110.0,1.0,0.0,0.0,10.0,0.0,0.0,-600.00916,-2.1057107,412.71512,0.024922628,0.22401847,0.36778575,328.5333,328.5136,323.37994,323.3858,256.0,255.0,295.0,292.0,89.0,89.0,89.0,89.0,0.0,0.0,0.0,0.0,0.05285307,0.05310491,0.055387624,0.055296294,0.0,0.0,0.0,0.0,-1418.097,-2270.798,587.87305,427.9464,0.0,0.0,0.0,2.0,1.0,3.0538392,-0.015881382,-0.006627798,89.0,89.0,89.0,89.0,22.560669,22.560669,25.12438,25.12438,0.015477562,0.015413429,-4.7071453E-4,-4.691317E-4,1189.3881,0.0,0.0,0.0,0.0,0.0,0.0,0.0,0.0,0.0,0.0,0.0,0.0,0.0,7.8820143,0.51978165,-89.52369,0.013505016,0.0011455491,-0.0148610845,546550.94,119984.9,0.0053231884,0.0044067227,8866.645,8928.111,7161.3867,7125.931,0.29792213,0.0,0.0,0.0
195.31793,195.31793,2.216,0.0,0.0,323.9159,11573.0,100.0,0.0,0.090385064,0.0,8.0,1.0,0.0,4000000.0,110.0,1.0,0.0,0.0,10.0,0.0,0.0,-599.61475,-2.0760527,408.23618,-0.0018989369,0.2141257,0.15438265,329.06958,329.02316,323.77774,323.75314,255.0,254.0,294.0,291.0,89.0,89.0,89.0,89.0,0.0,0.0,0.0,0.0,0.0519241,0.052191317,0.0555175,0.055062998,0.0,0.0,0.0,0.0,435.7919,-99.63065,-469.1317,-182.57797,0.0,0.0,0.0,2.0,1.0,3.0537348,-0.015087353,-0.0069098473,89.0,89.0,89.0,89.0,22.560669,22.560669,25.12438,25.12438,0.01585979,0.015799737,-4.6585288E-4,-4.547816E-4,1190.4564,0.0,0.0,0.0,0.0,0.0,0.0,0.0,0.0,0.0,0.0,0.0,0.0,0.0,7.8867626,0.63845617,-89.628044,9.460919E-4,-0.0046264324,-0.019640248,546191.0,119984.9,0.0048670257,0.0047584674,8393.234,8501.916,6977.902,6758.4326,0.29675293,0.0,0.0,0.0
199.8204,199.8204,2.249,0.0,0.0,324.2917,11590.0,100.0,0.0,0.067989886,0.0,8.0,1.0,0.0,4000000.0,110.0,1.0,0.0,0.0,10.0,0.0,0.0,-599.2202,-2.0431874,403.75204,-0.015450349,0.2099536,0.013061974,329.55884,329.48172,324.16095,324.125,254.0,253.0,293.0,289.0,89.0,89.0,89.0,89.0,0.0,0.0,0.0,0.0,0.051311485,0.05171828,0.055282924,0.054661684,-22.39376,-7.375404,-18.405317,-9.915232,-1985.1025,-914.96844,-1978.5714,-633.18896,0.0,0.0,0.0,2.0,1.0,3.0534418,-0.01310857,-0.006930828,89.0,89.0,89.0,89.0,22.560669,22.560669,25.12438,25.12438,0.016193874,0.016058667,-4.5520326E-4,-4.525855E-4,1191.4904,0.0,0.0,0.0,0.0,0.0,0.0,0.0,0.0,0.0,0.0,0.0,0.0,0.0,7.9009857,0.6695627,-89.73136,0.003950249,-0.0058736866,-0.05039746,545863.56,119984.9,0.007051426,0.006798821,8043.7773,8229.74,6710.7417,6473.625,0.29824638,0.0,0.0,0.0
204.32805,204.32805,2.299,0.0,0.0,324.6601,11609.0,100.0,0.0,-0.077659845,0.0,8.0,1.0,0.0,4000000.0,110.0,1.0,0.0,0.0,10.0,0.0,0.0,-598.8247,-2.0116923,399.26276,-0.013118442,0.20825967,-0.24592526,330.11237,330.0526,324.5199,324.50793,253.0,252.0,292.0,288.0,89.0,89.0,89.0,89.0,0.0,0.0,0.0,0.0,0.050155442,0.050583046,0.054459695,0.054076318,-21.490528,-25.545805,-8.278191,-6.6581364,-3.2991025,-224.5412,540.9479,365.78622,0.0,0.0,0.0,2.0,1.0,3.0532134,-0.011398742,-0.006397605,89.0,89.0,89.0,89.0,22.560669,22.560669,25.12438,25.12438,0.01682798,0.016648838,-4.430905E-4,-4.5501412E-4,1192.5963,0.0,0.0,0.0,0.0,0.0,0.0,0.0,0.0,0.0,0.0,0.0,0.0,0.0,7.9191732,0.5800089,-89.833115,-0.009159234,-0.0013900077,-0.023015326,545476.0,119984.91,0.008969496,0.008942614,7510.095,7688.4014,6297.9756,6120.336,0.30078983,0.0,0.0,0.0
208.84056,208.84056,2.366,0.0,0.0,325.0396,11618.0,100.0,0.0,-0.092165746,0.0,8.0,1.0,0.0,4000000.0,110.0,1.0,0.0,0.0,10.0,0.0,0.0,-598.4282,-1.9849643,394.76834,-0.0040444303,0.21572301,-0.06740963,330.32266,330.3073,324.8777,324.9015,251.0,251.0,291.0,287.0,89.0,89.0,89.0,89.0,0.0,0.0,0.0,0.0,0.051014386,0.051300112,0.054639492,0.05430559,0.0,0.0,0.0,0.0,39.66991,-80.37242,-20.143402,143.90047,0.0,0.0,0.0,2.0,1.0,3.053306,-0.010212515,-0.0062834024,89.0,89.0,89.0,89.0,22.560669,22.560669,25.12438,25.12438,0.016365798,0.016239615,-4.5392994E-4,-4.593E-4,1193.1614,0.0,0.0,0.0,0.0,0.0,0.0,0.0,0.0,0.0,0.0,0.0,0.0,0.0,7.9332347,0.5110016,-89.938126,0.005498573,0.004556296,-0.022719307,545311.7,119984.9,0.008052169,0.0075680763,7934.7764,8044.24,6586.062,6440.2764,0.2998333,0.0,0.0,0.0
213.35837,213.35837,2.416,0.0,0.0,325.41403,11627.0,100.0,0.0,-0.08105504,0.0,8.0,1.0,0.0,4000000.0,110.0,1.0,0.0,0.0,10.0,0.0,0.0,-598.0316,-1.9590331,390.26865,0.01454937,0.2087027,0.06500491,330.5914,330.58466,325.24423,325.28595,250.0,250.0,290.0,286.0,89.0,89.0,89.0,89.0,0.0,0.0,0.0,0.0,0.051559966,0.051866617,0.05489187,0.054691914,0.0,0.0,0.0,0.0,-538.2522,-1128.4052,-186.19894,-292.52167,0.0,0.0,0.0,2.0,1.0,3.0536163,-0.009094997,-0.006266713,89.0,89.0,89.0,89.0,22.560669,22.560669,25.12438,25.12438,0.016000181,0.015859308,-4.574856E-4,-4.5572827E-4,1193.6664,0.0,0.0,0.0,0.0,0.0,0.0,0.0,0.0,0.0,0.0,0.0,0.0,0.0,7.9371085,0.5323137,-90.04207,-0.003134834,0.00710804,-0.018765768,545120.25,119984.91,0.007284754,0.006363608,8214.332,8345.293,6730.951,6638.657,0.29887962,0.0,0.0,0.0
217.88113,217.88113,2.449,0.0,0.0,325.77295,11643.0,100.0,0.0,-0.062284015,0.0,8.0,1.0,0.0,4000000.0,110.0,1.0,0.0,0.0,10.0,0.0,0.0,-597.635,-1.9321694,385.76398,0.028698988,0.20139197,-0.044581205,331.02908,331.01935,325.6064,325.6448,249.0,249.0,289.0,285.0,89.0,89.0,89.0,89.0,0.0,0.0,0.0,0.0,0.051131234,0.051378377,0.054800298,0.054678697,-10.53281,-13.24497,-3.2515078,-2.626553,71.45404,-249.64655,-96.25107,-218.78777,0.0,0.0,0.0,2.0,1.0,3.0539503,-0.0082888445,-0.0058683157,89.0,89.0,89.0,89.0,22.560669,22.560669,25.12438,25.12438,0.01620742,0.016072193,-4.5292568E-4,-4.488905E-4,1194.6478,0.0,0.0,0.0,0.0,0.0,0.0,0.0,0.0,0.0,0.0,0.0,0.0,0.0,7.9333315,0.53245044,-90.142494,-0.0059366627,0.0063354596,-0.014921198,544818.7,119984.9,0.007909048,0.0074738786,7993.044,8116.633,6599.2437,6541.0234,0.29968834,0.0,0.0,0.0
222.40909,222.40909,2.499,0.0,0.0,326.12863,11655.0,100.0,0.0,-0.03180414,0.0,8.0,1.0,0.0,4000000.0,110.0,1.0,0.0,0.0,10.0,0.0,0.0,-597.2384,-1.9064403,381.25415,0.032481033,0.20148972,-0.0718365,331.39456,331.3753,325.96637,325.9934,248.0,248.0,288.0,284.0,89.0,89.0,89.0,89.0,0.0,0.0,0.0,0.0,0.051046122,0.051275812,0.0547125,0.054640193,4.3500957,1.3739614,-0.4546344,-1.0094045,501.3182,134.0702,121.34312,-117.95013,0.0,0.0,0.0,2.0,1.0,3.0542204,-0.007599185,-0.005748272,89.0,89.0,89.0,89.0,22.560669,22.560669,25.12438,25.12438,0.016226219,0.01609879,-4.5390456E-4,-4.48409E-4,1195.3286,0.0,0.0,0.0,0.0,0.0,0.0,0.0,0.0,0.0,0.0,0.0,0.0,0.0,7.9260287,0.49821287,-90.242516,0.0027499662,0.0043454105,-0.011203332,544567.94,119984.9,0.008103412,0.007823075,7970.624,8095.451,6574.624,6534.2827,0.29994392,0.0,0.0,0.0
226.94199,226.94199,2.566,0.0,0.0,326.4846,11665.0,100.0,0.0,-0.050153963,0.0,8.0,1.0,0.0,4000000.0,110.0,1.0,0.0,0.0,10.0,0.0,0.0,-596.8422,-1.8817414,376.73932,0.0342328,0.20067643,0.018166054,331.67657,331.65295,326.32483,326.34454,247.0,247.0,287.0,283.0,89.0,89.0,89.0,89.0,0.0,0.0,0.0,0.0,0.05148928,0.051721215,0.054880254,0.05476837,0.0,0.0,0.0,0.0,-82.249916,-291.04648,-39.508938,-154.81708,0.0,0.0,0.0,2.0,1.0,3.054394,-0.0069546946,-0.005905628,89.0,89.0,89.0,89.0,22.560669,22.560669,25.12438,25.12438,0.015977038,0.015855141,-4.5419042E-4,-4.5278404E-4,1195.9237,0.0,0.0,0.0,0.0,0.0,0.0,0.0,0.0,0.0,0.0,0.0,0.0,0.0,7.9179807,0.49623024,-90.34248,0.0038992176,0.0033109235,-0.013961192,544371.94,119984.9,0.007383829,0.006787114,8174.824,8304.515,6714.449,6656.379,0.29907322,0.0,0.0,0.0
231.47975,231.47975,2.616,0.0,0.0,326.83356,11677.0,100.0,0.0,-0.0537485,0.0,8.0,1.0,0.0,4000000.0,110.0,1.0,0.0,0.0,10.0,0.0,0.0,-596.4467,-1.8562348,372.21954,0.030935762,0.19582206,0.036812145,332.0108,331.98438,326.67746,326.69183,246.0,246.0,286.0,282.0,89.0,89.0,89.0,89.0,0.0,0.0,0.0,0.0,0.051574584,0.05179536,0.055008255,0.054859616,0.0,0.0,0.0,0.0,-355.74133,-174.18263,-271.23834,-137.43637,0.0,0.0,0.0,2.0,1.0,3.0545197,-0.006163722,-0.0059132576,89.0,89.0,89.0,89.0,22.560669,22.560669,25.12438,25.12438,0.015891666,0.015774388,-4.5226532E-4,-4.5307848E-4,1196.6449,0.0,0.0,0.0,0.0,0.0,0.0,0.0,0.0,0.0,0.0,0.0,0.0,0.0,7.911423,0.52095205,-90.44023,-7.235799E-4,0.0025054754,-0.019115243,544140.44,119984.89,0.0071462058,0.006495642,8219.136,8349.842,6755.1895,6688.89,0.29887867,0.0,0.0,0.0
236.02226,236.02226,2.649,0.0,0.0,327.17453,11691.0,100.0,0.0,-0.05297903,0.0,8.0,1.0,0.0,4000000.0,110.0,1.0,0.0,0.0,10.0,0.0,0.0,-596.0512,-1.8301132,367.69504,0.028007563,0.1931618,-0.026921028,332.39578,332.36676,327.01767,327.03464,245.0,245.0,285.0,281.0,89.0,89.0,89.0,89.0,0.0,0.0,0.0,0.0,0.05128928,0.051526036,0.054902017,0.05481221,-2.2427735,-3.945529,-1.2932717,-1.8911808,318.72687,359.0807,118.01718,51.431347,0.0,0.0,0.0,2.0,1.0,3.0546474,-0.0054425704,-0.0057963133,89.0,89.0,89.0,89.0,22.560669,22.560669,25.12438,25.12438,0.016013844,0.015884325,-4.5015468E-4,-4.5032185E-4,1197.4943,0.0,0.0,0.0,0.0,0.0,0.0,0.0,0.0,0.0,0.0,0.0,0.0,0.0,7.9057918,0.51813537,-90.53582,-3.7988485E-4,0.0028896749,-0.012545421,543874.6,119984.9,0.0075099044,0.007090489,8092.073,8228.7295,6681.822,6637.2812,0.2993927,0.0,0.0,0.0
240.56958,240.56958,2.716,0.0,0.0,327.51334,11702.0,100.0,0.0,-0.03777284,0.0,8.0,1.0,0.0,4000000.0,110.0,1.0,0.0,0.0,10.0,0.0,0.0,-595.6557,-1.8046087,363.16574,0.025584646,0.1918162,-0.02029432,332.72278,332.69897,327.35632,327.37314,244.0,243.0,284.0,280.0,89.0,89.0,89.0,89.0,0.0,0.0,0.0,0.0,0.051374193,0.05156452,0.054862354,0.0547862,0.0,0.0,0.0,0.0,185.13945,471.197,125.72853,203.09683,0.0,0.0,0.0,2.0,1.0,3.0547876,-0.0048988075,-0.00578928,89.0,89.0,89.0,89.0,22.560669,22.560669,25.12438,25.12438,0.01596692,0.015850268,-4.504921E-4,-4.4874602E-4,1198.1158,0.0,0.0,0.0,0.0,0.0,0.0,0.0,0.0,0.0,0.0,0.0,0.0,0.0,7.901408,0.5039615,-90.63075,0.0014142434,0.0028148505,-0.011300719,543645.44,119984.89,0.0076272166,0.007117465,8124.9253,8245.287,6684.189,6652.008,0.29960728,0.0,0.0,0.0
245.12157,245.12157,2.766,0.0,0.0,327.84833,11713.0,100.0,0.0,-0.07691296,0.0,8.0,1.0,0.0,4000000.0,110.0,1.0,0.0,0.0,10.0,0.0,0.0,-595.2608,-1.7794911,358.6317,0.029948434,0.18867134,0.013805588,333.0304,333.0146,327.6888,327.7102,243.0,242.0,283.0,279.0,89.0,89.0,89.0,89.0,0.0,0.0,0.0,0.0,0.05150784,0.05171178,0.054919418,0.05488503,0.0,0.0,0.0,0.0,-89.840576,216.48106,86.112305,150.28416,0.0,0.0,0.0,2.0,1.0,3.0549452,-0.0043983073,-0.0058056116,89.0,89.0,89.0,89.0,22.560669,22.560669,25.12438,25.12438,0.015873859,0.015761137,-4.4754922E-4,-4.5113047E-4,1198.7633,0.0,0.0,0.0,0.0,0.0,0.0,0.0,0.0,0.0,0.0,0.0,0.0,0.0,7.8960013,0.5037315,-90.72463,0.0016103445,0.0038195504,-0.009754927,543428.4,119984.9,0.007447338,0.0069228536,8190.577,8306.03,6748.745,6736.3555,0.29943562,0.0,0.0,0.0
249.6779,249.6779,2.816,0.0,0.0,328.17856,11724.0,100.0,0.0,-0.050054967,0.0,8.0,1.0,0.0,4000000.0,110.0,1.0,0.0,0.0,10.0,0.0,0.0,-594.8664,-1.7543013,354.09305,0.029026136,0.18615922,0.01884088,333.35257,333.33957,328.01883,328.0403,242.0,241.0,282.0,278.0,89.0,89.0,89.0,89.0,0.0,0.0,0.0,0.0,0.05153158,0.051736407,0.054972213,0.054944348,0.0,0.0,0.0,0.0,-145.09409,109.66211,9.347505,110.39972,0.0,0.0,0.0,2.0,1.0,3.0551314,-0.0039397995,-0.0058202744,89.0,89.0,89.0,89.0,22.560669,22.560669,25.12438,25.12438,0.015831316,0.015730381,-4.4929216E-4,-4.4913142E-4,1199.3923,0.0,0.0,0.0,0.0,0.0,0.0,0.0,0.0,0.0,0.0,0.0,0.0,0.0,7.890136,0.50668633,-90.8172,0.0020183627,0.0036420203,-0.008800844,543203.4,119984.9,0.0071849823,0.006730909,8205.928,8316.328,6781.095,6771.679,0.29917622,0.0,0.0,0.0
254.23807,254.23807,2.849,0.0,0.0,328.50476,11736.0,100.0,0.0,-0.06712265,0.0,8.0,1.0,0.0,4000000.0,110.0,1.0,0.0,0.0,10.0,0.0,0.0,-594.472,-1.7288637,349.54977,0.03067177,0.18369165,-0.0041327146,333.68558,333.67255,328.34692,328.3661,241.0,240.0,281.0,277.0,89.0,89.0,89.0,89.0,0.0,0.0,0.0,0.0,0.051496763,0.051681858,0.05494731,0.054941002,-2.9826162,-3.3172219,0.124722704,0.7145851,-180.02985,-243.10199,136.92674,103.53325,0.0,0.0,0.0,2.0,1.0,3.0552907,-0.003570147,-0.0057940483,89.0,89.0,89.0,89.0,22.560669,22.560669,25.12438,25.12438,0.015825683,0.015732504,-4.464402E-4,-4.49246E-4,1200.1088,0.0,0.0,0.0,0.0,0.0,0.0,0.0,0.0,0.0,0.0,0.0,0.0,0.0,7.883929,0.5087411,-90.90868,-0.0017387948,0.0033364955,-0.0061786175,542972.1,119984.9,0.006936919,0.006644646,8187.5654,8284.85,6743.037,6740.3154,0.29894066,0.0,0.0,0.0
258.80273,258.80273,2.916,0.0,0.0,328.8282,11748.0,100.0,0.0,-0.063315965,0.0,8.0,1.0,0.0,4000000.0,110.0,1.0,0.0,0.0,10.0,0.0,0.0,-594.07776,-1.7035211,345.00192,0.031930525,0.1825352,-0.007862547,334.00485,333.9973,328.66714,328.69147,240.0,239.0,280.0,276.0,89.0,89.0,89.0,89.0,0.0,0.0,0.0,0.0,0.05148395,0.05165757,0.05498799,0.05501518,0.0,0.0,0.0,0.0,-141.40604,-175.87242,-106.06794,-44.216213,0.0,0.0,0.0,2.0,1.0,3.0554807,-0.003215044,-0.0057274103,89.0,89.0,89.0,89.0,22.560669,22.560669,25.12438,25.12438,0.01581106,0.015721485,-4.4774383E-4,-4.4888887E-4,1200.8407,0.0,0.0,0.0,0.0,0.0,0.0,0.0,0.0,0.0,0.0,0.0,0.0,0.0,7.8762307,0.5056488,-90.99955,4.7691865E-4,0.004158668,-0.006198422,542748.3,119984.9,0.0063754655,0.006327351,8187.752,8276.367,6775.9487,6792.616,0.2984295,0.0,0.0,0.0
263.37177,263.37177,2.966,0.0,0.0,329.14914,11757.0,100.0,0.0,-0.0477601,0.0,8.0,1.0,0.0,4000000.0,110.0,1.0,0.0,0.0,10.0,0.0,0.0,-593.68445,-1.6777104,340.4496,0.03235354,0.18022363,0.06979604,334.2687,334.26193,328.98807,329.01068,239.0,238.0,279.0,275.0,89.0,89.0,89.0,89.0,0.0,0.0,0.0,0.0,0.05188284,0.052024875,0.055173095,0.05520143,0.0,0.0,0.0,0.0,-1514.5627,-1170.0599,-930.40454,-628.81696,0.0,0.0,0.0,2.0,1.0,3.0556831,-0.0028335478,-0.0059041977,89.0,89.0,89.0,89.0,22.560669,22.560669,25.12438,25.12438,0.015621251,0.015540415,-4.4953884E-4,-4.4949134E-4,1201.3596,0.0,0.0,0.0,0.0,0.0,0.0,0.0,0.0,0.0,0.0,0.0,0.0,0.0,7.8680897,0.5328652,-91.089584,0.0047724596,0.0038414113,-0.008486404,542567.2,119984.9,0.006186794,0.0058228225,8349.713,8436.843,6866.093,6889.212,0.29809666,0.0,0.0,0.0
267.94522,267.94522,2.999,0.0,0.0,329.46103,11771.0,100.0,0.0,-0.02723062,0.0,8.0,1.0,0.0,4000000.0,110.0,1.0,0.0,0.0,10.0,0.0,0.0,-593.29114,-1.6510383,335.89276,0.028439138,0.17526731,-0.056311592,334.66714,334.65775,329.30618,329.32117,238.0,237.0,278.0,274.0,89.0,89.0,89.0,89.0,0.0,0.0,0.0,0.0,0.0513381,0.05145724,0.054924265,0.054979436,-13.9077,-16.034916,-1.6488879,-3.6942956,-136.12209,-252.51663,272.20395,78.40096,0.0,0.0,0.0,2.0,1.0,3.0558362,-0.0026355516,-0.005739808,89.0,89.0,89.0,89.0,22.560669,22.560669,25.12438,25.12438,0.01584951,0.015783332,-4.44882E-4,-4.4330183E-4,1202.1989,0.0,0.0,0.0,0.0,0.0,0.0,0.0,0.0,0.0,0.0,0.0,0.0,0.0,7.861071,0.5248321,-91.17719,-0.0040721423,0.0024061806,-0.0018892456,542300.44,119984.914,0.0070497226,0.006671337,8093.8594,8164.323,6706.5713,6719.8237,0.29880142,0.0,0.0,0.0
272.52295,272.52295,3.049,0.0,0.0,329.77188,11782.0,100.0,0.0,-0.069288984,0.0,8.0,1.0,0.0,4000000.0,110.0,1.0,0.0,0.0,10.0,0.0,0.0,-592.898,-1.6257087,331.3316,0.030944072,0.17472808,-0.07595504,334.98178,334.97824,329.61688,329.63412,237.0,236.0,277.0,273.0,89.0,89.0,89.0,89.0,0.0,0.0,0.0,0.0,0.051313292,0.05139259,0.05471244,0.054825906,-1.9508599,-1.5757977,-4.836246,-2.2405384,-271.31882,-192.67647,-112.98804,-4.7877355,0.0,0.0,0.0,2.0,1.0,3.0559614,-0.002546849,-0.005509734,89.0,89.0,89.0,89.0,22.560669,22.560669,25.12438,25.12438,0.015855841,0.015795121,-4.3952218E-4,-4.4487213E-4,1202.8461,0.0,0.0,0.0,0.0,0.0,0.0,0.0,0.0,0.0,0.0,0.0,0.0,0.0,7.8542137,0.49000847,-91.26465,-0.005883218,0.0031113573,-0.0011644962,542085.8,119984.89,0.00830453,0.0074054673,8092.4375,8145.5615,6551.4116,6614.294,0.2996559,0.0,0.0,0.0
277.10492,277.10492,3.116,0.0,0.0,330.0755,11792.0,100.0,0.0,-0.06556806,0.0,8.0,1.0,0.0,4000000.0,110.0,1.0,0.0,0.0,10.0,0.0,0.0,-592.5058,-1.602143,326.7661,0.031396326,0.16958377,-0.06262256,335.27698,335.2829,329.91696,329.94083,236.0,235.0,276.0,272.0,89.0,89.0,89.0,89.0,0.0,0.0,0.0,0.0,0.051338628,0.05137451,0.05470766,0.054863308,0.0,0.0,0.0,0.0,-320.30936,-118.44633,96.49246,75.43712,0.0,0.0,0.0,2.0,1.0,3.0561497,-0.002676545,-0.0052045584,89.0,89.0,89.0,89.0,22.560669,22.560669,25.12438,25.12438,0.015832774,0.015784351,-4.3922715E-4,-4.422859E-4,1203.4161,0.0,0.0,0.0,0.0,0.0,0.0,0.0,0.0,0.0,0.0,0.0,0.0,0.0,7.846607,0.45668027,-91.35013,-0.0020640856,0.004121532,0.0038344688,541882.8,119984.9,0.009079159,0.008340451,8109.0273,8143.8896,6628.771,6698.454,0.30082893,0.0,0.0,0.0
281.69107,281.69107,3.166,0.0,0.0,330.37863,11801.0,100.0,0.0,-0.036161404,0.0,8.0,1.0,0.0,4000000.0,110.0,1.0,0.0,0.0,10.0,0.0,0.0,-592.1136,-1.5809457,322.19638,0.030252438,0.17314765,0.012089989,335.52164,335.52994,330.21777,330.2377,235.0,234.0,275.0,271.0,89.0,89.0,89.0,89.0,0.0,0.0,0.0,0.0,0.051708993,0.051673517,0.054967947,0.055009015,0.0,0.0,0.0,0.0,752.4534,946.21625,427.94647,372.0894,0.0,0.0,0.0,2.0,1.0,3.0563407,-0.003139853,-0.0052593946,89.0,89.0,89.0,89.0,22.560669,22.560669,25.12438,25.12438,0.015663287,0.015639538,-4.4864893E-4,-4.4663707E-4,1203.9623,0.0,0.0,0.0,0.0,0.0,0.0,0.0,0.0,0.0,0.0,0.0,0.0,0.0,7.839076,0.4155737,-91.43548,0.01173401,0.0032386323,0.005124008,541715.25,119984.89,0.007242253,0.006910493,8276.405,8293.734,6925.876,6928.6914,0.29933548,0.0,0.0,0.0
286.28146,286.28146,3.199,0.0,0.0,330.68152,11807.0,100.0,0.0,-0.05023588,0.0,8.0,1.0,0.0,4000000.0,110.0,1.0,0.0,0.0,10.0,0.0,0.0,-591.72186,-1.5583054,317.62234,0.033843428,0.1686691,0.19569625,335.69858,335.6945,330.52054,330.5429,234.0,233.0,274.0,270.0,89.0,89.0,89.0,89.0,0.0,0.0,0.0,0.0,0.052521292,0.052668452,0.05534915,0.055432927,-3.1406431,-0.40747222,3.279224,4.323944,-1759.3546,-1871.0686,-184.0934,-312.07498,0.0,0.0,0.0,2.0,1.0,3.0565178,-0.0030038008,-0.005792141,89.0,89.0,89.0,89.0,22.560669,22.560669,25.12438,25.12438,0.015223793,0.01515418,-4.4926623E-4,-4.4946643E-4,1204.312,0.0,0.0,0.0,0.0,0.0,0.0,0.0,0.0,0.0,0.0,0.0,0.0,0.0,7.829358,0.49558643,-91.52036,0.0017954132,0.0037599867,-0.002766408,541597.25,119984.89,0.0059255543,0.005016312,8678.496,8753.62,7050.1167,7087.7866,0.29762745,0.0,0.0,0.0
290.8758,290.8758,3.249,0.0,0.0,330.96814,11822.0,100.0,0.0,-0.041064717,0.0,8.0,1.0,0.0,4000000.0,110.0,1.0,0.0,0.0,10.0,0.0,0.0,-591.33075,-1.5321839,313.04422,0.029848032,0.16081914,0.0017245397,336.11435,336.10382,330.8146,330.8271,233.0,232.0,273.0,269.0,89.0,89.0,89.0,89.0,0.0,0.0,0.0,0.0,0.051701378,0.051804893,0.055248823,0.055268988,-19.224285,-18.459631,-4.5789776,-5.0584226,-193.77615,21.05541,-214.06708,-90.7123,0.0,0.0,0.0,2.0,1.0,3.0566459,-0.0029102203,-0.0056283474,89.0,89.0,89.0,89.0,22.560669,22.560669,25.12438,25.12438,0.015575955,0.015512717,-4.4097356E-4,-4.4211387E-4,1205.2272,0.0,0.0,0.0,0.0,0.0,0.0,0.0,0.0,0.0,0.0,0.0,0.0,0.0,7.8219705,0.53119534,-91.6007,-0.0024068803,0.0021015827,-0.004002031,541321.1,119984.9,0.006368053,0.006396403,8270.508,8341.612,6878.9277,6887.6357,0.29841805,0.0,0.0,0.0
295.47415,295.47415,3.316,0.0,0.0,331.25632,11831.0,100.0,0.0,-0.031869274,0.0,8.0,1.0,0.0,4000000.0,110.0,1.0,0.0,0.0,10.0,0.0,0.0,-590.93964,-1.5057136,308.46204,0.026805691,0.16364671,0.016413085,336.37573,336.36542,331.0998,331.1126,232.0,231.0,272.0,268.0,89.0,89.0,89.0,89.0,0.0,0.0,0.0,0.0,0.051772162,0.051933825,0.055247203,0.055248465,0.0,0.0,0.0,0.0,-700.6331,141.86205,-812.9238,-205.16214,0.0,0.0,0.0,2.0,1.0,3.0567524,-0.0024555556,-0.005930543,89.0,89.0,89.0,89.0,22.560669,22.560669,25.12438,25.12438,0.015523166,0.015454218,-4.4369913E-4,-4.4453464E-4,1205.7489,0.0,0.0,0.0,0.0,0.0,0.0,0.0,0.0,0.0,0.0,0.0,0.0,0.0,7.8154726,0.5332013,-91.68158,0.011884993,0.0022752322,-0.012400536,541143.5,119984.9,0.0063914456,0.0062561757,8327.665,8410.373,6888.019,6912.241,0.29851627,0.0,0.0,0.0
300.07806,300.07806,3.366,0.0,0.0,331.54388,11841.0,100.0,0.0,-0.041415,0.0,8.0,1.0,0.0,4000000.0,110.0,1.0,0.0,0.0,10.0,0.0,0.0,-590.5489,-1.4787294,303.87582,0.025115661,0.16211721,0.02526623,336.65344,336.6449,331.38687,331.40314,231.0,230.0,271.0,267.0,89.0,89.0,89.0,89.0,0.0,0.0,0.0,0.0,0.05178914,0.05194868,0.05516408,0.055208255,0.0,0.0,0.0,0.0,-175.10799,-129.49704,204.80005,35.63314,0.0,0.0,0.0,2.0,1.0,3.056877,-0.0022043819,-0.006191373,89.0,89.0,89.0,89.0,22.560669,22.560669,25.12438,25.12438,0.015474148,0.015400615,-4.4363618E-4,-4.4373397E-4,1206.3478,0.0,0.0,0.0,0.0,0.0,0.0,0.0,0.0,0.0,0.0,0.0,0.0,0.0,7.809619,0.5455975,-91.76218,0.0021651217,0.0027212133,-1.11398345E-4,540955.0,119984.89,0.006269722,0.005694516,8347.738,8438.22,6894.0933,6902.422,0.29800606,0.0,0.0,0.0
304.6863,304.6863,3.416,0.0,0.0,331.82687,11852.0,100.0,0.0,-0.0328237,0.0,8.0,1.0,0.0,4000000.0,110.0,1.0,0.0,0.0,10.0,0.0,0.0,-590.1589,-1.4511344,299.2856,0.023580974,0.15857458,-0.017565101,336.95807,336.95804,331.67395,331.688,230.0,229.0,270.0,266.0,89.0,89.0,89.0,89.0,0.0,0.0,0.0,0.0,0.051723648,0.051794883,0.054989915,0.055075888,0.0,0.0,0.0,0.0,-294.6138,-246.37428,-443.03384,-162.63573,0.0,0.0,0.0,2.0,1.0,3.0570004,-0.0020958937,-0.006078601,89.0,89.0,89.0,89.0,22.560669,22.560669,25.12438,25.12438,0.015503703,0.015462847,-4.383043E-4,-4.3985673E-4,1207.0037,0.0,0.0,0.0,0.0,0.0,0.0,0.0,0.0,0.0,0.0,0.0,0.0,0.0,7.8047743,0.5520344,-91.841446,-0.0080361385,0.0024133523,-0.0019657242,540746.8,119984.9,0.007576873,0.006389059,8303.165,8345.139,6682.845,6742.9854,0.2988367,0.0,0.0,0.0
309.29843,309.29843,3.449,0.0,0.0,332.09933,11864.0,100.0,0.0,-0.029296009,0.0,8.0,1.0,0.0,4000000.0,110.0,1.0,0.0,0.0,10.0,0.0,0.0,-589.76886,-1.424373,294.6915,0.024307474,0.15245959,-0.11768386,337.30356,337.31625,331.9442,331.9653,229.0,228.0,269.0,265.0,89.0,89.0,89.0,89.0,0.0,0.0,0.0,0.0,0.051266395,0.051275276,0.05469533,0.054935273,-9.178742,-9.521841,-4.5137105,-2.075359,181.81348,196.06949,44.766052,33.192326,0.0,0.0,0.0,2.0,1.0,3.057163,-0.0022797273,-0.0055663586,89.0,89.0,89.0,89.0,22.560669,22.560669,25.12438,25.12438,0.01573469,0.015710589,-4.3371477E-4,-4.3369315E-4,1207.6974,0.0,0.0,0.0,0.0,0.0,0.0,0.0,0.0,0.0,0.0,0.0,0.0,0.0,7.798529,0.51224166,-91.91817,-0.007302647,0.0034874198,0.009234189,540510.3,119984.9,0.009487595,0.008633882,8080.8203,8093.1104,6553.4956,6670.4546,0.30126667,0.0,0.0,0.0
313.91434,313.91434,3.499,0.0,0.0,332.3748,11872.0,100.0,0.0,-0.041297294,0.0,8.0,1.0,0.0,4000000.0,110.0,1.0,0.0,0.0,10.0,0.0,0.0,-589.37885,-1.4015126,290.09357,0.026866745,0.15881842,-0.05484563,337.52588,337.54852,332.2149,332.23325,228.0,227.0,268.0,264.0,89.0,89.0,89.0,89.0,0.0,0.0,0.0,0.0,0.051599383,0.051444005,0.054897003,0.05498625,34.36625,31.138657,19.27234,11.684819,1436.2692,1733.7797,450.61102,459.1539,0.0,0.0,0.0,2.0,1.0,3.0573256,-0.0032201828,-0.005510211,89.0,89.0,89.0,89.0,22.560669,22.560669,25.12438,25.12438,0.015609774,0.015629057,-4.4282095E-4,-4.4277147E-4,1208.1652,0.0,0.0,0.0,0.0,0.0,0.0,0.0,0.0,0.0,0.0,0.0,0.0,0.0,7.792642,0.431615,-91.995865,0.013855835,0.0030489916,0.013510782,540355.3,119984.9,0.007673809,0.007462032,8231.71,8197.253,6896.5576,6918.6494,0.29976177,0.0,0.0,0.0
