LapDistance [m],TotalDistance [m],LapTime [s],Sector1Time [s],Sector2Time [s],Speed [km/h],EngineRevs [rpm],ThrottlePercentage [%],BrakePercentage [%],Steer [%],Clutch [%],Gear [int],DRS [0/1],CanUseDRS [0/1],KERSLevel [J],EngineTemperature [C],RacePosition [int],Sector [int],InPits [int],FuelRemaining [kg],CurrentFlag [int],CurrentLapInvalid [int],X [m],Y [m],Z [m],GForceLatitudinal [G],GForceLongitudinal [G],GForceVertical [G],WheelSpeedRearLeft [km/h],WheelSpeedRearRight [km/h],WheelSpeedFrontLeft [km/h],WheelSpeedFrontRight [km/h],BrakeTemperatureRearLeft [C],BrakeTemperatureRearRight [C],BrakeTemperatureFrontLeft [C],BrakeTemperatureFrontRight [C],TyreTemperatureRearLeft [C],TyreTemperatureRearRight [C],TyreTemperatureFrontLeft [C],TyreTemperatureFrontRight [C],TyreWearRearLeft [%],TyreWearRearRight [%],TyreWearFrontLeft [%],TyreWearFrontRight [%],SuspensionPositionRearLeft [m],SuspensionPositionRearRight [m],SuspensionPositionFrontLeft [m],SuspensionPositionFrontRight [m],SuspensionVelocityRearLeft [m/s],SuspensionVelocityRearRight [m/s],SuspensionVelocityFrontLeft [m/s],SuspensionVelocityFrontRight [m/s],SuspensionAccelerationRearLeft [m/s^2],SuspensionAccelerationRearRight [m/s^2],SuspensionAccelerationFrontLeft [m/s^2],SuspensionAccelerationFrontRight [m/s^2],MGUKHarvested [J],MGUHHarvested [J],ERSSpent [J],ERSMode [int],FuelMixMode [int],Yaw [rad],Roll [rad],Pitch [rad],TyreCarcassTemperatureRearLeft [C],TyreCarcassTemperatureRearRight [C],TyreCarcassTemperatureFrontLeft [C],TyreCarcassTemperatureFrontRight [C],TyrePressureRearLeft [PSI],TyrePressureRearRight [PSI],TyrePressureFrontLeft [PSI],TyrePressureFrontRight [PSI],WheelSlipRearLeft [%],WheelSlipRearRight [%],WheelSlipFrontLeft [%],WheelSlipFrontRight [%],Torque [Nm],Handbrake [%],RearLeftInside [C],RearLeftMiddle [C],RearLeftOutside [C],RearRightInside [C],RearRightMiddle [C],RearRightOutside [C],FrontLeftInside [C],FrontLeftMiddle [C],FrontLeftOutside [C],FrontRightInside [C],FrontRightMiddle [C],FrontRightOutside [C],WoldSpeedX [km/h],WoldSpeedY [km/h],WoldSpeedZ [km/h],LocalAngularVelocityX [rad/s],LocalAngularVelocityY [rad/s],LocalAngularVelocityZ [rad/s],IcePower [W],MgukPower [W],FrontRideHeight [m],RearRideHeight [m],LoadRearLeft [N],LoadRearRight [N],LoadFrontLeft [N],LoadFrontRight [N],Extra1 [m],Extra2 [],Extra3 [],Extra4 []
1.406569,1.406569,0.016,0.0,0.0,311.37646,11197.0,100.0,0.0,0.15641709,0.0,8.0,0.0,0.0,4000000.0,110.0,1.0,0.0,0.0,10.0,0.0,0.0,-620.7484,-3.0613596,600.8763,-0.109142624,0.21429336,-0.11427127,316.70734,316.75027,311.27597,311.20612,337.0,336.0,396.0,393.0,89.0,89.0,89.0,89.0,0.0,0.0,0.0,0.0,0.051189266,0.05071763,0.05349,0.053231053,0.0,0.0,0.0,0.0,303.07614,418.80005,87.909386,109.072014,0.0,0.0,0.0,2.0,1.0,3.0545082,-0.008634669,-0.0051077604,89.0,89.0,89.0,89.0,22.560669,22.560669,25.12438,25.12438,0.017069316,0.017388418,-4.299218E-4,-4.3431678E-4,1159.533,0.0,0.0,0.0,0.0,0.0,0.0,0.0,0.0,0.0,0.0,0.0,0.0,0.0,7.427119,0.3545859,-86.17326,-0.009415954,-0.011527384,0.011212583,549868.0,119984.9,0.010955476,0.008253567,8090.4004,7810.6816,5901.138,5788.74,0.3057022,0.0,0.0,0.0
5.7509046,5.7509046,0.066,0.0,0.0,311.75623,11207.0,100.0,0.0,0.152651,0.0,8.0,0.0,0.0,4000000.0,110.0,1.0,0.0,0.0,10.0,0.0,0.0,-620.3755,-3.0444221,596.565,-0.10131736,0.21466692,0.006479827,316.98566,317.02332,311.6472,311.58826,335.0,335.0,395.0,391.0,89.0,89.0,89.0,89.0,0.0,0.0,0.0,0.0,0.051791083,0.051380973,0.053726383,0.05349176,0.0,0.0,0.0,0.0,-969.3904,-437.69626,-260.8984,18.96323,0.0,0.0,0.0,2.0,1.0,3.0539894,-0.009096907,-0.0051978827,89.0,89.0,89.0,89.0,22.560669,22.560669,25.12438,25.12438,0.016757865,0.017034013,-4.3450348E-4,-4.3697658E-4,1160.5907,0.0,0.0,0.0,0.0,0.0,0.0,0.0,0.0,0.0,0.0,0.0,0.0,0.0,7.48767,0.33593872,-86.27399,0.007897502,-0.009578689,0.007520601,549878.5,119984.91,0.010418941,0.0077063194,8364.433,8095.572,6097.568,6003.986,0.30553722,0.0,0.0,0.0
10.100485,10.100485,0.116,0.0,0.0,312.12958,11218.0,100.0,0.0,0.16310848,0.0,8.0,0.0,0.0,4000000.0,110.0,1.0,0.0,0.0,10.0,0.0,0.0,-619.9997,-3.0269694,592.2487,-0.09389928,0.21033159,0.09623216,317.28955,317.31473,312.01727,311.96396,334.0,333.0,393.0,390.0,89.0,89.0,89.0,89.0,0.0,0.0,0.0,0.0,0.052174043,0.05182991,0.054000817,0.053724125,0.0,0.0,0.0,0.0,-470.90198,-156.45326,-58.32464,-13.424462,0.0,0.0,0.0,2.0,1.0,3.0535476,-0.009502696,-0.005653143,89.0,89.0,89.0,89.0,22.560669,22.560669,25.12438,25.12438,0.016501939,0.016725503,-4.3779062E-4,-4.3449964E-4,1161.7537,0.0,0.0,0.0,0.0,0.0,0.0,0.0,0.0,0.0,0.0,0.0,0.0,0.0,7.5431275,0.36837372,-86.37312,0.008852289,-0.008897427,0.0075694667,549889.75,119984.91,0.009137016,0.0063710883,8574.878,8349.346,6280.6816,6153.6963,0.30421448,0.0,0.0,0.0
14.455211,14.455211,0.166,0.0,0.0,312.497,11230.0,100.0,0.0,0.09395292,0.0,8.0,0.0,0.0,4000000.0,110.0,1.0,0.0,0.0,10.0,0.0,0.0,-619.6212,-3.0071805,587.92755,-0.07884144,0.2068543,0.12066588,317.6463,317.66467,312.38065,312.33725,332.0,332.0,392.0,388.0,89.0,89.0,89.0,89.0,0.0,0.0,0.0,0.0,0.052218802,0.05194657,0.054141756,0.053830527,0.0,0.0,0.0,0.0,-185.67589,-78.85694,121.85273,129.17517,0.0,0.0,0.0,2.0,1.0,3.053148,-0.009643082,-0.005982995,89.0,89.0,89.0,89.0,22.560669,22.560669,25.12438,25.12438,0.016446749,0.016619686,-4.3332353E-4,-4.3647792E-4,1163.0247,0.0,0.0,0.0,0.0,0.0,0.0,0.0,0.0,0.0,0.0,0.0,0.0,0.0,7.592402,0.42233598,-86.471016,0.004857936,-0.006940418,-6.193916E-4,549903.1,119984.9,0.008684011,0.0057418696,8612.847,8426.971,6349.878,6207.4565,0.3035555,0.0,0.0,0.0
18.815048,18.815048,0.216,0.0,0.0,312.85654,11246.0,100.0,0.0,0.08371517,0.0,8.0,0.0,0.0,4000000.0,110.0,1.0,0.0,0.0,10.0,0.0,0.0,-619.2404,-2.9853306,583.6014,-0.06840494,0.20250799,-0.0032858558,318.08255,318.10297,312.73703,312.7043,331.0,330.0,390.0,387.0,89.0,89.0,89.0,89.0,0.0,0.0,0.0,0.0,0.051751964,0.051524803,0.0538877,0.05362008,0.0,0.0,0.0,0.0,-3.2186506,-86.09893,159.95352,59.089077,0.0,0.0,0.0,2.0,1.0,3.0528452,-0.009601473,-0.0059781075,89.0,89.0,89.0,89.0,22.560669,22.560669,25.12438,25.12438,0.016679684,0.016828062,-4.30182E-4,-4.3149904E-4,1164.7164,0.0,0.0,0.0,0.0,0.0,0.0,0.0,0.0,0.0,0.0,0.0,0.0,0.0,7.636297,0.44064364,-86.56732,-0.0032179982,-0.0053238748,-0.001334987,549919.5,119984.9,0.009665324,0.006725299,8356.879,8205.758,6094.283,5970.4717,0.30451393,0.0,0.0,0.0
23.17976,23.17976,0.266,0.0,0.0,313.21317,11259.0,100.0,0.0,0.07099912,0.0,8.0,0.0,0.0,4000000.0,110.0,1.0,0.0,0.0,10.0,0.0,0.0,-618.85754,-2.9639144,579.27057,-0.05537776,0.20225123,-0.05926912,318.4728,318.49475,313.0868,313.06686,329.0,329.0,389.0,385.0,89.0,89.0,89.0,89.0,0.0,0.0,0.0,0.0,0.051467378,0.05130217,0.05370107,0.05349352,0.0,0.0,0.0,0.0,364.834,318.0429,125.205505,100.77057,0.0,0.0,0.0,2.0,1.0,3.0526447,-0.009534657,-0.0059034824,89.0,89.0,89.0,89.0,22.560669,22.560669,25.12438,25.12438,0.01681068,0.016926534,-4.3099545E-4,-4.293315E-4,1166.0939,0.0,0.0,0.0,0.0,0.0,0.0,0.0,0.0,0.0,0.0,0.0,0.0,0.0,7.6736674,0.415296,-86.6636,7.959576E-4,-0.0032650398,-1.3936906E-4,549934.2,119984.9,0.010171803,0.007398429,8233.163,8118.129,6008.9443,5918.788,0.30508804,0.0,0.0,0.0
27.549433,27.549433,0.316,0.0,0.0,313.5699,11270.0,100.0,0.0,0.09263963,0.0,8.0,0.0,0.0,4000000.0,110.0,1.0,0.0,0.0,10.0,0.0,0.0,-618.4729,-2.9435024,574.9348,-0.049412712,0.20156668,0.009815854,318.77844,318.79102,313.44534,313.41992,328.0,327.0,388.0,384.0,89.0,89.0,89.0,89.0,0.0,0.0,0.0,0.0,0.051815253,0.05165972,0.053804632,0.053582273,0.0,0.0,0.0,0.0,-11.104344,3.9294431,49.419704,56.581196,0.0,0.0,0.0,2.0,1.0,3.0524607,-0.009524607,-0.006039381,89.0,89.0,89.0,89.0,22.560669,22.560669,25.12438,25.12438,0.016623884,0.01673241,-4.332494E-4,-4.2986596E-4,1167.2574,0.0,0.0,0.0,0.0,0.0,0.0,0.0,0.0,0.0,0.0,0.0,0.0,0.0,7.707552,0.4078454,-86.7601,0.0032731255,-0.0042891223,-6.726971E-4,549945.6,119984.9,0.00968146,0.006691821,8387.574,8282.815,6127.152,6026.375,0.30452633,0.0,0.0,0.0
31.924019,31.924019,0.366,0.0,0.0,313.92133,11282.0,100.0,0.0,0.116990715,0.0,8.0,0.0,0.0,4000000.0,110.0,1.0,0.0,0.0,10.0,0.0,0.0,-618.0867,-2.9226756,570.5943,-0.050116155,0.19789287,0.043906353,319.11258,319.11368,313.80246,313.7663,327.0,326.0,386.0,383.0,89.0,89.0,89.0,89.0,0.0,0.0,0.0,0.0,0.05192952,0.051797897,0.053951785,0.053690787,0.0,0.0,0.0,0.0,-105.23646,-60.296047,-8.167318,5.216896,0.0,0.0,0.0,2.0,1.0,3.0521948,-0.00948255,-0.0061221123,89.0,89.0,89.0,89.0,22.560669,22.560669,25.12438,25.12438,0.016521445,0.016624913,-4.3347428E-4,-4.286512E-4,1168.5266,0.0,0.0,0.0,0.0,0.0,0.0,0.0,0.0,0.0,0.0,0.0,0.0,0.0,7.7402873,0.42624474,-86.85511,0.001038087,-0.006195926,-0.001959123,549958.0,119984.9,0.009196556,0.0062033213,8455.295,8365.84,6214.958,6094.2266,0.30407906,0.0,0.0,0.0
36.303486,36.303486,0.416,0.0,0.0,314.26654,11295.0,100.0,0.0,0.11480846,0.0,8.0,0.0,0.0,4000000.0,110.0,1.0,0.0,0.0,10.0,0.0,0.0,-617.6987,-2.9010081,566.2491,-0.05306209,0.19507088,0.0050043203,319.48358,319.47858,314.15106,314.10934,325.0,325.0,385.0,381.0,89.0,89.0,89.0,89.0,0.0,0.0,0.0,0.0,0.05177444,0.051681355,0.053934228,0.053661995,0.0,0.0,0.0,0.0,117.78919,119.84109,91.66448,86.4744,0.0,0.0,0.0,2.0,1.0,3.0518603,-0.009295851,-0.006126404,89.0,89.0,89.0,89.0,22.560669,22.560669,25.12438,25.12438,0.016574495,0.016671417,-4.3070575E-4,-4.2818536E-4,1169.9025,0.0,0.0,0.0,0.0,0.0,0.0,0.0,0.0,0.0,0.0,0.0,0.0,0.0,7.773959,0.4359779,-86.94833,-3.5213694E-4,-0.0070571946,-0.0034998534,549971.8,119984.91,0.009165768,0.0063177696,8382.598,8306.428,6167.07,6044.4053,0.30408287,0.0,0.0,0.0
40.678627,40.678627,0.466,0.0,0.0,314.60904,11307.0,100.0,0.0,0.113098815,0.0,8.0,0.0,0.0,4000000.0,110.0,1.0,0.0,0.0,10.0,0.0,0.0,-617.30914,-2.8792856,561.89923,-0.057121456,0.19345318,-0.011906374,319.83426,319.83044,314.49466,314.45093,324.0,323.0,383.0,380.0,89.0,89.0,89.0,89.0,0.0,0.0,0.0,0.0,0.05172596,0.05162193,0.05390692,0.0536167,0.0,0.0,0.0,0.0,18.681583,105.182816,-30.764935,56.33979,0.0,0.0,0.0,2.0,1.0,3.0514965,-0.009095674,-0.006096363,89.0,89.0,89.0,89.0,22.560669,22.560669,25.12438,25.12438,0.01658382,0.016688624,-4.2937425E-4,-4.2793172E-4,1171.1736,0.0,0.0,0.0,0.0,0.0,0.0,0.0,0.0,0.0,0.0,0.0,0.0,0.0,7.809857,0.43228826,-87.04066,-4.528106E-4,-0.0073292176,-0.00399513,549985.06,119984.91,0.00917943,0.0063457615,8359.314,8275.893,6146.562,6018.9043,0.30404472,0.0,0.0,0.0
45.051582,45.051582,0.516,0.0,0.0,314.9485,11319.0,100.0,0.0,0.11224399,0.0,8.0,0.0,0.0,4000000.0,110.0,1.0,0.0,0.0,10.0,0.0,0.0,-616.9176,-2.857805,557.5448,-0.06076064,0.19137245,0.014489774,320.1579,320.15686,314.83383,314.79044,322.0,322.0,382.0,378.0,89.0,89.0,89.0,89.0,0.0,0.0,0.0,0.0,0.051865567,0.051698886,0.053984202,0.053648803,0.0,0.0,0.0,0.0,422.90384,286.15146,257.9346,129.01424,0.0,0.0,0.0,2.0,1.0,3.05113,-0.008868929,-0.006052375,89.0,89.0,89.0,89.0,22.560669,22.560669,25.12438,25.12438,0.016513707,0.016633544,-4.289694E-4,-4.2728023E-4,1172.4426,0.0,0.0,0.0,0.0,0.0,0.0,0.0,0.0,0.0,0.0,0.0,0.0,0.0,7.8474507,0.43045518,-87.13196,0.0012400893,-0.0072496217,-0.0067901444,549997.3,119984.914,0.009091803,0.0062676123,8429.434,8317.349,6250.051,6087.468,0.30396748,0.0,0.0,0.0
49.429142,49.429142,0.566,0.0,0.0,315.2824,11331.0,100.0,0.0,0.12663803,0.0,8.0,0.0,0.0,4000000.0,110.0,1.0,0.0,0.0,10.0,0.0,0.0,-616.52423,-2.8362644,553.1858,-0.06338808,0.18794972,-0.019095687,320.50635,320.5044,315.1683,315.12448,321.0,320.0,380.0,377.0,89.0,89.0,89.0,89.0,0.0,0.0,0.0,0.0,0.051727287,0.051641084,0.053911515,0.053648025,0.0,0.0,0.0,0.0,-126.26498,-256.25824,42.043617,-35.794075,0.0,0.0,0.0,2.0,1.0,3.050767,-0.008591047,-0.006026149,89.0,89.0,89.0,89.0,22.560669,22.560669,25.12438,25.12438,0.016546143,0.016653933,-4.282499E-4,-4.2508342E-4,1173.7136,0.0,0.0,0.0,0.0,0.0,0.0,0.0,0.0,0.0,0.0,0.0,0.0,0.0,7.886022,0.4283312,-87.22163,-9.688662E-4,-0.0074227424,-9.4231224E-4,550010.44,119984.9,0.00928525,0.0063782334,8355.094,8271.873,6147.3066,6029.3936,0.3041067,0.0,0.0,0.0
53.811295,53.811295,0.616,0.0,0.0,315.61304,11342.0,100.0,0.0,0.122663446,0.0,8.0,0.0,0.0,4000000.0,110.0,1.0,0.0,0.0,10.0,0.0,0.0,-616.12885,-2.8150902,548.8224,-0.06571093,0.18661135,-0.017292662,320.82797,320.83328,315.50104,315.45352,319.0,319.0,379.0,375.0,89.0,89.0,89.0,89.0,0.0,0.0,0.0,0.0,0.051809575,0.051612113,0.05389891,0.053609386,0.0,0.0,0.0,0.0,-35.767254,0.25480983,9.132919,85.36129,0.0,0.0,0.0,2.0,1.0,3.0503714,-0.008541265,-0.005968094,89.0,89.0,89.0,89.0,22.560669,22.560669,25.12438,25.12438,0.01649617,0.016640617,-4.2632915E-4,-4.253942E-4,1174.8793,0.0,0.0,0.0,0.0,0.0,0.0,0.0,0.0,0.0,0.0,0.0,0.0,0.0,7.9265223,0.4195893,-87.31022,-0.0016640278,-0.007943167,-0.0020943694,550022.7,119984.91,0.009509629,0.0064377487,8401.637,8272.135,6145.4893,6018.3164,0.3042698,0.0,0.0,0.0
58.197945,58.197945,0.666,0.0,0.0,315.93857,11354.0,100.0,0.0,0.10678249,0.0,8.0,0.0,0.0,4000000.0,110.0,1.0,0.0,0.0,10.0,0.0,0.0,-615.7315,-2.7943134,544.4546,-0.06573535,0.18338153,-0.014442121,321.14926,321.15845,315.8254,315.7806,318.0,317.0,378.0,374.0,89.0,89.0,89.0,89.0,0.0,0.0,0.0,0.0,0.051834796,0.05162041,0.053878803,0.05365515,0.0,0.0,0.0,0.0,129.4702,37.41681,72.04412,35.284454,0.0,0.0,0.0,2.0,1.0,3.0499835,-0.008525269,-0.005868554,89.0,89.0,89.0,89.0,22.560669,22.560669,25.12438,25.12438,0.016469467,0.016616622,-4.242381E-4,-4.253627E-4,1176.1483,0.0,0.0,0.0,0.0,0.0,0.0,0.0,0.0,0.0,0.0,0.0,0.0,0.0,7.9672127,0.41214347,-87.39735,-0.0017057919,-0.0074011986,0.0015559416,550034.9,119984.9,0.00976999,0.0066750892,8417.017,8277.627,6150.037,6051.187,0.304554,0.0,0.0,0.0
62.58909,62.58909,0.716,0.0,0.0,316.26056,11365.0,100.0,0.0,0.100602664,0.0,8.0,0.0,0.0,4000000.0,110.0,1.0,0.0,0.0,10.0,0.0,0.0,-615.3321,-2.7742405,540.08246,-0.06342955,0.1823373,-0.008404791,321.462,321.47842,316.1432,316.10507,317.0,316.0,376.0,373.0,89.0,89.0,89.0,89.0,0.0,0.0,0.0,0.0,0.05188181,0.05163904,0.053917997,0.053707145,0.0,0.0,0.0,0.0,332.56705,379.2777,96.680214,100.20732,0.0,0.0,0.0,2.0,1.0,3.0496478,-0.008709324,-0.0058350563,89.0,89.0,89.0,89.0,22.560669,22.560669,25.12438,25.12438,0.016443117,0.016594533,-4.250187E-4,-4.248775E-4,1177.3134,0.0,0.0,0.0,0.0,0.0,0.0,0.0,0.0,0.0,0.0,0.0,0.0,0.0,8.006799,0.39694077,-87.48362,0.002583218,-0.0063027567,0.004079593,550046.8,119984.9,0.009342949,0.006447432,8436.572,8286.797,6211.417,6116.008,0.30420494,0.0,0.0,0.0
66.9847,66.9847,0.766,0.0,0.0,316.57935,11374.0,100.0,0.0,0.07632573,0.0,8.0,0.0,0.0,4000000.0,110.0,1.0,0.0,0.0,10.0,0.0,0.0,-614.9307,-2.7537942,535.706,-0.056105316,0.17859313,0.07355848,321.7218,321.737,316.4586,316.4278,315.0,315.0,375.0,371.0,89.0,89.0,89.0,89.0,0.0,0.0,0.0,0.0,0.052283894,0.05207969,0.054073356,0.053898424,0.0,0.0,0.0,0.0,-1149.5009,-929.7743,-432.27817,-260.77777,0.0,0.0,0.0,2.0,1.0,3.049374,-0.008765138,-0.0060271025,89.0,89.0,89.0,89.0,22.560669,22.560669,25.12438,25.12438,0.016238283,0.016362952,-4.2399482E-4,-4.2549652E-4,1178.2667,0.0,0.0,0.0,0.0,0.0,0.0,0.0,0.0,0.0,0.0,0.0,0.0,0.0,8.043142,0.42534372,-87.56908,0.0015600824,-0.0049677733,5.135763E-4,550056.6,119984.9,0.009245667,0.006019868,8616.986,8481.189,6275.8887,6207.5596,0.30396366,0.0,0.0,0.0
71.38463,71.38463,0.816,0.0,0.0,316.88727,11387.0,100.0,0.0,0.08165041,0.0,8.0,0.0,0.0,4000000.0,110.0,1.0,0.0,0.0,10.0,0.0,0.0,-614.5277,-2.7321463,531.3253,-0.05179283,0.17319655,-0.007189189,322.08173,322.09998,316.76587,316.7384,314.0,313.0,373.0,370.0,89.0,89.0,89.0,89.0,0.0,0.0,0.0,0.0,0.051915515,0.051709745,0.054004874,0.05383763,0.0,0.0,0.0,0.0,28.860567,8.301429,146.27425,35.673374,0.0,0.0,0.0,2.0,1.0,3.0491412,-0.00891212,-0.005979538,89.0,89.0,89.0,89.0,22.560669,22.560669,25.12438,25.12438,0.016386896,0.01651324,-4.22022E-4,-4.2094226E-4,1179.216,0.0,0.0,0.0,0.0,0.0,0.0,0.0,0.0,0.0,0.0,0.0,0.0,0.0,8.07691,0.43424404,-87.651825,2.2586799E-4,-0.0045725945,0.0036506609,549871.25,119984.91,0.009501973,0.006794639,8447.51,8317.295,6227.5347,6145.8843,0.30462646,0.0,0.0,0.0
75.78877,75.78877,0.866,0.0,0.0,317.19455,11397.0,100.0,0.0,0.075829595,0.0,8.0,0.0,0.0,4000000.0,110.0,1.0,0.0,0.0,10.0,0.0,0.0,-614.123,-2.7104928,526.94055,-0.04608429,0.17465508,0.037118938,322.3557,322.36392,317.0697,317.0438,312.0,312.0,372.0,369.0,89.0,89.0,89.0,89.0,0.0,0.0,0.0,0.0,0.052069418,0.05194601,0.05414698,0.053911567,0.0,0.0,0.0,0.0,387.0963,354.14542,271.34564,251.01453,0.0,0.0,0.0,2.0,1.0,3.0489244,-0.00893136,-0.006300807,89.0,89.0,89.0,89.0,22.560669,22.560669,25.12438,25.12438,0.016289866,0.016385462,-4.261549E-4,-4.2448498E-4,1179.8462,0.0,0.0,0.0,0.0,0.0,0.0,0.0,0.0,0.0,0.0,0.0,0.0,0.0,8.108009,0.4378035,-87.73466,0.011970023,-0.0042164573,-0.0011386812,549682.44,119984.91,0.008744479,0.006089546,8536.284,8439.307,6376.042,6264.9766,0.3041439,0.0,0.0,0.0
80.19691,80.19691,0.916,0.0,0.0,317.5011,11406.0,100.0,0.0,0.049635455,0.0,8.0,0.0,0.0,4000000.0,110.0,1.0,0.0,0.0,10.0,0.0,0.0,-613.71686,-2.6875734,522.55164,-0.04032562,0.17278327,0.10634289,322.61185,322.6092,317.37653,317.35214,311.0,311.0,371.0,367.0,89.0,89.0,89.0,89.0,0.0,0.0,0.0,0.0,0.052413594,0.052352816,0.054268166,0.05400512,0.0,0.0,0.0,0.0,-294.57358,-288.53864,-19.633762,28.9008,0.0,0.0,0.0,2.0,1.0,3.0487182,-0.008708838,-0.0067853928,89.0,89.0,89.0,89.0,22.560669,22.560669,25.12438,25.12438,0.016097222,0.016152484,-4.2416612E-4,-4.251393E-4,1180.3994,0.0,0.0,0.0,0.0,0.0,0.0,0.0,0.0,0.0,0.0,0.0,0.0,0.0,8.136319,0.4810748,-87.81733,0.005229031,-0.003904103,-0.0058773845,549506.25,119984.9,0.008054411,0.0048940876,8702.634,8646.545,6410.7754,6292.2197,0.30302238,0.0,0.0,0.0
84.6091,84.6091,0.966,0.0,0.0,317.8023,11419.0,100.0,0.0,0.068822995,0.0,8.0,0.0,0.0,4000000.0,110.0,1.0,0.0,0.0,10.0,0.0,0.0,-613.3094,-2.663212,518.1586,-0.040219046,0.17010607,-0.004769816,322.98605,322.98715,317.68018,317.65564,310.0,309.0,369.0,366.0,89.0,89.0,89.0,89.0,0.0,0.0,0.0,0.0,0.05193485,0.051868435,0.054073036,0.053826224,0.0,0.0,0.0,0.0,3.5807416,33.997017,4.613399,71.346756,0.0,0.0,0.0,2.0,1.0,3.048516,-0.008518382,-0.0065933466,89.0,89.0,89.0,89.0,22.560669,22.560669,25.12438,25.12438,0.016299881,0.016365236,-4.2195764E-4,-4.201119E-4,1181.1835,0.0,0.0,0.0,0.0,0.0,0.0,0.0,0.0,0.0,0.0,0.0,0.0,0.0,8.163819,0.48852244,-87.898766,-0.007508071,-0.0041701016,-0.004442476,549245.25,119984.9,0.008138262,0.005231778,8457.312,8403.05,6239.375,6129.7676,0.3029623,0.0,0.0,0.0
89.02563,89.02563,1.016,0.0,0.0,318.101,11431.0,100.0,0.0,0.047663935,0.0,8.0,0.0,0.0,4000000.0,110.0,1.0,0.0,0.0,10.0,0.0,0.0,-612.90045,-2.6393657,513.76154,-0.036170747,0.16892701,-0.0763562,323.32825,323.334,317.9771,317.95645,308.0,308.0,368.0,365.0,89.0,89.0,89.0,89.0,0.0,0.0,0.0,0.0,0.05162747,0.05155562,0.053906094,0.05373369,0.0,0.0,0.0,0.0,195.61348,111.834694,59.558426,31.07339,0.0,0.0,0.0,2.0,1.0,3.048325,-0.008304203,-0.006227374,89.0,89.0,89.0,89.0,22.560669,22.560669,25.12438,25.12438,0.016441418,0.016509365,-4.1907138E-4,-4.202395E-4,1181.9086,0.0,0.0,0.0,0.0,0.0,0.0,0.0,0.0,0.0,0.0,0.0,0.0,0.0,8.189984,0.46163523,-87.979805,-0.0059899893,-0.0033788434,-0.0031262462,549005.44,119984.91,0.008542534,0.0058842823,8313.351,8250.051,6133.7803,6060.4287,0.30347633,0.0,0.0,0.0
93.446075,93.446075,1.066,0.0,0.0,318.39612,11440.0,100.0,0.0,0.050662916,0.0,8.0,0.0,0.0,4000000.0,110.0,1.0,0.0,0.0,10.0,0.0,0.0,-612.49023,-2.6166673,509.3605,-0.03418863,0.16584326,-0.05183316,323.59686,323.60385,318.2714,318.25208,307.0,306.0,367.0,363.0,89.0,89.0,89.0,89.0,0.0,0.0,0.0,0.0,0.051788766,0.051705938,0.05390192,0.053788804,0.0,0.0,0.0,0.0,-37.60457,-183.2619,-8.0064,-31.529364,0.0,0.0,0.0,2.0,1.0,3.0481591,-0.00810665,-0.0060863495,89.0,89.0,89.0,89.0,22.560669,22.560669,25.12438,25.12438,0.016344294,0.016413638,-4.183513E-4,-4.191234E-4,1182.4329,0.0,0.0,0.0,0.0,0.0,0.0,0.0,0.0,0.0,0.0,0.0,0.0,0.0,8.21514,0.44383258,-88.05988,-0.003002311,-0.003151786,-0.0013784581,548816.9,119984.91,0.00890925,0.0061583645,8392.633,8323.066,6143.7124,6100.541,0.30381966,0.0,0.0,0.0
97.870674,97.870674,1.116,0.0,0.0,318.68677,11450.0,100.0,0.0,0.06282267,0.0,8.0,0.0,0.0,4000000.0,110.0,1.0,0.0,0.0,10.0,0.0,0.0,-612.07886,-2.595204,504.9554,-0.03352815,0.16411045,-0.03351909,323.87366,323.88705,318.56165,318.5423,306.0,305.0,365.0,362.0,89.0,89.0,89.0,89.0,0.0,0.0,0.0,0.0,0.05188987,0.05171044,0.05390583,0.053817667,0.0,0.0,0.0,0.0,553.1787,314.94495,39.991726,-60.537453,0.0,0.0,0.0,2.0,1.0,3.0480003,-0.008331722,-0.005961895,89.0,89.0,89.0,89.0,22.560669,22.560669,25.12438,25.12438,0.016290532,0.016383005,-4.1878028E-4,-4.1738615E-4,1183.0441,0.0,0.0,0.0,0.0,0.0,0.0,0.0,0.0,0.0,0.0,0.0,0.0,0.0,8.239302,0.4196661,-88.13883,-7.2173536E-4,-0.003279267,0.007043965,548621.0,119984.9,0.009109452,0.0060776123,8437.158,8340.807,6195.9688,6153.3296,0.30378342,0.0,0.0,0.0
102.29933,102.29933,1.166,0.0,0.0,318.9731,11460.0,100.0,0.0,0.05513647,0.0,8.0,0.0,0.0,4000000.0,110.0,1.0,0.0,0.0,10.0,0.0,0.0,-611.6663,-2.574539,500.5464,-0.029950412,0.15965007,-0.017341504,324.14774,324.16696,318.84814,318.8309,304.0,304.0,364.0,360.0,89.0,89.0,89.0,89.0,0.0,0.0,0.0,0.0,0.051974107,0.05179479,0.053864997,0.05385895,0.0,0.0,0.0,0.0,-496.38293,-373.35004,-34.667545,76.603874,0.0,0.0,0.0,2.0,1.0,3.0478544,-0.008613603,-0.0057827234,89.0,89.0,89.0,89.0,22.560669,22.560669,25.12438,25.12438,0.016229568,0.016330432,-4.1575677E-4,-4.161248E-4,1183.6593,0.0,0.0,0.0,0.0,0.0,0.0,0.0,0.0,0.0,0.0,0.0,0.0,0.0,8.261641,0.40922332,-88.21668,-0.005644796,-0.0028759404,0.0065565114,548427.4,119984.91,0.009638248,0.0063994178,8467.352,8358.652,6161.917,6171.2354,0.30420876,0.0,0.0,0.0
106.73187,106.73187,1.216,0.0,0.0,319.25134,11471.0,100.0,0.0,0.055796996,0.0,8.0,0.0,0.0,4000000.0,110.0,1.0,0.0,0.0,10.0,0.0,0.0,-611.2527,-2.5545053,496.13354,-0.0280238,0.1563181,-0.08947228,324.45187,324.47842,319.12595,319.1084,303.0,302.0,362.0,359.0,89.0,89.0,89.0,89.0,0.0,0.0,0.0,0.0,0.051755365,0.05157325,0.053768437,0.053864114,0.0,0.0,0.0,0.0,-985.5239,-766.99097,-645.6344,-394.25787,0.0,0.0,0.0,2.0,1.0,3.0477123,-0.009137429,-0.0056755543,89.0,89.0,89.0,89.0,22.560669,22.560669,25.12438,25.12438,0.016316574,0.016429733,-4.1424038E-4,-4.1515025E-4,1184.3322,0.0,0.0,0.0,0.0,0.0,0.0,0.0,0.0,0.0,0.0,0.0,0.0,0.0,8.283229,0.38719657,-88.29238,-0.0023437052,-0.0029183815,0.01642287,548212.9,119984.9,0.009688877,0.0067694783,8340.697,8228.869,6009.573,6077.0703,0.30456257,0.0,0.0,0.0
111.168274,111.168274,1.266,0.0,0.0,319.53195,11477.0,100.0,0.0,0.019869016,0.0,8.0,0.0,0.0,4000000.0,110.0,1.0,0.0,0.0,10.0,0.0,0.0,-610.838,-2.5353374,491.7169,-0.022480115,0.15901223,0.059129722,324.62656,324.66565,319.40067,319.39008,302.0,301.0,361.0,358.0,89.0,89.0,89.0,89.0,0.0,0.0,0.0,0.0,0.05242946,0.052147143,0.054045875,0.05412255,0.0,0.0,0.0,0.0,-146.28764,-120.35075,-258.61856,-64.45346,0.0,0.0,0.0,2.0,1.0,3.047601,-0.009877721,-0.005952716,89.0,89.0,89.0,89.0,22.560669,22.560669,25.12438,25.12438,0.01599091,0.016130809,-4.1749148E-4,-4.2150935E-4,1184.6737,0.0,0.0,0.0,0.0,0.0,0.0,0.0,0.0,0.0,0.0,0.0,0.0,0.0,8.302554,0.39215913,-88.368835,0.0069332994,-0.0014990299,0.013951117,548084.3,119984.9,0.008609201,0.0053476496,8703.9375,8531.008,6327.0264,6371.504,0.30318356,0.0,0.0,0.0
115.60852,115.60852,1.316,0.0,0.0,319.80414,11487.0,100.0,0.0,0.009588477,0.0,8.0,0.0,0.0,4000000.0,110.0,1.0,0.0,0.0,10.0,0.0,0.0,-610.42255,-2.514163,487.29648,-0.017052278,0.15105307,0.07627727,324.88528,324.91925,319.672,319.66745,300.0,300.0,360.0,356.0,89.0,89.0,89.0,89.0,0.0,0.0,0.0,0.0,0.052505285,0.052263856,0.054136317,0.05428123,0.0,0.0,0.0,0.0,-155.79611,-650.2613,-157.91504,-418.08926,0.0,0.0,0.0,2.0,1.0,3.0475438,-0.010352619,-0.006140232,89.0,89.0,89.0,89.0,22.560669,22.560669,25.12438,25.12438,0.015906166,0.01602347,-4.1428074E-4,-4.180017E-4,1185.3184,0.0,0.0,0.0,0.0,0.0,0.0,0.0,0.0,0.0,0.0,0.0,0.0,0.0,8.319041,0.44590458,-88.44298,-0.0018608191,-5.966931E-4,0.011978986,547905.2,119984.9,0.00870104,0.0053268448,8758.696,8598.53,6316.4424,6381.4443,0.30321407,0.0,0.0,0.0
120.052574,120.052574,1.366,0.0,0.0,320.06674,11498.0,100.0,0.0,-0.018622108,0.0,8.0,0.0,1.0,4000000.0,110.0,1.0,0.0,0.0,10.0,0.0,0.0,-610.00616,-2.4914525,482.87244,-0.005594164,0.14844388,-0.01993756,325.21182,325.23676,319.9287,319.93677,299.0,299.0,358.0,355.0,89.0,89.0,89.0,89.0,0.0,0.0,0.0,0.0,0.052046567,0.051863685,0.05407817,0.054052733,0.0,0.0,0.0,0.0,409.7074,323.3671,-53.550297,-78.5753,0.0,0.0,0.0,2.0,1.0,3.0475776,-0.010926101,-0.0061490536,89.0,89.0,89.0,89.0,22.560669,22.560669,25.12438,25.12438,0.016121224,0.016181018,-4.1221996E-4,-4.135863E-4,1185.969,0.0,0.0,0.0,0.0,0.0,0.0,0.0,0.0,0.0,0.0,0.0,0.0,0.0,8.33,0.45349786,-88.515175,0.0018493375,0.0015030919,0.005946724,547681.44,119984.9,0.009556202,0.006467621,8526.151,8429.148,6248.4,6220.163,0.3042965,0.0,0.0,0.0
124.50036,124.50036,1.416,0.0,0.0,320.3494,11509.0,100.0,0.0,0.45445886,100.0,8.0,1.0,0.0,4000000.0,110.0,1.0,0.0,0.0,10.0,0.0,0.0,-609.5892,-2.469578,478.4447,-0.06295414,0.17054962,0.023467818,325.54065,325.51257,320.24963,320.17374,298.0,297.0,357.0,354.0,89.0,89.0,89.0,89.0,0.0,0.0,0.0,0.0,0.051873267,0.051748827,0.05413375,0.053778436,0.0,0.0,0.0,0.0,271.49316,265.08267,66.42491,166.20306,0.0,0.0,0.0,2.0,1.0,3.0473194,-0.011079776,-0.0061346292,89.0,89.0,89.0,89.0,22.560669,22.560669,25.12438,25.12438,0.016117917,0.016276853,-4.4801002E-4,-4.0165597E-4,1186.6473,0.0,0.0,0.0,0.0,0.0,0.0,0.0,0.0,0.0,0.0,0.0,0.0,0.0,8.357006,0.43633503,-88.59158,-5.651466E-4,-0.014988353,0.0014427581,547470.94,119984.9,0.009307092,0.0064502014,8431.1045,8359.278,6334.8213,6159.734,0.30416965,0.0,0.0,0.0
128.95247,128.95247,1.466,0.0,0.0,320.6795,11521.0,100.0,0.0,0.48275563,100.0,8.0,1.0,0.0,4000000.0,110.0,1.0,0.0,0.0,10.0,0.0,0.0,-609.16986,-2.4464924,474.01285,-0.12239154,0.19374792,0.082526945,325.9282,325.86047,320.6283,320.44717,296.0,296.0,356.0,353.0,89.0,89.0,89.0,89.0,0.0,0.0,0.0,0.0,0.051733684,0.05148578,0.05441031,0.053807117,0.0,0.0,0.0,0.0,-997.9828,-1212.3315,-302.92865,-433.39127,0.0,0.0,0.0,2.0,1.0,3.0460517,-0.01097432,-0.005989909,89.0,89.0,89.0,89.0,22.560669,22.560669,25.12438,25.12438,0.016116505,0.016430544,-4.4708195E-4,-4.2881968E-4,1187.3298,0.0,0.0,0.0,0.0,0.0,0.0,0.0,0.0,0.0,0.0,0.0,0.0,0.0,8.415814,0.4840328,-88.67788,-0.005394611,-0.031539146,-0.004395642,547215.25,119984.9,0.009157579,0.0072660446,8340.348,8151.248,6439.4795,6148.664,0.30451393,0.0,0.0,0.0
133.40935,133.40935,1.516,0.0,0.0,321.0532,11539.0,100.0,0.0,0.24243873,100.0,8.0,1.0,0.0,4000000.0,110.0,1.0,0.0,0.0,10.0,0.0,0.0,-608.74695,-2.4215355,469.5765,-0.15619287,0.22246863,0.0131792,326.42322,326.37848,320.98962,320.8214,295.0,295.0,354.0,351.0,89.0,89.0,89.0,89.0,0.0,0.0,0.0,0.0,0.050972976,0.05058757,0.05436093,0.053698413,0.0,0.0,0.0,0.0,430.02512,246.76315,-104.15016,-190.39658,0.0,0.0,0.0,2.0,1.0,3.0445023,-0.010740264,-0.005887389,89.0,89.0,89.0,89.0,22.560669,22.560669,25.12438,25.12438,0.016524997,0.016838662,-4.4368205E-4,-4.61947E-4,1188.4214,0.0,0.0,0.0,0.0,0.0,0.0,0.0,0.0,0.0,0.0,0.0,0.0,0.0,8.498248,0.50577796,-88.77417,0.0017272467,-0.027397899,-0.0047395276,546863.94,119984.9,0.009096433,0.008531503,8010.784,7738.551,6361.754,6055.2803,0.305048,0.0,0.0,0.0
137.87186,137.87186,1.566,0.0,0.0,321.4781,11554.0,100.0,0.0,0.0065064384,0.0,8.0,1.0,0.0,4000000.0,110.0,1.0,0.0,0.0,10.0,0.0,0.0,-608.31976,-2.3956966,465.13492,-0.1439535,0.24577561,0.09818893,326.81552,326.84024,321.3646,321.28793,294.0,293.0,353.0,350.0,89.0,89.0,89.0,89.0,0.0,0.0,0.0,0.0,0.05092504,0.050505493,0.054401048,0.053758573,0.0,0.0,0.0,0.0,1558.0548,1318.5604,624.01587,508.27853,0.0,0.0,0.0,2.0,1.0,3.0435379,-0.010429869,-0.0060201883,89.0,89.0,89.0,89.0,22.560669,22.560669,25.12438,25.12438,0.01656826,0.0168022,-4.5046673E-4,-4.7833452E-4,1189.3176,0.0,0.0,0.0,0.0,0.0,0.0,0.0,0.0,0.0,0.0,0.0,0.0,0.0,8.583536,0.5330061,-88.884384,0.007465567,-0.011196584,-0.0089841,546565.9,119984.9,0.009023659,0.008687814,8022.1733,7743.5776,6535.1797,6238.465,0.30491447,0.0,0.0,0.0
142.3402,142.3402,1.616,0.0,0.0,321.90146,11573.0,100.0,0.0,-0.092236385,0.0,8.0,1.0,0.0,4000000.0,110.0,1.0,0.0,0.0,10.0,0.0,0.0,-607.88873,-2.36864,460.68774,-0.0954165,0.23765151,-0.05953221,327.31372,327.3833,321.74796,321.75882,293.0,292.0,352.0,349.0,89.0,89.0,89.0,89.0,0.0,0.0,0.0,0.0,0.050342336,0.05010203,0.053911794,0.05353628,0.0,0.0,0.0,0.0,-113.14893,-233.36555,31.596392,-14.135226,0.0,0.0,0.0,2.0,1.0,3.0433815,-0.009983329,-0.0059509277,89.0,89.0,89.0,89.0,22.560669,22.560669,25.12438,25.12438,0.01685682,0.017002527,-4.4995942E-4,-4.6699372E-4,1190.485,0.0,0.0,0.0,0.0,0.0,0.0,0.0,0.0,0.0,0.0,0.0,0.0,0.0,8.649928,0.5344134,-88.9961,-0.007632105,0.0029888088,-0.00659199,546204.1,119984.9,0.01022969,0.0098026795,7668.4883,7495.271,6041.9395,5888.751,0.30600357,0.0,0.0,0.0
146.81442,146.81442,1.666,0.0,0.0,322.32632,11590.0,100.0,0.0,-0.12854747,0.0,8.0,1.0,0.0,4000000.0,110.0,1.0,0.0,0.0,10.0,0.0,0.0,-607.4552,-2.3441756,456.23492,-0.03421854,0.24440701,-0.113750376,327.7994,327.87662,322.14606,322.206,291.0,291.0,351.0,347.0,89.0,89.0,89.0,89.0,0.0,0.0,0.0,0.0,0.0498698,0.049711954,0.053656947,0.05351038,0.0,0.0,0.0,0.0,1051.7878,1192.5502,225.89561,324.62772,0.0,0.0,0.0,2.0,1.0,3.0437682,-0.009888322,-0.005533457,89.0,89.0,89.0,89.0,22.560669,22.560669,25.12438,25.12438,0.017141588,0.017187579,-4.5931054E-4,-4.658602E-4,1191.4889,0.0,0.0,0.0,0.0,0.0,0.0,0.0,0.0,0.0,0.0,0.0,0.0,0.0,8.687961,0.45828116,-89.111404,-4.7463638E-4,0.010776995,-0.0020065263,545862.9,119984.9,0.009203081,0.009381275,7474.8047,7380.5405,6057.64,6006.0073,0.30514622,0.0,0.0,0.0
151.29465,151.29465,1.716,0.0,0.0,322.7607,11600.0,100.0,0.0,-0.022291176,0.0,8.0,1.0,0.0,4000000.0,110.0,1.0,0.0,0.0,10.0,0.0,0.0,-607.0202,-2.3215659,451.77618,1.75016E-4,0.2444196,0.0153053105,328.09946,328.1529,322.58694,322.6346,290.0,289.0,349.0,346.0,89.0,89.0,89.0,89.0,0.0,0.0,0.0,0.0,0.050642293,0.050546672,0.053714193,0.053793572,0.0,0.0,0.0,0.0,-736.8564,-839.96045,-251.39001,-316.67496,0.0,0.0,0.0,2.0,1.0,3.0442579,-0.009933171,-0.0054842234,89.0,89.0,89.0,89.0,22.560669,22.560669,25.12438,25.12438,0.016649332,0.016673949,-4.6844687E-4,-4.6101105E-4,1192.0725,0.0,0.0,0.0,0.0,0.0,0.0,0.0,0.0,0.0,0.0,0.0,0.0,0.0,8.70485,0.4538476,-89.23101,-0.010002104,0.0077443835,0.0041128714,545659.44,119984.89,0.008461938,0.007499603,7788.782,7735.4014,6050.827,6099.6904,0.30352497,0.0,0.0,0.0
155.78075,155.78075,1.766,0.0,0.0,323.1725,11619.0,100.0,0.0,0.058516674,0.0,8.0,1.0,0.0,4000000.0,110.0,1.0,0.0,0.0,10.0,0.0,0.0,-606.58514,-2.29831,447.31158,0.010164618,0.2276325,-0.12615097,328.65262,328.6895,323.01974,323.03552,289.0,288.0,348.0,345.0,89.0,89.0,89.0,89.0,0.0,0.0,0.0,0.0,0.0500666,0.049932566,0.053521175,0.05371793,0.0,0.0,0.0,0.0,-412.53705,-601.72675,-290.14792,-402.06308,0.0,0.0,0.0,2.0,1.0,3.044501,-0.010295198,-0.00459826,89.0,89.0,89.0,89.0,22.560669,22.560669,25.12438,25.12438,0.016962886,0.017036024,-4.5774557E-4,-4.4719395E-4,1193.1973,0.0,0.0,0.0,0.0,0.0,0.0,0.0,0.0,0.0,0.0,0.0,0.0,0.0,8.711203,0.4500654,-89.34534,-0.025085693,0.0019131158,0.009449168,545281.2,119984.89,0.010478381,0.0099391835,7481.1973,7414.078,5815.095,5909.9253,0.305645,0.0,0.0,0.0
160.2727,160.2727,1.816,0.0,0.0,323.57486,11638.0,100.0,0.0,0.09786522,0.0,8.0,1.0,0.0,4000000.0,110.0,1.0,0.0,0.0,10.0,0.0,0.0,-606.1491,-2.278444,442.84137,3.3227913E-4,0.23135333,-0.22160421,329.17215,329.20883,323.43613,323.41907,287.0,287.0,347.0,343.0,89.0,89.0,89.0,89.0,0.0,0.0,0.0,0.0,0.0494023,0.049114976,0.053288676,0.053466152,0.0,0.0,0.0,0.0,1427.5653,1088.3329,146.75705,-44.591717,0.0,0.0,0.0,2.0,1.0,3.0444412,-0.011119431,-0.0037831068,89.0,89.0,89.0,89.0,22.560669,22.560669,25.12438,25.12438,0.017330939,0.017506702,-4.5717895E-4,-4.4998116E-4,1194.356,0.0,0.0,0.0,0.0,0.0,0.0,0.0,0.0,0.0,0.0,0.0,0.0,0.0,8.720996,0.34681362,-89.457146,-0.009933503,-0.003408819,0.017841708,544919.6,119984.91,0.011887504,0.011900631,7263.318,7132.16,5759.4116,5829.952,0.3076687,0.0,0.0,0.0
164.77075,164.77075,1.866,0.0,0.0,323.98544,11646.0,100.0,0.0,0.120269716,0.0,8.0,1.0,0.0,4000000.0,110.0,1.0,0.0,0.0,10.0,0.0,0.0,-605.7127,-2.2628045,438.36554,-0.018137937,0.23373932,-0.043312028,329.39423,329.42404,323.85315,323.81476,286.0,286.0,345.0,342.0,89.0,89.0,89.0,89.0,0.0,0.0,0.0,0.0,0.050424315,0.050040245,0.053650223,0.053772498,0.0,0.0,0.0,0.0,961.6925,425.92126,234.74692,0.14751433,0.0,0.0,0.0,2.0,1.0,3.0441806,-0.012068667,-0.0038939714,89.0,89.0,89.0,89.0,22.560669,22.560669,25.12438,25.12438,0.01672644,0.016940774,-4.6238722E-4,-4.5824936E-4,1194.8352,0.0,0.0,0.0,0.0,0.0,0.0,0.0,0.0,0.0,0.0,0.0,0.0,0.0,8.73828,0.29577973,-89.57024,0.008327319,-0.0066362387,0.020441422,544763.8,119984.9,0.01053733,0.010305926,7700.541,7518.75,6124.7397,6169.4644,0.30647755,0.0,0.0,0.0
169.27448,169.27448,1.916,0.0,0.0,324.39212,11654.0,100.0,0.0,0.12394928,0.0,8.0,1.0,0.0,4000000.0,110.0,1.0,0.0,0.0,10.0,0.0,0.0,-605.27515,-2.2471025,433.8841,-0.0345625,0.22814134,0.12816069,329.62726,329.65567,324.263,324.21912,285.0,284.0,344.0,341.0,89.0,89.0,89.0,89.0,0.0,0.0,0.0,0.0,0.051376738,0.050931446,0.054062437,0.05411568,0.0,0.0,0.0,0.0,-223.56215,-763.22253,86.675575,-246.33406,0.0,0.0,0.0,2.0,1.0,3.043834,-0.0130255,-0.0043559074,89.0,89.0,89.0,89.0,22.560669,22.560669,25.12438,25.12438,0.016118394,0.016335256,-4.6240463E-4,-4.599299E-4,1195.2938,0.0,0.0,0.0,0.0,0.0,0.0,0.0,0.0,0.0,0.0,0.0,0.0,0.0,8.762225,0.33972955,-89.681244,0.0016567634,-0.007498136,0.0184419,544598.8,119984.89,0.009012015,0.00798849,8152.38,7936.5664,6352.2065,6358.574,0.3047018,0.0,0.0,0.0
173.78377,173.78377,1.966,0.0,0.0,324.7819,11670.0,100.0,0.0,0.08006629,0.0,8.0,1.0,0.0,4000000.0,110.0,1.0,0.0,0.0,10.0,0.0,0.0,-604.8363,-2.2287219,429.3972,-0.039466143,0.21902624,0.05366651,330.08533,330.12677,324.65106,324.6153,284.0,283.0,343.0,340.0,89.0,89.0,89.0,89.0,0.0,0.0,0.0,0.0,0.050940167,0.050539084,0.054090727,0.05416319,0.0,0.0,0.0,0.0,107.999146,45.79868,113.309906,-12.230872,0.0,0.0,0.0,2.0,1.0,3.0434992,-0.013935641,-0.004265666,89.0,89.0,89.0,89.0,22.560669,22.560669,25.12438,25.12438,0.016292086,0.016511273,-4.539437E-4,-4.5699938E-4,1196.2251,0.0,0.0,0.0,0.0,0.0,0.0,0.0,0.0,0.0,0.0,0.0,0.0,0.0,8.790425,0.38382638,-89.787094,-0.005001397,-0.005908136,0.018411208,544275.9,119984.89,0.009140643,0.008648465,7958.513,7748.5635,6302.249,6334.269,0.3050394,0.0,0.0,0.0
178.29831,178.29831,2.016,0.0,0.0,325.1556,11683.0,100.0,0.0,0.026123598,0.0,8.0,1.0,0.0,4000000.0,110.0,1.0,0.0,0.0,10.0,0.0,0.0,-604.39606,-2.2069952,424.90515,-0.035655975,0.20643449,0.07349007,330.4391,330.47006,325.02084,324.99554,282.0,282.0,342.0,338.0,89.0,89.0,89.0,89.0,0.0,0.0,0.0,0.0,0.05109131,0.050822522,0.05408861,0.05413801,0.0,0.0,0.0,0.0,-913.47974,-688.8314,-718.4296,-392.01816,0.0,0.0,0.0,2.0,1.0,3.0432541,-0.014308118,-0.0048924685,89.0,89.0,89.0,89.0,22.560669,22.560669,25.12438,25.12438,0.016217604,0.016365616,-4.4179749E-4,-4.5117154E-4,1197.0214,0.0,0.0,0.0,0.0,0.0,0.0,0.0,0.0,0.0,0.0,0.0,0.0,0.0,8.819091,0.4612025,-89.88824,0.00519694,-0.0036277478,0.008327667,544032.1,119984.89,0.013371174,0.011259268,8001.285,7844.7593,6094.879,6150.8906,0.30833244,0.0,0.0,0.0
182.81786,182.81786,2.066,0.0,0.0,325.505,11704.0,100.0,0.0,0.12644456,0.0,8.0,1.0,0.0,4000000.0,110.0,1.0,0.0,0.0,10.0,0.0,0.0,-603.9543,-2.184487,420.4082,-0.043873653,0.19229491,-0.070386805,331.03152,331.0781,325.3728,325.34976,281.0,281.0,340.0,337.0,89.0,89.0,89.0,89.0,0.0,0.0,0.0,0.0,0.04989719,0.049528524,0.05364077,0.053600352,0.0,0.0,0.0,0.0,-441.06238,120.189735,814.10394,679.9935,0.0,0.0,0.0,2.0,1.0,3.0431054,-0.01512017,-0.0045483112,89.0,89.0,89.0,89.0,22.560669,22.560669,25.12438,25.12438,0.016947418,0.017151834,-4.41513E-4,-4.3241103E-4,1198.2574,0.0,0.0,0.0,0.0,0.0,0.0,0.0,0.0,0.0,0.0,0.0,0.0,0.0,8.848416,0.4359291,-89.983,-0.0032161153,-0.004269588,0.015780017,543616.75,119984.9,0.017100908,0.016339445,7399.64,7231.8145,6032.3022,5994.7334,0.313591,0.0,0.0,0.0
187.3423,187.3423,2.116,0.0,0.0,325.8717,11712.0,100.0,0.0,-0.016880926,0.0,8.0,1.0,0.0,4000000.0,110.0,1.0,0.0,0.0,10.0,0.0,0.0,-603.5111,-2.167502,415.9065,-0.02414898,0.22169173,0.04608403,331.2673,331.2938,325.71777,325.70926,280.0,280.0,339.0,336.0,89.0,89.0,89.0,89.0,0.0,0.0,0.0,0.0,0.050670136,0.05024936,0.054183956,0.053802658,0.0,0.0,0.0,0.0,5113.363,5300.621,1070.0001,1290.5581,0.0,0.0,0.0,2.0,1.0,3.04297,-0.016214961,-0.005435705,89.0,89.0,89.0,89.0,22.560669,22.560669,25.12438,25.12438,0.016730431,0.016844556,-4.5830302E-4,-4.6137796E-4,1198.7217,0.0,0.0,0.0,0.0,0.0,0.0,0.0,0.0,0.0,0.0,0.0,0.0,0.0,8.873853,0.31672835,-90.08335,0.060801238,-3.0565576E-4,0.012153984,543455.9,119984.9,0.011344394,0.011610051,7697.7456,7587.2,6785.581,6582.6436,0.30955124,0.0,0.0,0.0
191.87213,191.87213,2.166,0.0,0.0,326.2662,11705.0,100.0,0.0,-0.06892149,0.0,8.0,1.0,0.0,4000000.0,110.0,1.0,0.0,0.0,10.0,0.0,0.0,-603.0668,-2.1454482,411.39948,-0.01660653,0.21378814,0.73638606,331.0961,331.06937,326.1158,326.10156,279.0,278.0,338.0,335.0,89.0,89.0,89.0,89.0,0.0,0.0,0.0,0.0,0.05372427,0.053880274,0.05553461,0.055153195,0.0,0.0,0.0,0.0,-4227.7373,-4781.627,1297.1027,634.11444,0.0,0.0,0.0,2.0,1.0,3.042869,-0.015501128,-0.008029342,89.0,89.0,89.0,89.0,22.560669,22.560669,25.12438,25.12438,0.014800084,0.014762632,-4.6838462E-4,-4.7891654E-4,1198.2853,0.0,0.0,0.0,0.0,0.0,0.0,0.0,0.0,0.0,0.0,0.0,0.0,0.0,8.894543,0.5929686,-90.19003,0.02312044,-0.0014506939,-0.01827012,543582.94,119984.9,0.0040338393,0.002850483,9351.816,9384.28,7538.888,7337.7656,0.30060673,0.0,0.0,0.0
196.40701,196.40701,2.216,0.0,0.0,326.61606,11729.0,100.0,0.0,-0.16506372,0.0,8.0,1.0,0.0,4000000.0,110.0,1.0,0.0,0.0,10.0,0.0,0.0,-602.6218,-2.1085005,406.88742,0.009907344,0.19743904,0.28957003,331.77438,331.74115,326.45047,326.48608,278.0,277.0,336.0,333.0,89.0,89.0,89.0,89.0,0.0,0.0,0.0,0.0,0.051743563,0.05207476,0.05536471,0.054898508,0.0,0.0,0.0,0.0,-721.04456,-698.8897,-1013.87476,-653.33234,0.0,0.0,0.0,2.0,1.0,3.0430179,-0.014183199,-0.008270502,89.0,89.0,89.0,89.0,22.560669,22.560669,25.12438,25.12438,0.01576633,0.015571167,-4.4764878E-4,-4.5822287E-4,1199.7181,0.0,0.0,0.0,0.0,0.0,0.0,0.0,0.0,0.0,0.0,0.0,0.0,0.0,8.899666,0.82823443,-90.28533,-0.009385356,0.006700083,-0.03382259,543119.3,119984.9,0.0045977915,0.004384143,8279.311,8455.143,6840.3184,6637.3633,0.29982662,0.0,0.0,0.0
200.9466,200.9466,2.266,0.0,0.0,326.96597,11751.0,100.0,0.0,-0.33079973,0.0,8.0,1.0,0.0,4000000.0,110.0,1.0,0.0,0.0,10.0,0.0,0.0,-602.1769,-2.0679393,402.37067,0.057515427,0.20436503,-0.05012858,332.41577,332.3826,326.77347,326.8645,276.0,276.0,335.0,332.0,89.0,89.0,89.0,89.0,0.0,0.0,0.0,0.0,0.04987649,0.050315164,0.054442942,0.0540427,0.0,0.0,0.0,0.0,3744.4976,3630.973,2249.3403,1791.1655,0.0,0.0,0.0,2.0,1.0,3.0435743,-0.012320276,-0.0075933933,89.0,89.0,89.0,89.0,22.560669,22.560669,25.12438,25.12438,0.016794894,0.016447447,-4.3655757E-4,-4.5399214E-4,1200.9888,0.0,0.0,0.0,0.0,0.0,0.0,0.0,0.0,0.0,0.0,0.0,0.0,0.0,8.890499,0.7884867,-90.38426,0.0036241384,0.016651724,-0.048826613,542676.6,119984.9,0.008343773,0.009221517,7547.883,7775.582,6591.771,6378.796,0.30337143,0.0,0.0,0.0
205.49106,205.49106,2.316,0.0,0.0,327.31848,11768.0,100.0,0.0,-0.27192688,0.0,8.0,1.0,0.0,4000000.0,110.0,1.0,0.0,0.0,10.0,0.0,0.0,-601.73303,-2.0313568,397.84875,0.089733906,0.20103699,-0.29041484,332.91217,332.857,327.1199,327.23038,275.0,275.0,334.0,331.0,89.0,89.0,89.0,89.0,0.0,0.0,0.0,0.0,0.049138635,0.04983443,0.053349975,0.053366266,0.0,0.0,0.0,0.0,454.58075,93.12629,636.2199,449.95392,0.0,0.0,0.0,2.0,1.0,3.0444813,-0.010355082,-0.0072318316,89.0,89.0,89.0,89.0,22.560669,22.560669,25.12438,25.12438,0.017269664,0.016782634,-4.372715E-4,-4.4148372E-4,1201.9991,0.0,0.0,0.0,0.0,0.0,0.0,0.0,0.0,0.0,0.0,0.0,0.0,0.0,8.863536,0.6677596,-90.486275,-0.015862554,0.018918289,-0.028711597,542348.56,119984.9,0.010962227,0.011081934,7092.213,7439.9385,5658.406,5682.896,0.30670547,0.0,0.0,0.0
210.04034,210.04034,2.366,0.0,0.0,327.67908,11777.0,100.0,0.0,-0.22096245,0.0,8.0,1.0,0.0,4000000.0,110.0,1.0,0.0,0.0,10.0,0.0,0.0,-601.29095,-2.0010533,393.3217,0.1150522,0.20659775,-0.11203121,333.14346,333.10318,327.4753,327.58435,274.0,273.0,333.0,330.0,89.0,89.0,89.0,89.0,0.0,0.0,0.0,0.0,0.049774036,0.050389454,0.05363847,0.05375091,0.0,0.0,0.0,0.0,421.73706,1051.721,88.43238,288.3508,0.0,0.0,0.0,2.0,1.0,3.0454276,-0.00916994,-0.0068392754,89.0,89.0,89.0,89.0,22.560669,22.560669,25.12438,25.12438,0.016916646,0.016481759,-4.510087E-4,-4.472237E-4,1202.5535,0.0,0.0,0.0,0.0,0.0,0.0,0.0,0.0,0.0,0.0,0.0,0.0,0.0,8.821392,0.5700614,-90.5917,0.006210209,0.018366205,-0.022154445,542184.06,119984.9,0.009851155,0.009734693,7353.1826,7702.6846,6143.728,6206.941,0.30573463,0.0,0.0,0.0
214.59464,214.59464,2.416,0.0,0.0,328.04025,11783.0,100.0,0.0,-0.18070902,0.0,8.0,1.0,0.0,4000000.0,110.0,1.0,0.0,0.0,10.0,0.0,0.0,-600.85114,-1.9724594,388.78934,0.122014515,0.20057283,0.08288379,333.30905,333.27127,327.85016,327.93332,273.0,272.0,332.0,329.0,89.0,89.0,89.0,89.0,0.0,0.0,0.0,0.0,0.050809275,0.051378362,0.05398321,0.05417005,0.0,0.0,0.0,0.0,-1416.0989,-922.94806,-223.5219,-70.82373,0.0,0.0,0.0,2.0,1.0,3.0462089,-0.008198237,-0.0069276094,89.0,89.0,89.0,89.0,22.560669,22.560669,25.12438,25.12438,0.016210273,0.015872272,-4.5130865E-4,-4.4861826E-4,1202.908,0.0,0.0,0.0,0.0,0.0,0.0,0.0,0.0,0.0,0.0,0.0,0.0,0.0,8.772937,0.5861534,-90.697105,-0.0029674233,0.013816607,-0.018233746,542067.7,119984.9,0.009042546,0.007832435,7838.2783,8168.2085,6312.761,6405.129,0.30447197,0.0,0.0,0.0
219.15395,219.15395,2.466,0.0,0.0,328.3806,11799.0,100.0,0.0,-0.09598346,0.0,8.0,1.0,0.0,4000000.0,110.0,1.0,0.0,0.0,10.0,0.0,0.0,-600.4137,-1.9430356,384.25177,0.10712871,0.19013354,-0.052841134,333.77335,333.72253,328.20755,328.26218,272.0,271.0,330.0,327.0,89.0,89.0,89.0,89.0,0.0,0.0,0.0,0.0,0.050200015,0.05066118,0.053916916,0.054110672,0.0,0.0,0.0,0.0,-176.23454,-102.72857,-75.79922,-46.187634,0.0,0.0,0.0,2.0,1.0,3.0467613,-0.007577468,-0.006294489,89.0,89.0,89.0,89.0,22.560669,22.560669,25.12438,25.12438,0.016501019,0.01621188,-4.465332E-4,-4.3897788E-4,1203.8549,0.0,0.0,0.0,0.0,0.0,0.0,0.0,0.0,0.0,0.0,0.0,0.0,0.0,8.727082,0.58146447,-90.79654,-0.010566034,0.008613946,-0.011142707,541758.75,119984.91,0.009726598,0.009308055,7560.9546,7829.519,6195.744,6280.838,0.30551815,0.0,0.0,0.0
223.71782,223.71782,2.516,0.0,0.0,328.71893,11811.0,100.0,0.0,-0.12914217,0.0,8.0,1.0,0.0,4000000.0,110.0,1.0,0.0,0.0,10.0,0.0,0.0,-599.97845,-1.9150736,379.70947,0.09852715,0.19292514,-0.084406,334.1094,334.0608,328.5465,328.59497,270.0,270.0,329.0,326.0,89.0,89.0,89.0,89.0,0.0,0.0,0.0,0.0,0.050114714,0.050562445,0.053882785,0.054061804,0.0,0.0,0.0,0.0,572.504,357.8871,141.88885,57.37244,0.0,0.0,0.0,2.0,1.0,3.0471754,-0.006968704,-0.0061608553,89.0,89.0,89.0,89.0,22.560669,22.560669,25.12438,25.12438,0.016513687,0.01624413,-4.4523328E-4,-4.4480196E-4,1204.5688,0.0,0.0,0.0,0.0,0.0,0.0,0.0,0.0,0.0,0.0,0.0,0.0,0.0,8.685586,0.53925145,-90.89519,0.003607437,0.00804552,-0.010102627,541529.3,119984.89,0.009699551,0.0095685795,7569.6616,7811.769,6175.761,6251.117,0.30572414,0.0,0.0,0.0
228.28644,228.28644,2.566,0.0,0.0,329.0607,11819.0,100.0,0.0,-0.11254952,0.0,8.0,1.0,0.0,4000000.0,110.0,1.0,0.0,0.0,10.0,0.0,0.0,-599.5451,-1.8882616,375.16223,0.085531995,0.19372138,0.042498287,334.3282,334.2882,328.89035,328.93213,269.0,269.0,328.0,325.0,89.0,89.0,89.0,89.0,0.0,0.0,0.0,0.0,0.050814047,0.05120268,0.05414592,0.05422833,0.0,0.0,0.0,0.0,199.86476,-108.49536,-60.832497,-90.309975,0.0,0.0,0.0,2.0,1.0,3.0475318,-0.006376237,-0.006439328,89.0,89.0,89.0,89.0,22.560669,22.560669,25.12438,25.12438,0.016110478,0.015887655,-4.4882818E-4,-4.4817684E-4,1205.0426,0.0,0.0,0.0,0.0,0.0,0.0,0.0,0.0,0.0,0.0,0.0,0.0,0.0,8.650995,0.5421765,-90.993835,0.005467576,0.006957026,-0.012493356,541375.6,119984.9,0.008514234,0.007911923,7886.4736,8105.277,6384.4736,6411.386,0.3043728,0.0,0.0,0.0
232.85986,232.85986,2.616,0.0,0.0,329.3947,11830.0,100.0,0.0,-0.06777244,0.0,8.0,1.0,0.0,4000000.0,110.0,1.0,0.0,0.0,10.0,0.0,0.0,-599.11334,-1.8602041,370.61005,0.0696758,0.18738782,0.0793027,334.64713,334.60916,329.231,329.26303,268.0,268.0,327.0,324.0,89.0,89.0,89.0,89.0,0.0,0.0,0.0,0.0,0.050921295,0.05122387,0.05433047,0.05434495,0.0,0.0,0.0,0.0,652.68866,131.80374,314.556,28.149782,0.0,0.0,0.0,2.0,1.0,3.0478327,-0.0056789,-0.006385207,89.0,89.0,89.0,89.0,22.560669,22.560669,25.12438,25.12438,0.015999872,0.015815781,-4.4830257E-4,-4.4422338E-4,1205.6796,0.0,0.0,0.0,0.0,0.0,0.0,0.0,0.0,0.0,0.0,0.0,0.0,0.0,8.622595,0.57800496,-91.08951,-0.0020044525,0.005130966,-0.015673365,541158.1,119984.91,0.008315417,0.007736499,7958.73,8141.4937,6513.8135,6501.875,0.30408764,0.0,0.0,0.0
237.43796,237.43796,2.666,0.0,0.0,329.7177,11845.0,100.0,0.0,-0.03323046,0.0,8.0,1.0,0.0,4000000.0,110.0,1.0,0.0,0.0,10.0,0.0,0.0,-598.68274,-1.8312594,366.0531,0.05375532,0.18269232,-0.06936206,335.0739,335.03326,329.56268,329.58038,267.0,266.0,325.0,322.0,89.0,89.0,89.0,89.0,0.0,0.0,0.0,0.0,0.05035935,0.05065797,0.054073807,0.0541294,0.0,0.0,0.0,0.0,392.90335,110.72158,110.17172,-43.599297,0.0,0.0,0.0,2.0,1.0,3.0480227,-0.0050059124,-0.0061352253,89.0,89.0,89.0,89.0,22.560669,22.560669,25.12438,25.12438,0.016286971,0.016124249,-4.431151E-4,-4.3912287E-4,1206.5674,0.0,0.0,0.0,0.0,0.0,0.0,0.0,0.0,0.0,0.0,0.0,0.0,0.0,8.60179,0.5678536,-91.181656,-0.0049764724,0.0026900496,-0.010373771,540870.8,119984.9,0.009360807,0.009050131,7674.66,7837.099,6225.2324,6245.2744,0.30515862,0.0,0.0,0.0
242.02051,242.02051,2.716,0.0,0.0,330.04126,11856.0,100.0,0.0,-0.017895883,0.0,8.0,1.0,0.0,4000000.0,110.0,1.0,0.0,0.0,10.0,0.0,0.0,-598.2532,-1.8039191,361.4916,0.039046466,0.18393317,-0.061822888,335.38712,335.3498,329.88965,329.898,266.0,265.0,324.0,321.0,89.0,89.0,89.0,89.0,0.0,0.0,0.0,0.0,0.050431058,0.05062036,0.0540437,0.054035354,0.0,0.0,0.0,0.0,439.05075,469.68158,160.30219,143.44452,0.0,0.0,0.0,2.0,1.0,3.0481153,-0.004600446,-0.006052494,89.0,89.0,89.0,89.0,22.560669,22.560669,25.12438,25.12438,0.016249154,0.01612551,-4.4389127E-4,-4.4062498E-4,1207.2094,0.0,0.0,0.0,0.0,0.0,0.0,0.0,0.0,0.0,0.0,0.0,0.0,0.0,8.588631,0.53053445,-91.2734,0.0020226748,0.0011957035,-0.00822776,540656.5,119984.89,0.009572892,0.009187475,7711.2666,7838.073,6277.421,6267.072,0.3053627,0.0,0.0,0.0
246.60762,246.60762,2.766,0.0,0.0,330.3641,11865.0,100.0,0.0,-0.05709351,0.0,8.0,1.0,0.0,4000000.0,110.0,1.0,0.0,0.0,10.0,0.0,0.0,-597.82367,-1.7776324,356.92554,0.03314992,0.18163508,0.022276297,335.63834,335.60886,330.21082,330.22153,264.0,264.0,323.0,320.0,89.0,89.0,89.0,89.0,0.0,0.0,0.0,0.0,0.05081,0.051015276,0.05420499,0.05419004,0.0,0.0,0.0,0.0,-238.01921,-75.59804,-3.3393571,34.721188,0.0,0.0,0.0,2.0,1.0,3.048183,-0.004166672,-0.006131768,89.0,89.0,89.0,89.0,22.560669,22.560669,25.12438,25.12438,0.016019015,0.015900495,-4.4187933E-4,-4.4468784E-4,1207.7357,0.0,0.0,0.0,0.0,0.0,0.0,0.0,0.0,0.0,0.0,0.0,0.0,0.0,8.580128,0.5279407,-91.36429,0.0025464282,0.001939066,-0.008794838,540481.94,119984.89,0.009047017,0.008483226,7887.7695,8005.7617,6416.578,6409.8296,0.30478,0.0,0.0,0.0
251.19804,251.19804,2.816,0.0,0.0,330.6801,11876.0,100.0,0.0,-0.032851905,0.0,8.0,1.0,0.0,4000000.0,110.0,1.0,0.0,0.0,10.0,0.0,0.0,-597.3952,-1.7508745,352.35498,0.024878927,0.1773876,0.028759476,335.94095,335.9186,330.52744,330.53772,263.0,263.0,322.0,319.0,89.0,89.0,89.0,89.0,0.0,0.0,0.0,0.0,0.05083727,0.051021323,0.054314174,0.054277133,0.0,0.0,0.0,0.0,-317.02365,-65.15085,-139.63579,-29.27631,0.0,0.0,0.0,2.0,1.0,3.0482717,-0.0037413363,-0.0061324835,89.0,89.0,89.0,89.0,22.560669,22.560669,25.12438,25.12438,0.015956452,0.015859015,-4.4211437E-4,-4.421561E-4,1208.3895,0.0,0.0,0.0,0.0,0.0,0.0,0.0,0.0,0.0,0.0,0.0,0.0,0.0,8.575532,0.54228693,-91.452805,7.3956745E-4,0.0017367379,-0.008410879,540273.6,119984.89,0.008748504,0.008245018,7911.495,8017.5684,6456.0327,6441.5425,0.30449295,0.0,0.0,0.0
255.79207,255.79207,2.866,0.0,0.0,330.9915,11889.0,100.0,0.0,-0.07445248,0.0,8.0,1.0,0.0,4000000.0,110.0,1.0,0.0,0.0,10.0,0.0,0.0,-596.96674,-1.7238036,347.78003,0.026802704,0.17633192,-0.042516127,336.29138,336.2759,330.83612,330.85358,262.0,262.0,321.0,318.0,89.0,89.0,89.0,89.0,0.0,0.0,0.0,0.0,0.050588056,0.05077051,0.05418137,0.054182407,0.0,0.0,0.0,0.0,168.32204,126.492966,316.25922,269.53516,0.0,0.0,0.0,2.0,1.0,3.048386,-0.0033743733,-0.006002307,89.0,89.0,89.0,89.0,22.560669,22.560669,25.12438,25.12438,0.016067874,0.015969444,-4.386785E-4,-4.4303856E-4,1209.1755,0.0,0.0,0.0,0.0,0.0,0.0,0.0,0.0,0.0,0.0,0.0,0.0,0.0,8.5711565,0.5338602,-91.54014,-0.004336546,0.0031326485,-0.0059169056,540033.94,119984.9,0.008520511,0.008340371,7801.929,7893.9546,6341.079,6343.173,0.30442142,0.0,0.0,0.0
260.39047,260.39047,2.916,0.0,0.0,331.30362,11899.0,100.0,0.0,-0.061549477,0.0,8.0,1.0,0.0,4000000.0,110.0,1.0,0.0,0.0,10.0,0.0,0.0,-596.53827,-1.6974947,343.20068,0.027909158,0.17699611,-0.015253796,336.58023,336.57297,331.14392,331.1673,261.0,261.0,319.0,317.0,89.0,89.0,89.0,89.0,0.0,0.0,0.0,0.0,0.050691914,0.05084881,0.05427246,0.054297216,0.0,0.0,0.0,0.0,41.265778,113.336716,-16.53581,60.912964,0.0,0.0,0.0,2.0,1.0,3.048569,-0.003075924,-0.0058864355,89.0,89.0,89.0,89.0,22.560669,22.560669,25.12438,25.12438,0.015999809,0.01591337,-4.4224632E-4,-4.4367014E-4,1209.7455,0.0,0.0,0.0,0.0,0.0,0.0,0.0,0.0,0.0,0.0,0.0,0.0,0.0,8.566044,0.5216836,-91.62777,5.397891E-4,0.004020566,-0.0054711443,539834.4,119984.9,0.0075481744,0.007664658,7855.468,7932.687,6444.9253,6459.8486,0.30367088,0.0,0.0,0.0
264.99316,264.99316,2.966,0.0,0.0,331.61612,11907.0,100.0,0.0,-0.024271136,0.0,8.0,1.0,0.0,4000000.0,110.0,1.0,0.0,0.0,10.0,0.0,0.0,-596.1098,-1.6711648,338.617,0.025224248,0.17674641,0.14307278,336.7887,336.78323,331.45786,331.47543,260.0,259.0,318.0,315.0,89.0,89.0,89.0,89.0,0.0,0.0,0.0,0.0,0.05144199,0.0514832,0.05460703,0.054591883,0.0,0.0,0.0,0.0,2127.823,1694.2037,879.0671,656.34985,0.0,0.0,0.0,2.0,1.0,3.0487442,-0.0028222045,-0.005984664,89.0,89.0,89.0,89.0,22.560669,22.560669,25.12438,25.12438,0.015647905,0.015596509,-4.4701825E-4,-4.4417643E-4,1210.2356,0.0,0.0,0.0,0.0,0.0,0.0,0.0,0.0,0.0,0.0,0.0,0.0,0.0,8.561051,0.5460952,-91.71528,0.0064026057,0.0028586437,-0.0066982214,539690.25,119984.9,0.0068973075,0.006633863,8223.589,8264.447,6822.683,6799.171,0.3026991,0.0,0.0,0.0
269.60007,269.60007,3.016,0.0,0.0,331.9145,11922.0,100.0,0.0,-0.030233586,0.0,8.0,1.0,0.0,4000000.0,110.0,1.0,0.0,0.0,10.0,0.0,0.0,-595.68195,-1.6432271,334.02902,0.024541048,0.16609903,-0.10492887,337.23572,337.2278,331.76514,331.77707,259.0,258.0,317.0,314.0,89.0,89.0,89.0,89.0,0.0,0.0,0.0,0.0,0.05056294,0.05067566,0.054069784,0.05419715,0.0,0.0,0.0,0.0,-105.30349,-462.23853,-118.82182,-244.20168,0.0,0.0,0.0,2.0,1.0,3.0488603,-0.002569227,-0.005641222,89.0,89.0,89.0,89.0,22.560669,22.560669,25.12438,25.12438,0.016040126,0.015983114,-4.3349018E-4,-4.343174E-4,1211.0865,0.0,0.0,0.0,0.0,0.0,0.0,0.0,0.0,0.0,0.0,0.0,0.0,0.0,8.556243,0.5462633,-91.798965,-0.018309442,0.0019615812,-4.814685E-4,539390.25,119984.9,0.00886644,0.008435674,7749.5566,7802.4077,6127.2646,6189.822,0.30448723,0.0,0.0,0.0
274.211,274.211,3.066,0.0,0.0,332.2079,11935.0,100.0,0.0,-0.009781645,0.0,8.0,1.0,0.0,4000000.0,110.0,1.0,0.0,0.0,10.0,0.0,0.0,-595.2546,-1.617483,329.43692,0.017039483,0.16731744,-0.16101287,337.58536,337.58344,332.06265,332.064,258.0,257.0,316.0,313.0,89.0,89.0,89.0,89.0,0.0,0.0,0.0,0.0,0.05018268,0.05018798,0.05384315,0.05394253,0.0,0.0,0.0,0.0,553.5945,528.328,-10.246066,64.7351,0.0,0.0,0.0,2.0,1.0,3.0489001,-0.002634354,-0.0051869154,89.0,89.0,89.0,89.0,22.560669,22.560669,25.12438,25.12438,0.016232053,0.016223159,-4.3270012E-4,-4.3390048E-4,1211.8699,0.0,0.0,0.0,0.0,0.0,0.0,0.0,0.0,0.0,0.0,0.0,0.0,0.0,8.555397,0.48003432,-91.88127,-0.0071141887,2.1231918E-4,0.0019523139,539151.2,119984.9,0.011105728,0.010285865,7622.1226,7631.204,6054.238,6105.0703,0.30680084,0.0,0.0,0.0
278.82605,278.82605,3.116,0.0,0.0,332.49887,11943.0,100.0,0.0,-0.039660424,0.0,8.0,1.0,0.0,4000000.0,110.0,1.0,0.0,0.0,10.0,0.0,0.0,-594.8272,-1.5949934,324.8407,0.017210957,0.16401735,-0.05907919,337.8118,337.81573,332.34723,332.3572,257.0,256.0,315.0,312.0,89.0,89.0,89.0,89.0,0.0,0.0,0.0,0.0,0.05051137,0.05053442,0.054005783,0.054101013,0.0,0.0,0.0,0.0,713.843,642.52313,176.66367,150.91449,0.0,0.0,0.0,2.0,1.0,3.0489504,-0.0027740279,-0.005060911,89.0,89.0,89.0,89.0,22.560669,22.560669,25.12438,25.12438,0.016057238,0.016039673,-4.3367618E-4,-4.3675522E-4,1212.3287,0.0,0.0,0.0,0.0,0.0,0.0,0.0,0.0,0.0,0.0,0.0,0.0,0.0,8.554481,0.4313724,-91.962776,0.005273541,0.0018140422,0.003800467,538994.06,119984.9,0.011291734,0.010697253,7773.8457,7781.8823,6329.425,6370.3906,0.30752277,0.0,0.0,0.0
283.44513,283.44513,3.166,0.0,0.0,332.79297,11948.0,100.0,0.0,-0.04469206,0.0,8.0,1.0,0.0,4000000.0,110.0,1.0,0.0,0.0,10.0,0.0,0.0,-594.39984,-1.5745392,320.24042,0.02012624,0.16868325,0.08397411,337.96875,337.9783,332.63235,332.65103,255.0,255.0,314.0,311.0,89.0,89.0,89.0,89.0,0.0,0.0,0.0,0.0,0.051304657,0.05127146,0.05440667,0.054421637,0.0,0.0,0.0,0.0,830.0497,963.0472,227.9743,227.45131,0.0,0.0,0.0,2.0,1.0,3.0490847,-0.003100764,-0.005460143,89.0,89.0,89.0,89.0,22.560669,22.560669,25.12438,25.12438,0.015663203,0.015643526,-4.4403758E-4,-4.441801E-4,1212.5859,0.0,0.0,0.0,0.0,0.0,0.0,0.0,0.0,0.0,0.0,0.0,0.0,0.0,8.552448,0.4149766,-92.04508,0.017813688,0.003189263,0.0040035406,538882.8,119984.89,0.0085434895,0.007920903,8118.491,8127.882,6691.039,6687.81,0.30460072,0.0,0.0,0.0
288.06833,288.06833,3.216,0.0,0.0,333.08392,11955.0,100.0,0.0,-0.038655654,0.0,8.0,1.0,0.0,4000000.0,110.0,1.0,0.0,0.0,10.0,0.0,0.0,-593.9725,-1.5509316,315.636,0.02094116,0.16070154,0.21754688,338.15698,338.1513,332.93015,332.94138,254.0,254.0,312.0,310.0,89.0,89.0,89.0,89.0,0.0,0.0,0.0,0.0,0.051941637,0.05204524,0.05477716,0.05479867,0.0,0.0,0.0,0.0,-1654.4532,-1786.8607,-86.24642,-167.79898,0.0,0.0,0.0,2.0,1.0,3.0491967,-0.0030008024,-0.005995512,89.0,89.0,89.0,89.0,22.560669,22.560669,25.12438,25.12438,0.015255354,0.015210327,-4.4197997E-4,-4.4366272E-4,1213.0162,0.0,0.0,0.0,0.0,0.0,0.0,0.0,0.0,0.0,0.0,0.0,0.0,0.0,8.550475,0.524244,-92.12588,-0.0026856638,0.0019211377,-0.002658727,538758.4,119984.89,0.0069523514,0.0060865856,8439.986,8490.059,6767.193,6776.1797,0.30274773,0.0,0.0,0.0
292.69534,292.69534,3.266,0.0,0.0,333.35788,11971.0,100.0,0.0,-0.03609615,0.0,8.0,1.0,0.0,4000000.0,110.0,1.0,0.0,0.0,10.0,0.0,0.0,-593.5451,-1.5234292,311.02768,0.021097058,0.15515746,-0.012582518,338.60858,338.602,333.20413,333.21866,253.0,253.0,311.0,308.0,89.0,89.0,89.0,89.0,0.0,0.0,0.0,0.0,0.050838824,0.050947845,0.054594953,0.054610502,0.0,0.0,0.0,0.0,328.7314,347.76178,-38.650616,23.522957,0.0,0.0,0.0,2.0,1.0,3.0493076,-0.0028248606,-0.005715728,89.0,89.0,89.0,89.0,22.560669,22.560669,25.12438,25.12438,0.015780164,0.015721193,-4.3532907E-4,-4.3565623E-4,1213.9564,0.0,0.0,0.0,0.0,0.0,0.0,0.0,0.0,0.0,0.0,0.0,0.0,0.0,8.546908,0.55524844,-92.20245,-0.002389601,0.0024529712,-0.0038515055,538455.3,119984.9,0.007149154,0.007650661,7911.2324,7968.199,6563.453,6572.532,0.30356407,0.0,0.0,0.0
297.3266,297.3266,3.316,0.0,0.0,333.6402,11978.0,100.0,0.0,-0.05951882,0.0,8.0,1.0,0.0,4000000.0,110.0,1.0,0.0,0.0,10.0,0.0,0.0,-593.11774,-1.4961708,306.41547,0.023151245,0.16218016,0.13263848,338.8028,338.80014,333.4802,333.498,252.0,252.0,310.0,307.0,89.0,89.0,89.0,89.0,0.0,0.0,0.0,0.0,0.0514689,0.05142485,0.054811962,0.054709647,0.0,0.0,0.0,0.0,3332.6711,2698.0605,1648.861,1132.7235,0.0,0.0,0.0,2.0,1.0,3.0494385,-0.0025506879,-0.0060367584,89.0,89.0,89.0,89.0,22.560669,22.560669,25.12438,25.12438,0.0155387325,0.015501907,-4.415265E-4,-4.4303364E-4,1214.3612,0.0,0.0,0.0,0.0,0.0,0.0,0.0,0.0,0.0,0.0,0.0,0.0,0.0,8.543243,0.55635136,-92.28155,0.020372555,0.0031723632,-0.011922349,538320.06,119984.89,0.0065572583,0.006874817,8249.385,8255.947,7018.254,6933.3037,0.30280495,0.0,0.0,0.0
301.96344,301.96344,3.366,0.0,0.0,333.91794,11989.0,100.0,0.0,-0.040114958,0.0,8.0,1.0,0.0,4000000.0,110.0,1.0,0.0,0.0,10.0,0.0,0.0,-592.69037,-1.4672594,301.79935,0.02522752,0.15413477,-0.017238345,339.12924,339.12393,333.76288,333.78452,251.0,251.0,309.0,306.0,89.0,89.0,89.0,89.0,0.0,0.0,0.0,0.0,0.05106181,0.05122781,0.05428842,0.054446537,0.0,0.0,0.0,0.0,-326.22366,-914.5258,185.44795,-134.63347,0.0,0.0,0.0,2.0,1.0,3.049616,-0.0020566126,-0.0062048435,89.0,89.0,89.0,89.0,22.560669,22.560669,25.12438,25.12438,0.015632046,0.0155542195,-4.3362184E-4,-4.3356448E-4,1214.9803,0.0,0.0,0.0,0.0,0.0,0.0,0.0,0.0,0.0,0.0,0.0,0.0,0.0,8.537494,0.5819173,-92.359406,-0.014853325,0.0035820007,-1.378638E-4,538100.4,119984.89,0.007701279,0.007131435,8003.3633,8079.681,6310.575,6385.676,0.30342007,0.0,0.0,0.0
306.604,306.604,3.416,0.0,0.0,334.18518,12002.0,100.0,0.0,-0.07784287,0.0,8.0,1.0,0.0,4000000.0,110.0,1.0,0.0,0.0,10.0,0.0,0.0,-592.2639,-1.4388703,297.17938,0.031533413,0.15149231,-0.13175677,339.5001,339.51056,334.03003,334.05493,250.0,249.0,308.0,305.0,89.0,89.0,89.0,89.0,0.0,0.0,0.0,0.0,0.05046728,0.050486807,0.053976465,0.05414347,0.0,0.0,0.0,0.0,327.8464,291.55606,4.3854327,146.006,0.0,0.0,0.0,2.0,1.0,3.0497987,-0.0020918406,-0.0056147575,89.0,89.0,89.0,89.0,22.560669,22.560669,25.12438,25.12438,0.015952045,0.015912453,-4.2564303E-4,-4.3091326E-4,1215.6307,0.0,0.0,0.0,0.0,0.0,0.0,0.0,0.0,0.0,0.0,0.0,0.0,0.0,8.530363,0.5422853,-92.43485,-0.014731233,0.004408046,2.4385366E-4,537805.25,119984.9,0.010495663,0.009462607,7738.8433,7759.585,6117.5537,6208.453,0.30627537,0.0,0.0,0.0
311.24823,311.24823,3.466,0.0,0.0,334.44617,12013.0,100.0,0.0,-0.07615013,0.0,8.0,1.0,0.0,4000000.0,110.0,1.0,0.0,0.0,10.0,0.0,0.0,-591.83765,-1.4139637,292.55573,0.033935286,0.1478829,-0.12927946,339.80103,339.8157,334.2883,334.3142,249.0,248.0,307.0,304.0,89.0,89.0,89.0,89.0,0.0,0.0,0.0,0.0,0.050224524,0.05019797,0.053936306,0.054137163,0.0,0.0,0.0,0.0,895.8577,711.4693,490.92468,328.79855,0.0,0.0,0.0,2.0,1.0,3.05001,-0.0023752581,-0.005159974,89.0,89.0,89.0,89.0,22.560669,22.560669,25.12438,25.12438,0.016097732,0.016074434,-4.2601803E-4,-4.3036675E-4,1215.9932,0.0,0.0,0.0,0.0,0.0,0.0,0.0,0.0,0.0,0.0,0.0,0.0,0.0,8.522076,0.46415988,-92.50885,0.0014961967,0.004520956,0.007240369,537473.0,119984.9,0.011460761,0.011366904,7640.42,7644.22,6288.253,6372.9585,0.30833435,0.0,0.0,0.0
315.89615,315.89615,3.516,0.0,0.0,334.71695,12016.0,100.0,0.0,-0.048504617,0.0,8.0,1.0,0.0,4000000.0,110.0,1.0,0.0,0.0,10.0,0.0,0.0,-591.4117,-1.3925352,287.92828,0.035290465,0.15723303,0.07279169,339.86646,339.88245,334.55267,334.57794,248.0,247.0,305.0,303.0,89.0,89.0,89.0,89.0,0.0,0.0,0.0,0.0,0.051451694,0.051360656,0.05438065,0.054517653,0.0,0.0,0.0,0.0,1107.1353,1149.3531,312.5846,389.14825,0.0,0.0,0.0,2.0,1.0,3.050233,-0.0030373957,-0.005717993,89.0,89.0,89.0,89.0,22.560669,22.560669,25.12438,25.12438,0.015515797,0.015499152,-4.4162382E-4,-4.4092498E-4,1216.1176,0.0,0.0,0.0,0.0,0.0,0.0,0.0,0.0,0.0,0.0,0.0,0.0,0.0,8.512068,0.42820928,-92.58548,0.02160956,0.004214275,0.011597949,537393.8,119984.9,0.008437099,0.007826288,8164.5303,8167.3047,6701.244,6756.7026,0.30578518,0.0,0.0,0.0
320.54785,320.54785,3.566,0.0,0.0,334.9877,12021.0,100.0,0.0,-0.114033,0.0,8.0,1.0,0.0,4000000.0,110.0,1.0,0.0,0.0,10.0,0.0,0.0,-590.9865,-1.3684645,283.297,0.043890454,0.15122825,0.21642643,340.03296,340.03564,334.82364,334.85135,247.0,246.0,304.0,302.0,89.0,89.0,89.0,89.0,0.0,0.0,0.0,0.0,0.05191144,0.052007258,0.05484693,0.05498866,0.0,0.0,0.0,0.0,107.395645,3.1918285,878.8659,606.91675,0.0,0.0,0.0,2.0,1.0,3.0504327,-0.0032295776,-0.006354451,89.0,89.0,89.0,89.0,22.560669,22.560669,25.12438,25.12438,0.015124143,0.015059886,-4.3987398E-4,-4.4737654E-4,1216.2195,0.0,0.0,0.0,0.0,0.0,0.0,0.0,0.0,0.0,0.0,0.0,0.0,0.0,8.499823,0.52897155,-92.66161,0.0029654347,0.0049617738,0.0020568983,537215.3,119984.9,0.0051537966,0.0047374344,8480.812,8535.455,6926.326,6980.273,0.3013296,0.0,0.0,0.0
