LapDistance [m],TotalDistance [m],LapTime [s],Sector1Time [s],Sector2Time [s],Speed [km/h],EngineRevs [rpm],ThrottlePercentage [%],BrakePercentage [%],Steer [%],Clutch [%],Gear [int],DRS [0/1],CanUseDRS [0/1],KERSLevel [J],EngineTemperature [C],RacePosition [int],Sector [int],InPits [int],FuelRemaining [kg],CurrentFlag [int],CurrentLapInvalid [int],X [m],Y [m],Z [m],GForceLatitudinal [G],GForceLongitudinal [G],GForceVertical [G],WheelSpeedRearLeft [km/h],WheelSpeedRearRight [km/h],WheelSpeedFrontLeft [km/h],WheelSpeedFrontRight [km/h],BrakeTemperatureRearLeft [C],BrakeTemperatureRearRight [C],BrakeTemperatureFrontLeft [C],BrakeTemperatureFrontRight [C],TyreTemperatureRearLeft [C],TyreTemperatureRearRight [C],TyreTemperatureFrontLeft [C],TyreTemperatureFrontRight [C],TyreWearRearLeft [%],TyreWearRearRight [%],TyreWearFrontLeft [%],TyreWearFrontRight [%],SuspensionPositionRearLeft [m],SuspensionPositionRearRight [m],SuspensionPositionFrontLeft [m],SuspensionPositionFrontRight [m],SuspensionVelocityRearLeft [m/s],SuspensionVelocityRearRight [m/s],SuspensionVelocityFrontLeft [m/s],SuspensionVelocityFrontRight [m/s],SuspensionAccelerationRearLeft [m/s^2],SuspensionAccelerationRearRight [m/s^2],SuspensionAccelerationFrontLeft [m/s^2],SuspensionAccelerationFrontRight [m/s^2],MGUKHarvested [J],MGUHHarvested [J],ERSSpent [J],ERSMode [int],FuelMixMode [int],Yaw [rad],Roll [rad],Pitch [rad],TyreCarcassTemperatureRearLeft [C],TyreCarcassTemperatureRearRight [C],TyreCarcassTemperatureFrontLeft [C],TyreCarcassTemperatureFrontRight [C],TyrePressureRearLeft [PSI],TyrePressureRearRight [PSI],TyrePressureFrontLeft [PSI],TyrePressureFrontRight [PSI],WheelSlipRearLeft [%],WheelSlipRearRight [%],WheelSlipFrontLeft [%],WheelSlipFrontRight [%],Torque [Nm],Handbrake [%],RearLeftInside [C],RearLeftMiddle [C],RearLeftOutside [C],RearRightInside [C],RearRightMiddle [C],RearRightOutside [C],FrontLeftInside [C],FrontLeftMiddle [C],FrontLeftOutside [C],FrontRightInside [C],FrontRightMiddle [C],FrontRightOutside [C],WoldSpeedX [km/h],WoldSpeedY [km/h],WoldSpeedZ [km/h],LocalAngularVelocityX [rad/s],LocalAngularVelocityY [rad/s],LocalAngularVelocityZ [rad/s],IcePower [W],MgukPower [W],FrontRideHeight [m],RearRideHeight [m],LoadRearLeft [N],LoadRearRight [N],LoadFrontLeft [N],LoadFrontRight [N],Extra1 [m],Extra2 [],Extra3 [],Extra4 []
2.146093,2.146093,0.016,0.0,0.0,303.27338,10842.0,100.0,0.0,-0.20593616,0.0,8.0,1.0,0.0,4000000.0,110.0,1.0,0.0,0.0,10.0,0.0,0.0,-57.281376,3.4691658,160.09747,0.08910112,0.24824488,-0.0316294,308.2422,308.2484,303.11157,303.17712,87.0,87.0,107.0,101.0,97.0,97.0,97.0,97.0,0.0,0.0,0.0,0.0,0.04594726,0.046135332,0.053318046,0.053866334,23.619978,22.936909,-7.570758,-12.205838,-263.07104,-64.77538,705.2868,-529.07904,0.0,0.0,0.0,2.0,1.0,-2.8592904,0.020348992,0.0011817217,97.0,97.0,97.0,97.0,21.302864,21.302864,24.666473,24.666473,0.016496059,0.016337167,-4.2641035E-4,-4.288748E-4,1116.718,0.0,0.0,0.0,0.0,0.0,0.0,0.0,0.0,0.0,0.0,0.0,0.0,0.0,-23.399103,-0.009013291,-80.927734,-0.01271564,0.011372828,0.006940167,546904.06,119984.9,0.009437346,0.01152769,8081.839,8181.4937,6492.562,6697.226,0.30102062,0.0,0.0,0.0
6.3616433,6.3616433,0.066,0.0,0.0,303.69922,10860.0,100.0,0.0,-0.19098282,0.0,8.0,1.0,0.0,4000000.0,110.0,1.0,0.0,0.0,10.0,0.0,0.0,-58.45331,3.4682007,156.0484,0.08864915,0.24292305,-0.05078152,308.77234,308.79688,303.53677,303.599,87.0,86.0,107.0,101.0,97.0,97.0,97.0,97.0,0.0,0.0,0.0,0.0,0.045089908,0.045519367,0.053587705,0.05411206,-12.300834,-23.872553,5.29468,8.416995,1022.7797,-509.36478,-87.70823,38.261715,0.0,0.0,0.0,2.0,1.0,-2.8587525,0.020080797,0.0018478632,97.0,97.0,97.0,97.0,21.302864,21.302864,24.666473,24.666473,0.016852906,0.016770096,-4.2418746E-4,-4.2879995E-4,1119.246,0.0,0.0,0.0,0.0,0.0,0.0,0.0,0.0,0.0,0.0,0.0,0.0,0.0,-23.474009,-0.030450327,-81.0292,0.002935198,0.010572707,0.004985946,547233.56,119984.9,0.008304901,0.012983692,7821.156,7842.385,6840.0254,7088.046,0.30231857,0.0,0.0,0.0
10.583102,10.583102,0.133,0.0,0.0,304.12802,10868.0,100.0,0.0,-0.15525182,0.0,8.0,1.0,0.0,4000000.0,110.0,1.0,0.0,0.0,10.0,0.0,0.0,-59.628944,3.467537,151.99423,0.084846325,0.24070473,0.13190183,309.0091,309.00592,303.96368,304.0167,86.0,86.0,106.0,100.0,97.0,97.0,97.0,97.0,0.0,0.0,0.0,0.0,0.046557367,0.047142033,0.054140836,0.054557305,0.0,0.0,0.0,0.0,104.485466,450.69144,-1776.1587,-1276.2887,0.0,0.0,0.0,2.0,1.0,-2.8582964,0.020173885,5.296469E-4,97.0,97.0,97.0,97.0,21.302864,21.302864,24.666473,24.666473,0.016202101,0.01603997,-4.2870874E-4,-4.306052E-4,1120.3567,0.0,0.0,0.0,0.0,0.0,0.0,0.0,0.0,0.0,0.0,0.0,0.0,0.0,-23.546864,0.016797246,-81.132095,0.037599877,0.008105374,-0.014891549,547373.4,119984.89,0.006583426,0.009878551,8299.137,8450.15,7100.2686,7299.298,0.2983637,0.0,0.0,0.0
14.810504,14.810504,0.166,0.0,0.0,304.55515,10887.0,100.0,0.0,-0.1966876,0.0,8.0,1.0,0.0,4000000.0,110.0,1.0,0.0,0.0,10.0,0.0,0.0,-60.808224,3.4691176,147.93492,0.0869482,0.23580606,0.03849507,309.55328,309.52786,304.4009,304.45758,86.0,86.0,106.0,100.0,97.0,97.0,97.0,97.0,0.0,0.0,0.0,0.0,0.047470987,0.04794975,0.053575397,0.053992175,-17.380043,-30.031128,0.90882176,1.8581002,-2598.2957,-3680.0974,889.33997,1000.893,0.0,0.0,0.0,2.0,1.0,-2.8578367,0.020348944,6.631613E-4,97.0,97.0,97.0,97.0,21.302864,21.302864,24.666473,24.666473,0.016452672,0.016215077,-4.1934924E-4,-4.2564704E-4,1122.9819,0.0,0.0,0.0,0.0,0.0,0.0,0.0,0.0,0.0,0.0,0.0,0.0,0.0,-23.620014,0.04162485,-81.23438,-0.028322166,0.010308715,0.009345785,547698.5,119984.89,0.008445519,0.0097518265,8043.275,8233.639,6765.923,6962.3257,0.29965496,0.0,0.0,0.0
19.043642,19.043642,0.216,0.0,0.0,304.96368,10907.0,100.0,0.0,-0.17447196,0.0,8.0,1.0,0.0,4000000.0,110.0,1.0,0.0,0.0,10.0,0.0,0.0,-61.99109,3.4699395,143.87067,0.08098741,0.23136643,-0.13573933,310.11484,310.11505,304.80972,304.86343,86.0,85.0,106.0,100.0,97.0,97.0,97.0,97.0,0.0,0.0,0.0,0.0,0.04545261,0.045757458,0.05338428,0.053889323,-38.599667,-41.36078,3.9379294,-3.8990376,65.67397,356.65326,829.4462,-137.86554,0.0,0.0,0.0,2.0,1.0,-2.857352,0.020062314,0.0019266605,97.0,97.0,97.0,97.0,21.302864,21.302864,24.666473,24.666473,0.016995559,0.016845131,-4.1811087E-4,-4.2124465E-4,1125.7645,0.0,0.0,0.0,0.0,0.0,0.0,0.0,0.0,0.0,0.0,0.0,0.0,0.0,-23.69075,-0.013160963,-81.332,-0.0158554,0.009493733,0.0109686125,548048.8,119984.89,0.010026783,0.0136401905,7657.7725,7755.4277,6651.465,6836.6577,0.30260277,0.0,0.0,0.0
23.282509,23.282509,0.266,0.0,0.0,305.37216,10917.0,100.0,0.0,-0.15575069,0.0,8.0,1.0,0.0,4000000.0,110.0,1.0,0.0,0.0,10.0,0.0,0.0,-63.177555,3.4680338,139.80147,0.08363141,0.23302054,-0.021414982,310.39572,310.39896,305.20892,305.26804,85.0,85.0,105.0,99.0,97.0,97.0,97.0,97.0,0.0,0.0,0.0,0.0,0.044766236,0.04527015,0.05376358,0.054191656,13.881548,10.956823,6.5213437,9.629354,1994.8392,1336.692,-122.30869,247.59471,0.0,0.0,0.0,2.0,1.0,-2.8568652,0.019897602,0.001804471,97.0,97.0,97.0,97.0,21.302864,21.302864,24.666473,24.666473,0.016624551,0.016468726,-4.2463996E-4,-4.2588796E-4,1127.1569,0.0,0.0,0.0,0.0,0.0,0.0,0.0,0.0,0.0,0.0,0.0,0.0,0.0,-23.76328,-0.049257,-81.42902,0.018993806,0.009598198,-0.0039158748,548224.0,119984.89,0.008468395,0.013289583,7946.9194,8056.826,6954.42,7163.724,0.3015213,0.0,0.0,0.0
27.52711,27.52711,0.316,0.0,0.0,305.78198,10926.0,100.0,0.0,-0.121383786,0.0,8.0,1.0,0.0,4000000.0,110.0,1.0,0.0,0.0,10.0,0.0,0.0,-64.367546,3.466595,135.72733,0.07917671,0.23281059,0.08457658,310.65314,310.6444,305.62244,305.67365,85.0,85.0,105.0,99.0,97.0,97.0,97.0,97.0,0.0,0.0,0.0,0.0,0.047003534,0.047829006,0.053829603,0.054384675,38.86096,61.373184,-12.474283,0.5304068,-367.66385,21.658857,-430.19946,-444.737,0.0,0.0,0.0,2.0,1.0,-2.8564358,0.020796472,5.0354004E-4,97.0,97.0,97.0,97.0,21.302864,21.302864,24.666473,24.666473,0.016063115,0.015874395,-4.2689889E-4,-4.2744048E-4,1128.4083,0.0,0.0,0.0,0.0,0.0,0.0,0.0,0.0,0.0,0.0,0.0,0.0,0.0,-23.8327,-0.008365983,-81.52736,0.012401925,0.008292205,-0.011580228,548380.6,119984.91,0.007595163,0.009391266,8352.094,8553.065,6838.742,7119.992,0.299078,0.0,0.0,0.0
31.77732,31.77732,0.366,0.0,0.0,306.1851,10943.0,100.0,0.0,-0.1336139,0.0,8.0,1.0,0.0,4000000.0,110.0,1.0,0.0,0.0,10.0,0.0,0.0,-65.56088,3.467418,131.64828,0.07154365,0.22431567,0.05699389,311.1677,311.11942,306.03885,306.0712,85.0,84.0,105.0,99.0,97.0,97.0,97.0,97.0,0.0,0.0,0.0,0.0,0.047354043,0.04802323,0.05415552,0.05416441,-19.18584,-19.507929,5.0932913,3.7081537,-1347.5148,-980.62897,-575.9909,837.47943,0.0,0.0,0.0,2.0,1.0,-2.8561075,0.021208938,6.790161E-4,97.0,97.0,97.0,97.0,21.302864,21.302864,24.666473,24.666473,0.016337177,0.016089272,-4.2258992E-4,-4.2396056E-4,1130.7866,0.0,0.0,0.0,0.0,0.0,0.0,0.0,0.0,0.0,0.0,0.0,0.0,0.0,-23.896898,0.03374492,-81.625244,-0.009634731,0.0054910523,-0.011920473,548682.7,119984.89,0.0072244676,0.00976147,8074.945,8353.596,7126.8,7147.7705,0.29944324,0.0,0.0,0.0
36.03294,36.03294,0.433,0.0,0.0,306.58362,10959.0,100.0,0.0,-0.13530666,0.0,8.0,1.0,0.0,4000000.0,110.0,1.0,0.0,0.0,10.0,0.0,0.0,-66.757385,3.4688745,127.56453,0.060669634,0.22702715,-0.07025037,311.56537,311.58337,306.43353,306.47705,85.0,84.0,104.0,99.0,97.0,97.0,97.0,97.0,0.0,0.0,0.0,0.0,0.0468385,0.04716511,0.053471424,0.054174244,0.0,0.0,0.0,0.0,307.42136,122.56347,468.59525,-457.26294,0.0,0.0,0.0,2.0,1.0,-2.8557696,0.021460876,8.9275837E-4,97.0,97.0,97.0,97.0,21.302864,21.302864,24.666473,24.666473,0.016332768,0.016269904,-4.1979787E-4,-4.2343696E-4,1132.9843,0.0,0.0,0.0,0.0,0.0,0.0,0.0,0.0,0.0,0.0,0.0,0.0,0.0,-23.95918,0.016570497,-81.72236,-0.0117396815,0.007753684,0.014030354,548946.44,119984.89,0.0082264375,0.010437573,8115.675,8146.7495,6584.0664,6901.8706,0.30045795,0.0,0.0,0.0
40.294094,40.294094,0.466,0.0,0.0,306.97513,10970.0,100.0,0.0,-0.12781836,0.0,8.0,1.0,0.0,4000000.0,110.0,1.0,0.0,0.0,10.0,0.0,0.0,-67.95692,3.4700928,123.475876,0.057893556,0.22045688,0.08192321,311.8844,311.92215,306.8157,306.86145,84.0,84.0,104.0,98.0,97.0,97.0,97.0,97.0,0.0,0.0,0.0,0.0,0.046978824,0.046968535,0.0542592,0.05470446,25.29189,-0.16719101,12.774243,-5.2808223,1613.6437,-146.30107,-774.63525,-2269.7925,0.0,0.0,0.0,2.0,1.0,-2.855398,0.020166773,5.2571297E-4,97.0,97.0,97.0,97.0,21.302864,21.302864,24.666473,24.666473,0.01612999,0.016158612,-4.246809E-4,-4.238703E-4,1134.541,0.0,0.0,0.0,0.0,0.0,0.0,0.0,0.0,0.0,0.0,0.0,0.0,0.0,-24.017796,0.043663118,-81.81849,0.040980753,0.0068851025,0.015848583,549149.5,119984.89,0.0064409543,0.010310774,8318.667,8235.939,7290.879,7409.9395,0.29829693,0.0,0.0,0.0
44.56071,44.56071,0.516,0.0,0.0,307.3691,10986.0,100.0,0.0,-0.1296664,0.0,8.0,1.0,0.0,4000000.0,110.0,1.0,0.0,0.0,10.0,0.0,0.0,-69.159424,3.472675,119.3824,0.0648535,0.2194677,-0.0062123453,312.3595,312.32144,307.22098,307.26074,84.0,84.0,104.0,98.0,97.0,97.0,97.0,97.0,0.0,0.0,0.0,0.0,0.047586422,0.048039224,0.053990893,0.053877093,-17.970352,-9.650364,-4.023313,-8.146091,-2273.8557,-3102.2424,23.965557,522.1322,0.0,0.0,0.0,2.0,1.0,-2.85506,0.020315064,1.19924545E-4,97.0,97.0,97.0,97.0,21.302864,21.302864,24.666473,24.666473,0.016272329,0.016069923,-4.2095123E-4,-4.1882612E-4,1136.7488,0.0,0.0,0.0,0.0,0.0,0.0,0.0,0.0,0.0,0.0,0.0,0.0,0.0,-24.078884,0.054473348,-81.9146,-0.020935707,0.006770772,-0.017326118,549416.75,119984.9,0.0075450228,0.008966729,8084.6787,8277.027,6899.238,6842.7886,0.29820728,0.0,0.0,0.0
48.832733,48.832733,0.566,0.0,0.0,307.75534,11002.0,100.0,0.0,-0.11560819,0.0,8.0,1.0,0.0,4000000.0,110.0,1.0,0.0,0.0,10.0,0.0,0.0,-70.36499,3.4746206,115.28417,0.060930073,0.215357,-0.08119967,312.82367,312.80432,307.60754,307.64694,84.0,83.0,103.0,98.0,97.0,97.0,97.0,97.0,0.0,0.0,0.0,0.0,0.046298943,0.047076557,0.05367939,0.05415374,-24.562775,-26.000885,-7.7229733,9.563639,-313.805,-568.45386,-305.31583,199.3149,0.0,0.0,0.0,2.0,1.0,-2.854715,0.021269035,0.0010260344,97.0,97.0,97.0,97.0,21.302864,21.302864,24.666473,24.666473,0.016556114,0.016373564,-4.1525028E-4,-4.1956443E-4,1138.9083,0.0,0.0,0.0,0.0,0.0,0.0,0.0,0.0,0.0,0.0,0.0,0.0,0.0,-24.13964,0.022931667,-82.008575,-0.015235374,0.0070672543,-0.0034700364,549660.0,119984.9,0.008220207,0.010962933,7883.9453,8034.263,6797.827,7081.773,0.2995243,0.0,0.0,0.0
53.110054,53.110054,0.616,0.0,0.0,308.13565,11015.0,100.0,0.0,-0.06813285,0.0,8.0,1.0,0.0,4000000.0,110.0,1.0,0.0,0.0,10.0,0.0,0.0,-71.573456,3.4745507,111.18126,0.049521904,0.21290235,-0.07012801,313.18735,313.18118,307.9915,308.02148,83.0,83.0,103.0,97.0,97.0,97.0,97.0,97.0,0.0,0.0,0.0,0.0,0.045804,0.046272025,0.053728886,0.05412904,-8.253157,-9.992569,7.8181915,1.772493,-217.70146,358.27603,416.6543,311.57877,0.0,0.0,0.0,2.0,1.0,-2.8544037,0.020955179,0.0015645027,97.0,97.0,97.0,97.0,21.302864,21.302864,24.666473,24.666473,0.016479595,0.016370362,-4.188727E-4,-4.1601836E-4,1140.2828,0.0,0.0,0.0,0.0,0.0,0.0,0.0,0.0,0.0,0.0,0.0,0.0,0.0,-24.195032,-0.019656356,-82.10239,-0.0023983172,0.0050051273,0.012388515,549673.9,119984.9,0.0086391885,0.012041266,7936.3438,8043.254,6906.8037,7070.789,0.3011322,0.0,0.0,0.0
57.392582,57.392582,0.683,0.0,0.0,308.51175,11026.0,100.0,0.0,0.0044061514,0.0,8.0,1.0,0.0,4000000.0,110.0,1.0,0.0,0.0,10.0,0.0,0.0,-72.78449,3.4727755,107.07367,0.033374615,0.21344799,-0.03267803,313.48505,313.46967,308.37723,308.38464,83.0,83.0,103.0,97.0,97.0,97.0,97.0,97.0,0.0,0.0,0.0,0.0,0.04618286,0.046478488,0.053930115,0.054078102,0.0,0.0,0.0,0.0,874.3598,1162.1876,-303.8272,-335.83936,0.0,0.0,0.0,2.0,1.0,-2.8542624,0.020792555,0.0014375448,97.0,97.0,97.0,97.0,21.302864,21.302864,24.666473,24.666473,0.016179856,0.01612404,-4.2283017E-4,-4.148513E-4,1141.4446,0.0,0.0,0.0,0.0,0.0,0.0,0.0,0.0,0.0,0.0,0.0,0.0,0.0,-24.243778,-0.044986468,-82.19692,0.0023252429,7.1623625E-4,-0.0036021427,549684.94,119984.9,0.008446426,0.0111634405,8167.867,8246.582,6941.717,6992.421,0.29954624,0.0,0.0,0.0
61.68033,61.68033,0.733,0.0,0.0,308.8815,11038.0,100.0,0.0,0.05577415,0.0,8.0,1.0,0.0,4000000.0,110.0,1.0,0.0,0.0,10.0,0.0,0.0,-73.997696,3.470605,102.96127,0.0081834495,0.20598638,0.038894746,313.87506,313.81143,308.76273,308.73657,83.0,82.0,102.0,97.0,97.0,97.0,97.0,97.0,0.0,0.0,0.0,0.0,0.046778753,0.047470827,0.054362692,0.05419526,0.0,0.0,0.0,0.0,-1061.5376,-814.9355,-271.4127,249.80751,0.0,0.0,0.0,2.0,1.0,-2.854379,0.02125182,0.0014153719,97.0,97.0,97.0,97.0,21.302864,21.302864,24.666473,24.666473,0.016166048,0.016057,-4.21645E-4,-4.1735027E-4,1142.7155,0.0,0.0,0.0,0.0,0.0,0.0,0.0,0.0,0.0,0.0,0.0,0.0,0.0,-24.280087,-0.03564449,-82.293304,0.0037334636,-0.004934937,-0.018074356,549698.7,119984.9,0.0076093925,0.010701229,8134.534,8292.637,7291.888,7224.0957,0.30042744,0.0,0.0,0.0
65.973175,65.973175,0.766,0.0,0.0,309.24774,11049.0,100.0,0.0,0.03475353,0.0,8.0,1.0,0.0,4000000.0,110.0,1.0,0.0,0.0,10.0,0.0,0.0,-75.21242,3.4692678,98.84401,-0.010604218,0.20736013,0.03141087,314.15207,314.13794,309.13028,309.10468,83.0,82.0,102.0,97.0,97.0,97.0,97.0,97.0,0.0,0.0,0.0,0.0,0.047918126,0.047974907,0.053964246,0.054328177,26.936975,15.044956,-10.99728,-0.87037677,-446.14526,670.24365,-51.94101,-68.852295,0.0,0.0,0.0,2.0,1.0,-2.8546252,0.02137057,8.724928E-4,97.0,97.0,97.0,97.0,21.302864,21.302864,24.666473,24.666473,0.015868869,0.015864648,-4.1551972E-4,-4.2070687E-4,1143.8778,0.0,0.0,0.0,0.0,0.0,0.0,0.0,0.0,0.0,0.0,0.0,0.0,0.0,-24.30574,-0.019634241,-82.39181,0.0037164306,-0.004135502,0.011635075,549710.06,119984.89,0.008423422,0.009589121,8398.965,8443.176,6904.939,7103.544,0.2996893,0.0,0.0,0.0
70.271065,70.271065,0.816,0.0,0.0,309.6058,11065.0,100.0,0.0,-0.038034875,0.0,8.0,1.0,0.0,4000000.0,110.0,1.0,0.0,0.0,10.0,0.0,0.0,-76.42824,3.467964,94.72182,-0.011439472,0.20376232,-0.06261688,314.6105,314.6164,309.48135,309.47345,82.0,82.0,102.0,96.0,97.0,97.0,97.0,97.0,0.0,0.0,0.0,0.0,0.047310773,0.04714016,0.053982466,0.05402864,-21.12776,-20.275488,5.086362,0.47072765,296.46445,498.9578,517.9345,847.16223,0.0,0.0,0.0,2.0,1.0,-2.854759,0.02074135,0.0013512373,97.0,97.0,97.0,97.0,21.302864,21.302864,24.666473,24.666473,0.016197234,0.016237926,-4.1069463E-4,-4.1992735E-4,1145.5707,0.0,0.0,0.0,0.0,0.0,0.0,0.0,0.0,0.0,0.0,0.0,0.0,0.0,-24.32682,-0.04058989,-82.48928,-0.007306153,-7.6858816E-4,0.009160098,549727.5,119984.89,0.0086242175,0.01093622,8117.626,8086.5625,7008.9624,7019.371,0.30064297,0.0,0.0,0.0
74.5739,74.5739,0.883,0.0,0.0,309.9618,11075.0,100.0,0.0,-0.079721086,0.0,8.0,1.0,0.0,4000000.0,110.0,1.0,0.0,0.0,10.0,0.0,0.0,-77.6453,3.4659832,90.59485,0.0052830093,0.20060298,0.045998476,314.8745,314.87234,309.81842,309.8398,82.0,82.0,101.0,96.0,97.0,97.0,97.0,97.0,0.0,0.0,0.0,0.0,0.047451384,0.04745461,0.054398663,0.054317746,0.0,0.0,0.0,0.0,675.17896,1091.4443,151.0754,-535.8517,0.0,0.0,0.0,2.0,1.0,-2.8546686,0.020625705,0.0011121035,97.0,97.0,97.0,97.0,21.302864,21.302864,24.666473,24.666473,0.01593462,0.01588452,-4.1805478E-4,-4.1855185E-4,1146.6266,0.0,0.0,0.0,0.0,0.0,0.0,0.0,0.0,0.0,0.0,0.0,0.0,0.0,-24.35508,-0.031744044,-82.584045,0.011897683,0.00329781,-0.011637578,549737.4,119984.91,0.0074773394,0.010178387,8343.272,8388.918,7306.216,7220.7646,0.3003912,0.0,0.0,0.0
78.88167,78.88167,0.933,0.0,0.0,310.3154,11085.0,100.0,0.0,-0.005421094,0.0,8.0,1.0,0.0,4000000.0,110.0,1.0,0.0,0.0,10.0,0.0,0.0,-78.863846,3.4656131,86.46317,0.0064016804,0.20081821,0.12393697,315.1652,315.1524,310.17584,310.18738,82.0,81.0,101.0,96.0,97.0,97.0,97.0,97.0,0.0,0.0,0.0,0.0,0.04843145,0.048560172,0.05446693,0.054595612,0.0,0.0,0.0,0.0,777.1699,-1910.0276,-776.7139,-220.50438,0.0,0.0,0.0,2.0,1.0,-2.8545537,0.021222826,1.4138222E-4,97.0,97.0,97.0,97.0,21.302864,21.302864,24.666473,24.666473,0.015695788,0.015619491,-4.2141112E-4,-4.1876215E-4,1147.6843,0.0,0.0,0.0,0.0,0.0,0.0,0.0,0.0,0.0,0.0,0.0,0.0,0.0,-24.38511,0.019791957,-82.677605,0.01823312,0.0013728836,-0.0030660185,549748.1,119984.91,0.0064281723,0.008233148,8523.502,8620.7705,7252.644,7369.2217,0.29818916,0.0,0.0,0.0
83.19462,83.19462,0.983,0.0,0.0,310.66302,11100.0,100.0,0.0,0.0475322,0.0,8.0,1.0,0.0,4000000.0,110.0,1.0,0.0,0.0,10.0,0.0,0.0,-80.08381,3.4678998,82.326805,-0.0067282133,0.19076449,-0.0049922643,315.58096,315.61588,310.5415,310.53522,82.0,81.0,101.0,95.0,97.0,97.0,97.0,97.0,0.0,0.0,0.0,0.0,0.048129696,0.047933973,0.053862266,0.054416537,0.0,0.0,0.0,0.0,-1081.8419,-1361.6903,187.43275,-268.38177,0.0,0.0,0.0,2.0,1.0,-2.8545504,0.020541325,5.7315826E-4,97.0,97.0,97.0,97.0,21.302864,21.302864,24.666473,24.666473,0.015803885,0.015926214,-4.1117723E-4,-4.1028069E-4,1149.2716,0.0,0.0,0.0,0.0,0.0,0.0,0.0,0.0,0.0,0.0,0.0,0.0,0.0,-24.410757,0.054212857,-82.7707,-0.02031467,-5.2192516E-4,0.03563361,549764.5,119984.91,0.008629473,0.0095560225,8396.83,8269.424,6837.038,7093.9717,0.30001736,0.0,0.0,0.0
87.512764,87.512764,1.016,0.0,0.0,310.995,11118.0,100.0,0.0,0.05003165,0.0,8.0,1.0,0.0,4000000.0,110.0,1.0,0.0,0.0,10.0,0.0,0.0,-81.30496,3.4686613,78.18593,-0.012057584,0.18941912,-0.09588033,316.0915,316.0976,310.87454,310.85434,81.0,81.0,101.0,95.0,97.0,97.0,97.0,97.0,0.0,0.0,0.0,0.0,0.04612596,0.04595674,0.054271676,0.05418728,-32.429916,-30.572933,17.926765,9.03815,812.82983,706.5742,253.69669,750.02606,0.0,0.0,0.0,2.0,1.0,-2.8546581,0.019356828,0.0016194582,97.0,97.0,97.0,97.0,21.302864,21.302864,24.666473,24.666473,0.016431917,0.016512604,-4.1447426E-4,-4.1062353E-4,1151.1738,0.0,0.0,0.0,0.0,0.0,0.0,0.0,0.0,0.0,0.0,0.0,0.0,0.0,-24.43366,-0.012376898,-82.8601,0.010689841,-0.0037942622,0.010755617,549782.94,119984.91,0.008184669,0.012912914,7877.248,7841.0947,7311.07,7254.542,0.30273914,0.0,0.0,0.0
91.835625,91.835625,1.066,0.0,0.0,311.3377,11121.0,100.0,0.0,0.007900128,0.0,8.0,1.0,0.0,4000000.0,110.0,1.0,0.0,0.0,10.0,0.0,0.0,-82.52714,3.46781,74.04045,-0.01645096,0.19472808,0.06095006,316.1913,316.16605,311.21643,311.19095,81.0,81.0,100.0,95.0,97.0,97.0,97.0,97.0,0.0,0.0,0.0,0.0,0.04778818,0.047722567,0.054410324,0.054321326,54.313835,67.92671,-1.0579078,-1.1529027,642.9792,1319.9548,-35.096695,-65.955505,0.0,0.0,0.0,2.0,1.0,-2.8549082,0.019402921,3.232956E-4,97.0,97.0,97.0,97.0,21.302864,21.302864,24.666473,24.666473,0.015614583,0.015611527,-4.1495642E-4,-4.2069526E-4,1151.4917,0.0,0.0,0.0,0.0,0.0,0.0,0.0,0.0,0.0,0.0,0.0,0.0,0.0,-24.452293,-0.008768285,-82.95386,0.018200692,-0.004547901,-0.013468947,549786.4,119984.9,0.006864066,0.008863308,8560.404,8590.639,7221.3545,7185.341,0.2993641,0.0,0.0,0.0
96.16327,96.16327,1.133,0.0,0.0,311.6774,11133.0,100.0,0.0,0.010816518,0.0,8.0,1.0,0.0,4000000.0,110.0,1.0,0.0,0.0,10.0,0.0,0.0,-83.750206,3.4688013,69.890274,-0.02086689,0.18798348,0.10827475,316.5354,316.54025,311.55417,311.5435,81.0,80.0,100.0,95.0,97.0,97.0,97.0,97.0,0.0,0.0,0.0,0.0,0.048494015,0.0483159,0.054402605,0.05452018,0.0,0.0,0.0,0.0,-1429.8318,-891.0297,396.53772,-111.25801,0.0,0.0,0.0,2.0,1.0,-2.8550339,0.019222623,3.4105778E-4,97.0,97.0,97.0,97.0,21.302864,21.302864,24.666473,24.666473,0.015575946,0.01562597,-4.1446788E-4,-4.162283E-4,1152.7623,0.0,0.0,0.0,0.0,0.0,0.0,0.0,0.0,0.0,0.0,0.0,0.0,0.0,-24.468687,0.045980986,-83.04738,-0.010363337,-0.0014902535,0.009593352,549799.8,119984.914,0.0064853285,0.0081894575,8581.865,8523.199,7309.084,7347.5645,0.29894638,0.0,0.0,0.0
100.4955,100.4955,1.183,0.0,0.0,312.00235,11148.0,100.0,0.0,-0.04650886,0.0,8.0,1.0,0.0,4000000.0,110.0,1.0,0.0,0.0,10.0,0.0,0.0,-84.97413,3.471322,65.73558,-0.010873709,0.1856256,-0.03741226,316.95032,316.96683,311.87,311.87466,80.0,80.0,100.0,94.0,97.0,97.0,97.0,97.0,0.0,0.0,0.0,0.0,0.04763356,0.047719523,0.05436375,0.054403026,0.0,0.0,0.0,0.0,1023.4504,-398.26773,563.78687,-658.8577,0.0,0.0,0.0,2.0,1.0,-2.8550484,0.01856906,5.8436394E-4,97.0,97.0,97.0,97.0,21.302864,21.302864,24.666473,24.666473,0.01590264,0.015952513,-4.1163652E-4,-4.129807E-4,1154.3484,0.0,0.0,0.0,0.0,0.0,0.0,0.0,0.0,0.0,0.0,0.0,0.0,0.0,-24.48817,0.04495448,-83.13574,0.0061340313,7.918817E-4,0.015134657,549815.44,119984.9,0.0070640226,0.0096303,8278.587,8216.825,7202.589,7167.0347,0.29984093,0.0,0.0,0.0
104.83229,104.83229,1.216,0.0,0.0,312.3307,11159.0,100.0,0.0,-0.056263387,0.0,8.0,1.0,0.0,4000000.0,110.0,1.0,0.0,0.0,10.0,0.0,0.0,-86.19922,3.4730406,61.576492,0.005807776,0.18621533,-0.06305568,317.26358,317.27353,312.1916,312.21024,80.0,80.0,99.0,94.0,97.0,97.0,97.0,97.0,0.0,0.0,0.0,0.0,0.047595352,0.047584362,0.05412063,0.05430137,-0.8364021,-0.23491679,-12.941434,0.89943403,-31.824406,-54.851166,-594.6456,94.10529,0.0,0.0,0.0,2.0,1.0,-2.8549407,0.01849916,4.310608E-4,97.0,97.0,97.0,97.0,21.302864,21.302864,24.666473,24.666473,0.015871778,0.015842546,-4.1002716E-4,-4.1533468E-4,1155.512,0.0,0.0,0.0,0.0,0.0,0.0,0.0,0.0,0.0,0.0,0.0,0.0,0.0,-24.515253,0.0225975,-83.222855,-8.503854E-4,0.0034317875,0.0011405644,549827.1,119984.91,0.0069957515,0.009262736,8282.727,8287.24,6966.7163,7113.674,0.29938126,0.0,0.0,0.0
109.17366,109.17366,1.283,0.0,0.0,312.6575,11171.0,100.0,0.0,-0.061455805,0.0,8.0,1.0,0.0,4000000.0,110.0,1.0,0.0,0.0,10.0,0.0,0.0,-87.425804,3.4736588,57.41308,0.015232835,0.1829037,-0.009299517,317.6233,317.58542,312.51852,312.5376,80.0,79.0,99.0,94.0,97.0,97.0,97.0,97.0,0.0,0.0,0.0,0.0,0.047509458,0.04789888,0.054460116,0.05421611,0.0,0.0,0.0,0.0,-651.428,243.65182,63.13917,208.35399,0.0,0.0,0.0,2.0,1.0,-2.8547597,0.018584065,7.991791E-4,97.0,97.0,97.0,97.0,21.302864,21.302864,24.666473,24.666473,0.015930174,0.015772037,-4.1505764E-4,-4.0982186E-4,1156.781,0.0,0.0,0.0,0.0,0.0,0.0,0.0,0.0,0.0,0.0,0.0,0.0,0.0,-24.546677,0.0082129035,-83.308235,-0.008530041,0.0029847147,-0.012835505,549839.7,119984.91,0.0061796913,0.008994319,8199.667,8371.215,7348.0137,7202.751,0.2998724,0.0,0.0,0.0
113.51956,113.51956,1.333,0.0,0.0,312.9826,11181.0,100.0,0.0,-0.036793705,0.0,8.0,1.0,0.0,4000000.0,110.0,1.0,0.0,0.0,10.0,0.0,0.0,-88.65397,3.4740245,53.245426,0.015121285,0.18364517,-9.201642E-5,317.91406,317.8798,312.8486,312.85394,80.0,79.0,99.0,93.0,97.0,97.0,97.0,97.0,0.0,0.0,0.0,0.0,0.047690853,0.04802739,0.054462265,0.05442534,0.0,0.0,0.0,0.0,143.96758,-102.21896,-165.45204,-5.511946,0.0,0.0,0.0,2.0,1.0,-2.8546855,0.019360455,7.2968006E-4,97.0,97.0,97.0,97.0,21.302864,21.302864,24.666473,24.666473,0.015801866,0.015694784,-4.1475001E-4,-4.1407783E-4,1157.8396,0.0,0.0,0.0,0.0,0.0,0.0,0.0,0.0,0.0,0.0,0.0,0.0,0.0,-24.578579,0.007606443,-83.39298,-0.0016209944,6.907939E-4,-0.019916393,549850.7,119984.91,0.0053159245,0.008080821,8315.822,8412.32,7273.867,7280.7827,0.29863644,0.0,0.0,0.0
117.86996,117.86996,1.366,0.0,0.0,313.30234,11191.0,100.0,0.0,-0.04792214,0.0,8.0,1.0,0.0,4000000.0,110.0,1.0,0.0,0.0,10.0,0.0,0.0,-89.88366,3.4755616,49.073544,0.009591315,0.17862315,0.02097712,318.18457,318.19128,313.16895,313.1768,79.0,79.0,98.0,93.0,97.0,97.0,97.0,97.0,0.0,0.0,0.0,0.0,0.048247095,0.048246562,0.054286815,0.054668836,-3.8234887,-20.135342,-11.752321,-3.0528007,-670.0291,-1265.8148,-146.75702,-618.866,0.0,0.0,0.0,2.0,1.0,-2.8546515,0.019822145,4.760027E-4,97.0,97.0,97.0,97.0,21.302864,21.302864,24.666473,24.666473,0.015622635,0.015602324,-4.0732961E-4,-4.1490237E-4,1158.8982,0.0,0.0,0.0,0.0,0.0,0.0,0.0,0.0,0.0,0.0,0.0,0.0,0.0,-24.607681,0.042038683,-83.47699,-2.3490051E-4,0.0016914364,0.011634521,549861.6,119984.914,0.0058816792,0.0079416735,8454.843,8480.107,7107.263,7301.879,0.29767704,0.0,0.0,0.0
122.22473,122.22473,1.416,0.0,0.0,313.6119,11206.0,100.0,0.0,-0.032582752,0.0,8.0,1.0,0.0,4000000.0,110.0,1.0,0.0,0.0,10.0,0.0,0.0,-91.11487,3.4767423,44.89756,0.01257341,0.17288165,-0.14901885,318.6245,318.62045,313.4809,313.4965,79.0,79.0,98.0,93.0,97.0,97.0,97.0,97.0,0.0,0.0,0.0,0.0,0.047537133,0.04752634,0.053955752,0.05400217,-21.936445,-18.946453,-4.074946,-16.112251,-628.05255,-670.0023,-16.602886,-270.19223,0.0,0.0,0.0,2.0,1.0,-2.8545077,0.019310402,0.0014797449,97.0,97.0,97.0,97.0,21.302864,21.302864,24.666473,24.666473,0.015994307,0.015956312,-4.05281E-4,-4.0147876E-4,1160.4856,0.0,0.0,0.0,0.0,0.0,0.0,0.0,0.0,0.0,0.0,0.0,0.0,0.0,-24.638845,-0.0040987865,-83.55746,-0.0308485,0.0030360129,0.011797551,549877.75,119984.914,0.009077805,0.01043693,8107.5835,8133.8457,6857.2515,6832.6523,0.30151463,0.0,0.0,0.0
126.58371,126.58371,1.466,0.0,0.0,313.9093,11218.0,100.0,0.0,-0.06884791,0.0,8.0,1.0,0.0,4000000.0,110.0,1.0,0.0,0.0,10.0,0.0,0.0,-92.3477,3.4743936,40.717693,0.023484632,0.17056358,-0.116161436,318.96414,318.95364,313.76865,313.78693,79.0,78.0,98.0,93.0,97.0,97.0,97.0,97.0,0.0,0.0,0.0,0.0,0.045902383,0.046130832,0.054282583,0.05436494,-16.900373,-15.818102,8.351057,11.854469,1405.008,1201.093,-35.284477,43.93461,0.0,0.0,0.0,2.0,1.0,-2.854369,0.019564241,0.0021589994,97.0,97.0,97.0,97.0,21.302864,21.302864,24.666473,24.666473,0.016225912,0.016148897,-4.0691407E-4,-4.0918117E-4,1161.755,0.0,0.0,0.0,0.0,0.0,0.0,0.0,0.0,0.0,0.0,0.0,0.0,0.0,-24.67358,-0.07830778,-83.63331,0.011455266,0.0028239684,-0.013686841,549890.4,119984.91,0.008120904,0.012915039,7953.1895,8014.1133,7282.5557,7329.5977,0.30286026,0.0,0.0,0.0
130.94693,130.94693,1.533,0.0,0.0,314.2148,11221.0,100.0,0.0,0.082468785,0.0,8.0,1.0,0.0,4000000.0,110.0,1.0,0.0,0.0,10.0,0.0,0.0,-93.5822,3.4705107,36.53393,0.0024024546,0.17293242,0.11140849,319.03442,319.0052,314.08484,314.07397,79.0,78.0,98.0,92.0,97.0,97.0,97.0,97.0,0.0,0.0,0.0,0.0,0.048324455,0.04863218,0.054661803,0.054677386,0.0,0.0,0.0,0.0,159.09506,918.8976,-705.0454,372.54538,0.0,0.0,0.0,2.0,1.0,-2.854344,0.02024158,7.647276E-4,97.0,97.0,97.0,97.0,21.302864,21.302864,24.666473,24.666473,0.015388195,0.015333959,-4.1964522E-4,-4.0988612E-4,1162.0709,0.0,0.0,0.0,0.0,0.0,0.0,0.0,0.0,0.0,0.0,0.0,0.0,0.0,-24.701916,-0.059572987,-83.71344,0.02340192,-0.0029625723,-0.024352029,549892.9,119984.9,0.005934842,0.008040674,8649.573,8746.75,7454.218,7494.1123,0.29946136,0.0,0.0,0.0
135.31444,135.31444,1.566,0.0,0.0,314.52054,11230.0,100.0,0.0,0.23360224,0.0,8.0,1.0,0.0,4000000.0,110.0,1.0,0.0,0.0,10.0,0.0,0.0,-94.81781,3.4700963,32.34604,-0.035001468,0.16654973,0.18813267,319.30835,319.27908,314.4138,314.3677,78.0,78.0,97.0,92.0,97.0,97.0,97.0,97.0,0.0,0.0,0.0,0.0,0.048868395,0.04887612,0.05484356,0.05482539,-16.27609,-19.75268,7.940232,-1.7575173,-1223.6638,-1017.5092,314.2878,-330.17987,0.0,0.0,0.0,2.0,1.0,-2.8545868,0.020244481,3.6144257E-4,97.0,97.0,97.0,97.0,21.302864,21.302864,24.666473,24.666473,0.015148386,0.01520251,-4.2443463E-4,-4.0158938E-4,1163.0248,0.0,0.0,0.0,0.0,0.0,0.0,0.0,0.0,0.0,0.0,0.0,0.0,0.0,-24.717579,0.03764833,-83.79738,-0.0049032364,-0.008729064,0.009203291,549903.2,119984.9,0.0051055336,0.0066923276,8820.941,8838.195,7578.709,7530.4976,0.2981205,0.0,0.0,0.0
139.68605,139.68605,1.616,0.0,0.0,314.8083,11246.0,100.0,0.0,0.5491598,0.0,8.0,1.0,0.0,4000000.0,110.0,1.0,0.0,0.0,10.0,0.0,0.0,-96.05324,3.4727745,28.153843,-0.123165235,0.16339856,-0.073224425,319.76666,319.72253,314.7623,314.59924,78.0,78.0,97.0,92.0,97.0,97.0,97.0,97.0,0.0,0.0,0.0,0.0,0.04806569,0.047795545,0.054568097,0.05434423,-9.427294,-19.567608,-16.759335,-10.592043,524.06335,108.36124,-633.85956,87.86916,0.0,0.0,0.0,2.0,1.0,-2.8555784,0.01986218,7.439852E-4,97.0,97.0,97.0,97.0,21.302864,21.302864,24.666473,24.666473,0.015525317,0.015865522,-4.1859812E-4,-3.900614E-4,1164.7173,0.0,0.0,0.0,0.0,0.0,0.0,0.0,0.0,0.0,0.0,0.0,0.0,0.0,-24.69515,0.046481248,-83.887314,-0.00783737,-0.028756768,0.016893975,549919.94,119984.91,0.007302313,0.009013292,8423.475,8229.205,7143.134,7080.911,0.2997322,0.0,0.0,0.0
144.06168,144.06168,1.683,0.0,0.0,315.09323,11259.0,100.0,0.0,0.61254007,0.0,8.0,1.0,0.0,4000000.0,110.0,1.0,0.0,0.0,10.0,0.0,0.0,-97.28651,3.4735036,23.956861,-0.21117236,0.16161698,-0.11724345,320.15012,320.06284,315.07974,314.8486,78.0,77.0,97.0,92.0,97.0,97.0,97.0,97.0,0.0,0.0,0.0,0.0,0.047669407,0.046570178,0.05459171,0.053957403,0.0,0.0,0.0,0.0,7.7382083,659.85016,572.3431,-42.311867,0.0,0.0,0.0,2.0,1.0,-2.857342,0.018672092,0.0013046265,97.0,97.0,97.0,97.0,21.302864,21.302864,24.666473,24.666473,0.01576458,0.016170818,-4.1208393E-4,-3.9471933E-4,1166.0923,0.0,0.0,0.0,0.0,0.0,0.0,0.0,0.0,0.0,0.0,0.0,0.0,0.0,-24.63241,-0.014548525,-83.98826,0.0043564066,-0.039954357,0.026098631,549933.44,119984.91,0.008319335,0.011137441,8285.049,7994.2812,7347.4326,6993.861,0.30184555,0.0,0.0,0.0
148.44131,148.44131,1.733,0.0,0.0,315.3812,11265.0,100.0,0.0,0.20210503,0.0,8.0,1.0,0.0,4000000.0,110.0,1.0,0.0,0.0,10.0,0.0,0.0,-98.51611,3.4713042,19.754665,-0.2037488,0.16339806,0.007968903,320.3147,320.25275,315.32553,315.17084,78.0,77.0,96.0,91.0,97.0,97.0,97.0,97.0,0.0,0.0,0.0,0.0,0.048093904,0.047067787,0.05502936,0.054025292,0.0,0.0,0.0,0.0,963.3823,1548.6537,175.2153,428.6572,0.0,0.0,0.0,2.0,1.0,-2.8590322,0.018913493,0.0011137724,97.0,97.0,97.0,97.0,21.302864,21.302864,24.666473,24.666473,0.015506694,0.015734207,-3.972681E-4,-4.2189646E-4,1166.728,0.0,0.0,0.0,0.0,0.0,0.0,0.0,0.0,0.0,0.0,0.0,0.0,0.0,-24.55723,-0.052172117,-84.09359,0.008732898,-0.025303436,-0.023783451,549940.2,119984.9,0.0065503595,0.0094176335,8566.516,8332.401,7683.449,7232.585,0.30017567,0.0,0.0,0.0
152.82501,152.82501,1.783,0.0,0.0,315.67105,11270.0,100.0,0.0,0.07964708,0.0,8.0,1.0,0.0,4000000.0,110.0,1.0,0.0,0.0,10.0,0.0,0.0,-99.74216,3.4700387,15.547239,-0.17113736,0.1651879,0.15783197,320.421,320.44482,315.5697,315.5123,77.0,77.0,96.0,91.0,97.0,97.0,97.0,97.0,0.0,0.0,0.0,0.0,0.049229916,0.048968453,0.054829665,0.054541204,0.0,0.0,0.0,0.0,-573.2953,-3754.3276,-852.0707,-83.711754,0.0,0.0,0.0,2.0,1.0,-2.8598456,0.019832708,4.4381618E-4,97.0,97.0,97.0,97.0,21.302864,21.302864,24.666473,24.666473,0.015019928,0.015222764,-4.0001725E-4,-4.2321451E-4,1167.2582,0.0,0.0,0.0,0.0,0.0,0.0,0.0,0.0,0.0,0.0,0.0,0.0,0.0,-24.491013,0.0071555153,-84.19677,-0.0054213437,-0.008320816,0.00226063,549945.94,119984.9,0.006683622,0.007159365,9036.771,8731.966,7391.545,7353.0186,0.29845428,0.0,0.0,0.0
157.21259,157.21259,1.816,0.0,0.0,315.9367,11286.0,100.0,0.0,0.01611883,0.0,8.0,1.0,0.0,4000000.0,110.0,1.0,0.0,0.0,10.0,0.0,0.0,-100.96551,3.4715986,11.334995,-0.109636635,0.14707437,-0.010948097,320.83444,320.907,315.80838,315.80414,77.0,77.0,96.0,91.0,97.0,97.0,97.0,97.0,0.0,0.0,0.0,0.0,0.048090685,0.04774145,0.054789297,0.054839414,-25.57039,-17.714424,0.10080635,-0.16719101,512.4896,642.1207,-210.52657,-623.533,0.0,0.0,0.0,2.0,1.0,-2.8600085,0.019216165,8.3589554E-4,97.0,97.0,97.0,97.0,21.302864,21.302864,24.666473,24.666473,0.015542932,0.015758017,-3.97879E-4,-4.073534E-4,1168.9497,0.0,0.0,0.0,0.0,0.0,0.0,0.0,0.0,0.0,0.0,0.0,0.0,0.0,-24.449709,0.037356384,-84.2856,0.015840998,-2.4210052E-4,0.017663078,549962.1,119984.91,0.0072854967,0.010184226,8469.909,8197.713,7502.6416,7517.911,0.30020332,0.0,0.0,0.0
161.60391,161.60391,1.866,0.0,0.0,316.21164,11296.0,100.0,0.0,-0.17861095,0.0,8.0,1.0,0.0,4000000.0,110.0,1.0,0.0,0.0,10.0,0.0,0.0,-102.18773,3.472054,7.1185617,-0.029386934,0.15866676,-0.13606507,321.13647,321.17587,316.0649,316.10712,77.0,76.0,96.0,90.0,97.0,97.0,97.0,97.0,0.0,0.0,0.0,0.0,0.04778718,0.047502864,0.05420614,0.053981442,-4.6019998,-1.4935433,1.7429887,-8.776187,1276.2083,613.3272,1899.7012,1198.317,0.0,0.0,0.0,2.0,1.0,-2.8598118,0.018390855,8.354187E-4,97.0,97.0,97.0,97.0,21.302864,21.302864,24.666473,24.666473,0.015663868,0.015671667,-3.9607292E-4,-4.0870425E-4,1170.0082,0.0,0.0,0.0,0.0,0.0,0.0,0.0,0.0,0.0,0.0,0.0,0.0,0.0,-24.445965,-0.02535767,-84.3662,-0.0145909935,0.008100219,0.009492458,549972.8,119984.91,0.008658345,0.010047701,8343.612,8272.992,7062.2197,6913.7285,0.3014841,0.0,0.0,0.0
165.99902,165.99902,1.916,0.0,0.0,316.48273,11303.0,100.0,0.0,-0.3327464,0.0,8.0,1.0,0.0,4000000.0,110.0,1.0,0.0,0.0,10.0,0.0,0.0,-103.41074,3.4704545,2.8983903,0.050918907,0.15417457,-0.0081366105,321.33633,321.38153,316.29846,316.401,77.0,76.0,95.0,90.0,97.0,97.0,97.0,97.0,0.0,0.0,0.0,0.0,0.04808603,0.04814672,0.054523326,0.054811757,14.987513,21.07188,-6.048157,11.1714,444.13354,366.4836,-1017.96533,-708.72,0.0,0.0,0.0,2.0,1.0,-2.8591497,0.018888926,7.10845E-4,97.0,97.0,97.0,97.0,21.302864,21.302864,24.666473,24.666473,0.0155678,0.015405723,-3.9897856E-4,-4.1933468E-4,1170.7496,0.0,0.0,0.0,0.0,0.0,0.0,0.0,0.0,0.0,0.0,0.0,0.0,0.0,-24.478727,-0.031847633,-84.43511,0.013269832,0.018012736,-0.01898504,549980.5,119984.91,0.006030255,0.008891061,8433.298,8488.192,7330.6543,7516.408,0.2998314,0.0,0.0,0.0
170.39792,170.39792,1.983,0.0,0.0,316.76346,11306.0,100.0,0.0,-0.42178836,0.0,8.0,1.0,0.0,4000000.0,110.0,1.0,0.0,0.0,10.0,0.0,0.0,-104.636314,3.4710774,-1.3250312,0.12238937,0.16028428,0.25589272,321.3997,321.46295,316.55103,316.7049,76.0,76.0,95.0,90.0,97.0,97.0,97.0,97.0,0.0,0.0,0.0,0.0,0.04941795,0.04956118,0.05483199,0.055383448,0.0,0.0,0.0,0.0,-225.64085,-84.98576,-255.97656,-1327.1569,0.0,0.0,0.0,2.0,1.0,-2.8580146,0.01873188,-7.086992E-4,97.0,97.0,97.0,97.0,21.302864,21.302864,24.666473,24.666473,0.014911908,0.014675435,-4.1118776E-4,-4.1838747E-4,1171.0665,0.0,0.0,0.0,0.0,0.0,0.0,0.0,0.0,0.0,0.0,0.0,0.0,0.0,-24.545702,0.066985376,-84.49685,0.020263454,0.026002437,-6.9921464E-4,549983.44,119984.9,0.003571479,0.004630799,9052.424,9249.564,7586.5327,7785.1025,0.29531097,0.0,0.0,0.0
174.80061,174.80061,2.033,0.0,0.0,317.02603,11325.0,100.0,0.0,-0.16225694,0.0,8.0,1.0,0.0,4000000.0,110.0,1.0,0.0,0.0,10.0,0.0,0.0,-105.86573,3.4767516,-5.5513105,0.13089411,0.1397395,-0.044030067,321.97638,321.986,316.85138,316.95593,76.0,76.0,95.0,90.0,97.0,97.0,97.0,97.0,0.0,0.0,0.0,0.0,0.047877066,0.048216425,0.054438733,0.0547633,0.0,0.0,0.0,0.0,-1218.0446,-1494.8217,-18.22563,172.62697,0.0,0.0,0.0,2.0,1.0,-2.856882,0.018797131,4.248619E-4,97.0,97.0,97.0,97.0,21.302864,21.302864,24.666473,24.666473,0.01569034,0.015457397,-4.0539305E-4,-3.8822732E-4,1173.0779,0.0,0.0,0.0,0.0,0.0,0.0,0.0,0.0,0.0,0.0,0.0,0.0,0.0,-24.626537,0.1226525,-84.54923,-0.041019797,0.017494734,0.004083666,550003.75,119984.91,0.0067143757,0.008367571,8209.554,8496.25,7187.068,7330.499,0.29618454,0.0,0.0,0.0
179.20679,179.20679,2.083,0.0,0.0,317.28003,11338.0,100.0,0.0,-0.040422965,0.0,8.0,1.0,0.0,4000000.0,110.0,1.0,0.0,0.0,10.0,0.0,0.0,-107.099205,3.479421,-9.780038,0.107990004,0.15074657,-0.25935635,322.39926,322.34335,317.13275,317.17337,76.0,75.0,94.0,89.0,97.0,97.0,97.0,97.0,0.0,0.0,0.0,0.0,0.045411397,0.04636323,0.053879842,0.054421052,0.0,0.0,0.0,0.0,1452.1881,1236.7528,249.04305,240.41975,0.0,0.0,0.0,2.0,1.0,-2.8562975,0.02001814,0.0015976429,97.0,97.0,97.0,97.0,21.302864,21.302864,24.666473,24.666473,0.016271817,0.015999518,-4.0426082E-4,-3.9301775E-4,1174.4554,0.0,0.0,0.0,0.0,0.0,0.0,0.0,0.0,0.0,0.0,0.0,0.0,0.0,-24.705908,-0.008634702,-84.59967,-0.011580959,0.0062654866,-0.011759456,550018.25,119984.9,0.008577955,0.01236964,7763.664,8048.7734,6894.295,7174.4175,0.30102158,0.0,0.0,0.0
183.61661,183.61661,2.133,0.0,0.0,317.54053,11342.0,100.0,0.0,0.019040382,0.0,8.0,1.0,0.0,4000000.0,110.0,1.0,0.0,0.0,10.0,0.0,0.0,-108.33618,3.4767687,-14.011541,0.062969625,0.14547092,-0.042223196,322.49548,322.46,317.41083,317.40735,76.0,75.0,94.0,89.0,97.0,97.0,97.0,97.0,0.0,0.0,0.0,0.0,0.046397604,0.047084652,0.054322977,0.05475135,0.0,0.0,0.0,0.0,551.31464,316.0446,1163.6226,1217.2264,0.0,0.0,0.0,2.0,1.0,-2.8561947,0.020002497,0.0016976595,97.0,97.0,97.0,97.0,21.302864,21.302864,24.666473,24.666473,0.015666025,0.015581952,-4.0952628E-4,-4.009495E-4,1174.8785,0.0,0.0,0.0,0.0,0.0,0.0,0.0,0.0,0.0,0.0,0.0,0.0,0.0,-24.764793,-0.07410092,-84.657814,0.013968511,-0.0014414681,0.0025194199,550022.4,119984.91,0.006387656,0.010783844,8245.285,8365.895,7478.0503,7660.7217,0.3012457,0.0,0.0,0.0
188.03004,188.03004,2.166,0.0,0.0,317.8072,11343.0,100.0,0.0,-0.040658943,0.0,8.0,1.0,0.0,4000000.0,110.0,1.0,0.0,0.0,10.0,0.0,0.0,-109.575424,3.473942,-18.246145,0.028970338,0.15696841,0.19703534,322.5167,322.4688,317.68417,317.6595,75.0,75.0,94.0,89.0,97.0,97.0,97.0,97.0,0.0,0.0,0.0,0.0,0.049631007,0.049621187,0.05484853,0.05503923,75.40539,54.437885,1.9226967,-2.6560574,116.74346,-601.9013,-406.12662,-409.13068,0.0,0.0,0.0,2.0,1.0,-2.85642,0.019581925,8.4757805E-5,97.0,97.0,97.0,97.0,21.302864,21.302864,24.666473,24.666473,0.01484319,0.014777525,-4.100993E-4,-4.1822952E-4,1174.9839,0.0,0.0,0.0,0.0,0.0,0.0,0.0,0.0,0.0,0.0,0.0,0.0,0.0,-24.800991,-0.021996282,-84.72443,0.023745852,-0.004486967,0.004043592,550023.2,119984.9,0.003793036,0.004978595,9015.033,9106.247,7551.1484,7621.4326,0.29538918,0.0,0.0,0.0
192.4472,192.4472,2.233,0.0,0.0,318.06323,11356.0,100.0,0.0,-0.0686626,0.0,8.0,1.0,0.0,4000000.0,110.0,1.0,0.0,0.0,10.0,0.0,0.0,-110.8162,3.47629,-22.48418,0.015393313,0.13372013,0.13720016,322.8693,322.86722,317.9347,317.93857,75.0,75.0,94.0,89.0,97.0,97.0,97.0,97.0,0.0,0.0,0.0,0.0,0.048767086,0.0487749,0.05496598,0.0551953,0.0,0.0,0.0,0.0,-1749.9534,-1593.6342,-1171.2266,-877.35046,0.0,0.0,0.0,2.0,1.0,-2.856474,0.01942089,6.161928E-4,97.0,97.0,97.0,97.0,21.302864,21.302864,24.666473,24.666473,0.015082441,0.015062934,-3.9772378E-4,-4.0677233E-4,1176.3604,0.0,0.0,0.0,0.0,0.0,0.0,0.0,0.0,0.0,0.0,0.0,0.0,0.0,-24.827427,0.09310827,-84.79075,-0.019649677,0.0014010387,0.008117956,550037.1,119984.91,0.004692469,0.006795163,8754.838,8768.818,7572.0527,7692.3047,0.29663754,0.0,0.0,0.0
196.86772,196.86772,2.283,0.0,0.0,318.30188,11372.0,100.0,0.0,-0.083264306,0.0,8.0,1.0,0.0,4000000.0,110.0,1.0,0.0,0.0,10.0,0.0,0.0,-112.05824,3.4795012,-26.725313,0.018345974,0.14050566,-0.21685846,323.32462,323.31927,318.16568,318.18323,75.0,74.0,93.0,88.0,97.0,97.0,97.0,97.0,0.0,0.0,0.0,0.0,0.04701511,0.047222055,0.05441153,0.054448098,0.0,0.0,0.0,0.0,439.74814,415.55463,175.85905,386.64032,0.0,0.0,0.0,2.0,1.0,-2.8563664,0.019378139,0.0012302399,97.0,97.0,97.0,97.0,21.302864,21.302864,24.666473,24.666473,0.015864499,0.015799876,-3.9405192E-4,-3.9857847E-4,1178.0538,0.0,0.0,0.0,0.0,0.0,0.0,0.0,0.0,0.0,0.0,0.0,0.0,0.0,-24.854473,0.019312982,-84.85195,-0.004300935,0.0031809418,-0.0026078417,550053.94,119984.9,0.0075085517,0.010414493,8044.6797,8105.232,7128.6357,7137.4873,0.30024338,0.0,0.0,0.0
201.29167,201.29167,2.333,0.0,0.0,318.5505,11378.0,100.0,0.0,-0.020381106,0.0,8.0,1.0,0.0,4000000.0,110.0,1.0,0.0,0.0,10.0,0.0,0.0,-113.301735,3.4781983,-30.969603,0.01610976,0.13870925,-0.09642339,323.48672,323.48663,318.41516,318.4282,75.0,74.0,93.0,88.0,97.0,97.0,97.0,97.0,0.0,0.0,0.0,0.0,0.047178995,0.047423184,0.05425534,0.054581746,0.0,0.0,0.0,0.0,313.60382,385.67477,367.03345,805.19904,0.0,0.0,0.0,2.0,1.0,-2.856223,0.019567499,0.0014197826,97.0,97.0,97.0,97.0,21.302864,21.302864,24.666473,24.666473,0.015580152,0.015532805,-3.9899786E-4,-4.01625E-4,1178.6802,0.0,0.0,0.0,0.0,0.0,0.0,0.0,0.0,0.0,0.0,0.0,0.0,0.0,-24.882963,-0.054584693,-84.91556,0.002717243,0.0022957942,0.004088368,550056.2,119984.9,0.0075487583,0.010377948,8292.917,8343.223,7249.706,7442.6675,0.30108356,0.0,0.0,0.0
205.71902,205.71902,2.383,0.0,0.0,318.7954,11381.0,100.0,0.0,0.02426932,0.0,8.0,1.0,0.0,4000000.0,110.0,1.0,0.0,0.0,10.0,0.0,0.0,-114.54655,3.4754431,-35.217045,0.00762219,0.14049454,0.09437785,323.5689,323.57455,318.6628,318.66306,74.0,74.0,93.0,88.0,97.0,97.0,97.0,97.0,0.0,0.0,0.0,0.0,0.049042255,0.048953187,0.05474644,0.054913193,0.0,0.0,0.0,0.0,-924.43677,1120.4122,95.47319,-718.05414,0.0,0.0,0.0,2.0,1.0,-2.8561656,0.018727785,6.6816807E-4,97.0,97.0,97.0,97.0,21.302864,21.302864,24.666473,24.666473,0.0150396,0.015065907,-4.09615E-4,-4.0226695E-4,1178.8574,0.0,0.0,0.0,0.0,0.0,0.0,0.0,0.0,0.0,0.0,0.0,0.0,0.0,-24.907152,-0.041146223,-84.97936,0.018168097,-6.40176E-4,0.004408483,549993.9,119984.9,0.0065123267,0.0077888593,8810.124,8795.526,7552.1465,7568.709,0.29860687,0.0,0.0,0.0
210.14981,210.14981,2.433,0.0,0.0,319.0371,11392.0,100.0,0.0,0.013468435,0.0,8.0,1.0,0.0,4000000.0,110.0,1.0,0.0,0.0,10.0,0.0,0.0,-115.79249,3.4738019,-39.46771,0.0037995689,0.13231292,0.05103294,323.89948,323.86404,318.91638,318.90332,74.0,74.0,92.0,88.0,97.0,97.0,97.0,97.0,0.0,0.0,0.0,0.0,0.04836164,0.04856382,0.054925647,0.054667905,0.0,0.0,0.0,0.0,-315.7094,-425.4385,-103.15778,1108.1277,0.0,0.0,0.0,2.0,1.0,-2.8562372,0.018983826,0.0011757612,97.0,97.0,97.0,97.0,21.302864,21.302864,24.666473,24.666473,0.015235679,0.015168203,-4.033896E-4,-4.012343E-4,1179.5377,0.0,0.0,0.0,0.0,0.0,0.0,0.0,0.0,0.0,0.0,0.0,0.0,0.0,-24.928587,-0.02243436,-85.04305,-0.018857265,-0.0021350991,-0.011635335,549779.94,119984.91,0.0061320877,0.008123383,8551.623,8674.799,7635.9683,7555.034,0.29936314,0.0,0.0,0.0
214.58385,214.58385,2.466,0.0,0.0,319.26804,11400.0,100.0,0.0,0.05627169,0.0,8.0,1.0,0.0,4000000.0,110.0,1.0,0.0,0.0,10.0,0.0,0.0,-117.03931,3.473032,-43.721497,-0.016735703,0.1324592,0.02311248,324.11667,324.09738,319.14624,319.1258,74.0,73.0,92.0,87.0,97.0,97.0,97.0,97.0,0.0,0.0,0.0,0.0,0.04842869,0.048488423,0.054873675,0.055051636,9.689926,11.907219,0.7501244,2.0161269,545.95013,890.50665,439.3458,-159.40367,0.0,0.0,0.0,2.0,1.0,-2.8563855,0.019360278,9.551048E-4,97.0,97.0,97.0,97.0,21.302864,21.302864,24.666473,24.666473,0.015217152,0.015212728,-4.0373724E-4,-4.015739E-4,1180.0295,0.0,0.0,0.0,0.0,0.0,0.0,0.0,0.0,0.0,0.0,0.0,0.0,0.0,-24.941866,-0.011175094,-85.10601,0.016580174,-0.0039151385,-6.463891E-5,549623.2,119984.9,0.0054558357,0.008322194,8592.569,8626.035,7577.0605,7652.1865,0.2991848,0.0,0.0,0.0
219.02115,219.02115,2.533,0.0,0.0,319.5059,11405.0,100.0,0.0,0.08889899,0.0,8.0,1.0,0.0,4000000.0,110.0,1.0,0.0,0.0,10.0,0.0,0.0,-118.28655,3.4733884,-47.978565,-0.03237297,0.13555032,0.103235334,324.2632,324.24753,319.3924,319.35724,74.0,73.0,92.0,87.0,97.0,97.0,97.0,97.0,0.0,0.0,0.0,0.0,0.049023516,0.04894898,0.05501861,0.054879673,0.0,0.0,0.0,0.0,90.95374,177.34763,-224.76909,16.374891,0.0,0.0,0.0,2.0,1.0,-2.8566542,0.01908035,1.9049644E-4,97.0,97.0,97.0,97.0,21.302864,21.302864,24.666473,24.666473,0.014874572,0.0149345035,-4.0689818E-4,-4.0305848E-4,1180.322,0.0,0.0,0.0,0.0,0.0,0.0,0.0,0.0,0.0,0.0,0.0,0.0,0.0,-24.946453,0.02809105,-85.17351,0.0050045177,-0.006299993,-0.0018111918,549518.4,119984.91,0.0047012856,0.006422594,8903.5,8871.022,7602.722,7530.4873,0.29716206,0.0,0.0,0.0
223.46172,223.46172,2.583,0.0,0.0,319.73447,11416.0,100.0,0.0,0.19714911,0.0,8.0,1.0,0.0,4000000.0,110.0,1.0,0.0,0.0,10.0,0.0,0.0,-119.53375,3.4760575,-52.239048,-0.0617923,0.12578678,0.03283457,324.58524,324.5546,319.639,319.57422,73.0,73.0,92.0,87.0,97.0,97.0,97.0,97.0,0.0,0.0,0.0,0.0,0.048521128,0.0484832,0.055018973,0.054853614,0.0,0.0,0.0,0.0,-465.22913,-749.73096,-400.92313,-570.8813,0.0,0.0,0.0,2.0,1.0,-2.8570893,0.019173432,4.8351288E-4,97.0,97.0,97.0,97.0,21.302864,21.302864,24.666473,24.666473,0.015088137,0.015185468,-4.0422787E-4,-3.9409837E-4,1180.9943,0.0,0.0,0.0,0.0,0.0,0.0,0.0,0.0,0.0,0.0,0.0,0.0,0.0,-24.939114,0.06761748,-85.24179,-0.007955096,-0.0113417385,0.0029882551,549301.56,119984.9,0.005386695,0.0076179677,8656.445,8609.052,7587.2617,7504.5977,0.29782677,0.0,0.0,0.0
227.90538,227.90538,2.616,0.0,0.0,319.95615,11427.0,100.0,0.0,0.13362662,0.0,8.0,1.0,0.0,4000000.0,110.0,1.0,0.0,0.0,10.0,0.0,0.0,-120.78031,3.4784105,-56.50294,-0.0751107,0.12606454,-0.14354302,324.90817,324.88098,319.86404,319.79398,73.0,73.0,91.0,87.0,97.0,97.0,97.0,97.0,0.0,0.0,0.0,0.0,0.047897354,0.04784074,0.054694973,0.054457698,-10.265261,-9.435117,-7.2835383,-4.8939137,86.55486,89.505325,-65.901886,245.00635,0.0,0.0,0.0,2.0,1.0,-2.8576941,0.01929198,8.74877E-4,97.0,97.0,97.0,97.0,21.302864,21.302864,24.666473,24.666473,0.015420159,0.015529795,-3.9364473E-4,-3.9656585E-4,1181.651,0.0,0.0,0.0,0.0,0.0,0.0,0.0,0.0,0.0,0.0,0.0,0.0,0.0,-24.92359,0.01841379,-85.31051,-0.0062467996,-0.011648704,-7.023306E-4,549077.94,119984.9,0.0065334397,0.009213999,8328.71,8262.174,7323.5557,7232.209,0.29963493,0.0,0.0,0.0
232.3522,232.3522,2.666,0.0,0.0,320.18375,11433.0,100.0,0.0,0.08965836,0.0,8.0,1.0,0.0,4000000.0,110.0,1.0,0.0,0.0,10.0,0.0,0.0,-122.02602,3.4778783,-60.770344,-0.07761705,0.12924805,-0.039857943,325.05267,325.05005,320.07858,320.02878,73.0,72.0,91.0,86.0,97.0,97.0,97.0,97.0,0.0,0.0,0.0,0.0,0.048421256,0.048077475,0.054787796,0.05461181,15.271379,15.16655,9.282901,5.2797046,7.295608,686.632,515.5071,118.1647,0.0,0.0,0.0,2.0,1.0,-2.8581848,0.019108428,9.4127655E-4,97.0,97.0,97.0,97.0,21.302864,21.302864,24.666473,24.666473,0.015199057,0.015325757,-3.9863773E-4,-4.0272082E-4,1182.0334,0.0,0.0,0.0,0.0,0.0,0.0,0.0,0.0,0.0,0.0,0.0,0.0,0.0,-24.90528,-0.026092099,-85.381714,0.004897564,-0.008302384,0.0018106981,548967.44,119984.89,0.00534429,0.00819883,8563.426,8443.819,7559.0557,7461.0244,0.29890823,0.0,0.0,0.0
236.80219,236.80219,2.733,0.0,0.0,320.41455,11437.0,100.0,0.0,0.115648575,0.0,8.0,1.0,0.0,4000000.0,110.0,1.0,0.0,0.0,10.0,0.0,0.0,-123.27079,3.4772425,-65.04132,-0.07487582,0.13218145,0.10532317,325.16394,325.14603,320.3045,320.26056,73.0,72.0,91.0,86.0,97.0,97.0,97.0,97.0,0.0,0.0,0.0,0.0,0.04900258,0.049009755,0.05517603,0.054856732,0.0,0.0,0.0,0.0,557.28253,-226.53934,-723.49896,-192.9581,0.0,0.0,0.0,2.0,1.0,-2.8585727,0.019397212,3.6013126E-4,97.0,97.0,97.0,97.0,21.302864,21.302864,24.666473,24.666473,0.0148148,0.0148805855,-4.0576456E-4,-4.0430756E-4,1182.2867,0.0,0.0,0.0,0.0,0.0,0.0,0.0,0.0,0.0,0.0,0.0,0.0,0.0,-24.886763,0.007576865,-85.453896,0.006496599,-0.007642892,-0.0073439158,548893.0,119984.9,0.0034918974,0.0055452534,8911.324,8876.004,7707.6455,7586.56,0.29610443,0.0,0.0,0.0
241.25534,241.25534,2.783,0.0,0.0,320.6319,11448.0,100.0,0.0,0.092310965,0.0,8.0,1.0,0.0,4000000.0,110.0,1.0,0.0,0.0,10.0,0.0,0.0,-124.51467,3.4797666,-69.31585,-0.066899374,0.114696115,-0.009044571,325.48788,325.48965,320.52432,320.49002,72.0,72.0,91.0,86.0,97.0,97.0,97.0,97.0,0.0,0.0,0.0,0.0,0.048490945,0.04835325,0.054910317,0.054909546,0.0,0.0,0.0,0.0,-1748.3441,-1329.3295,114.34255,-362.79553,0.0,0.0,0.0,2.0,1.0,-2.858883,0.019521086,9.3245506E-4,97.0,97.0,97.0,97.0,21.302864,21.302864,24.666473,24.666473,0.015072157,0.015170573,-3.9356516E-4,-3.9427675E-4,1182.9294,0.0,0.0,0.0,0.0,0.0,0.0,0.0,0.0,0.0,0.0,0.0,0.0,0.0,-24.870007,0.063814126,-85.52163,-0.022719475,-0.0052555,0.009079499,548663.7,119984.89,0.0052648,0.007704275,8621.084,8516.623,7477.547,7474.241,0.29852772,0.0,0.0,0.0
245.71138,245.71138,2.816,0.0,0.0,320.83798,11457.0,100.0,0.0,0.0773025,0.0,8.0,1.0,0.0,4000000.0,110.0,1.0,0.0,0.0,10.0,0.0,0.0,-125.75779,3.481408,-73.5936,-0.059730098,0.119634785,-0.11567214,325.7379,325.7305,320.7273,320.68964,72.0,72.0,90.0,86.0,97.0,97.0,97.0,97.0,0.0,0.0,0.0,0.0,0.047921937,0.047737442,0.054862503,0.054632366,12.639462,7.5689697,-9.65327,-7.937326,1145.9067,1047.0673,-1251.304,-544.87726,0.0,0.0,0.0,2.0,1.0,-2.8591948,0.01938355,0.0010360479,97.0,97.0,97.0,97.0,21.302864,21.302864,24.666473,24.666473,0.0152887935,0.015368899,-3.9209516E-4,-3.9449256E-4,1183.4922,0.0,0.0,0.0,0.0,0.0,0.0,0.0,0.0,0.0,0.0,0.0,0.0,0.0,-24.856703,0.006789921,-85.58513,0.011822323,-0.0064852033,-0.004842762,548493.5,119984.9,0.007074303,0.009518917,8440.511,8376.471,7407.6006,7325.369,0.29976082,0.0,0.0,0.0
250.17035,250.17035,2.866,0.0,0.0,321.0486,11463.0,100.0,0.0,0.06093088,0.0,8.0,1.0,0.0,4000000.0,110.0,1.0,0.0,0.0,10.0,0.0,0.0,-127.00041,3.4804125,-77.874535,-0.0524465,0.11657753,-0.045776486,325.91635,325.90765,320.93436,320.9095,72.0,72.0,90.0,85.0,97.0,97.0,97.0,97.0,0.0,0.0,0.0,0.0,0.048347376,0.048306007,0.054662757,0.054539077,-13.958885,-0.23648141,10.178983,2.5952606,-1749.9534,-1049.1324,893.59125,235.56497,0.0,0.0,0.0,2.0,1.0,-2.8594346,0.019385668,0.001123786,97.0,97.0,97.0,97.0,21.302864,21.302864,24.666473,24.666473,0.01516592,0.015216292,-3.9553558E-4,-3.9400934E-4,1183.8438,0.0,0.0,0.0,0.0,0.0,0.0,0.0,0.0,0.0,0.0,0.0,0.0,0.0,-24.848406,-0.034841564,-85.64846,-0.008140486,-0.004124868,-0.0013063287,548369.25,119984.91,0.007695532,0.009670615,8533.557,8486.498,7478.9937,7391.8374,0.3014593,0.0,0.0,0.0
254.63217,254.63217,2.916,0.0,0.0,321.2515,11468.0,100.0,0.0,-0.006891787,0.0,8.0,1.0,0.0,4000000.0,110.0,1.0,0.0,0.0,10.0,0.0,0.0,-128.2427,3.4782872,-82.15853,-0.0350606,0.11752183,0.022147287,326.0527,326.0489,321.12537,321.11365,72.0,71.0,90.0,85.0,97.0,97.0,97.0,97.0,0.0,0.0,0.0,0.0,0.048697643,0.048563287,0.055040378,0.05487566,31.222029,20.99633,7.8649063,9.362026,2129.5127,1976.9352,417.5394,479.91415,0.0,0.0,0.0,2.0,1.0,-2.8595998,0.01948629,7.594824E-4,97.0,97.0,97.0,97.0,21.302864,21.302864,24.666473,24.666473,0.015003716,0.015023836,-3.9742203E-4,-4.014556E-4,1184.1487,0.0,0.0,0.0,0.0,0.0,0.0,0.0,0.0,0.0,0.0,0.0,0.0,0.0,-24.84484,-0.043995675,-85.70817,0.0168553,-0.0021658654,-0.0105824545,548271.4,119984.91,0.0057141734,0.008098428,8720.432,8698.514,7728.8545,7659.99,0.3018551,0.0,0.0,0.0
259.0969,259.0969,2.966,0.0,0.0,321.46213,11472.0,100.0,0.0,0.007596276,0.0,8.0,1.0,0.0,4000000.0,110.0,1.0,0.0,0.0,10.0,0.0,0.0,-129.48499,3.4781423,-86.44555,-0.026463961,0.116087064,0.13225876,326.17453,326.17496,321.3327,321.32983,71.0,71.0,89.0,85.0,97.0,97.0,97.0,97.0,0.0,0.0,0.0,0.0,0.04907892,0.04908457,0.05517597,0.055225614,-17.889439,-21.512209,-4.5521555,-2.86974,-1873.9921,-2327.5266,-629.7424,-905.0577,0.0,0.0,0.0,2.0,1.0,-2.8596454,0.01968351,6.258488E-5,97.0,97.0,97.0,97.0,21.302864,21.302864,24.666473,24.666473,0.014689023,0.014695078,-4.0250426E-4,-4.0289093E-4,1184.3724,0.0,0.0,0.0,0.0,0.0,0.0,0.0,0.0,0.0,0.0,0.0,0.0,0.0,-24.845985,0.034262132,-85.76875,0.0044844807,-5.504219E-4,0.0019948697,548183.75,119984.91,0.0036818262,0.005761447,8941.055,8936.739,7683.5503,7707.142,0.29751873,0.0,0.0,0.0
263.56448,263.56448,3.033,0.0,0.0,321.66867,11480.0,100.0,0.0,0.028894754,0.0,8.0,1.0,0.0,4000000.0,110.0,1.0,0.0,0.0,10.0,0.0,0.0,-130.72737,3.4818797,-90.73553,-0.021007847,0.11896806,0.10978616,326.38614,326.37344,321.5429,321.53336,71.0,71.0,89.0,85.0,97.0,97.0,97.0,97.0,0.0,0.0,0.0,0.0,0.049023703,0.049125172,0.0552594,0.05513723,0.0,0.0,0.0,0.0,444.87112,126.560036,-1169.2687,-731.0494,0.0,0.0,0.0,2.0,1.0,-2.859712,0.019811837,-4.749298E-4,97.0,97.0,97.0,97.0,21.302864,21.302864,24.666473,24.666473,0.014682246,0.014674947,-4.0183406E-4,-3.9917993E-4,1184.8904,0.0,0.0,0.0,0.0,0.0,0.0,0.0,0.0,0.0,0.0,0.0,0.0,0.0,-24.850138,0.10539362,-85.827225,0.0023150174,-0.0018692286,-0.005862151,548041.3,119984.91,0.0038073286,0.004902594,8959.694,8986.496,7639.532,7595.783,0.29517555,0.0,0.0,0.0
268.0343,268.0343,3.083,0.0,0.0,321.86377,11496.0,100.0,0.0,0.016198058,0.0,8.0,1.0,0.0,4000000.0,110.0,1.0,0.0,0.0,10.0,0.0,0.0,-131.97005,3.4868817,-95.0284,-0.019332407,0.10239924,-0.19885711,326.86096,326.84854,321.7498,321.73798,71.0,71.0,89.0,84.0,97.0,97.0,97.0,97.0,0.0,0.0,0.0,0.0,0.04762734,0.047698405,0.05451017,0.054513324,0.0,0.0,0.0,0.0,-1031.4032,-1241.5676,397.70453,357.17633,0.0,0.0,0.0,2.0,1.0,-2.8597915,0.020120459,0.001031518,97.0,97.0,97.0,97.0,21.302864,21.302864,24.666473,24.666473,0.0154844215,0.015478444,-3.8265414E-4,-3.835346E-4,1185.8395,0.0,0.0,0.0,0.0,0.0,0.0,0.0,0.0,0.0,0.0,0.0,0.0,0.0,-24.85657,0.068820275,-85.88182,-0.03816128,-0.0012136643,0.008236958,547716.94,119984.9,0.008106027,0.009863791,8142.263,8162.3,7213.592,7223.4043,0.29997635,0.0,0.0,0.0
272.50525,272.50525,3.116,0.0,0.0,322.0565,11505.0,100.0,0.0,0.061537076,0.0,8.0,1.0,0.0,4000000.0,110.0,1.0,0.0,0.0,10.0,0.0,0.0,-133.21295,3.484985,-99.32386,-0.03163739,0.11362879,-0.27483374,327.1058,327.0917,321.94794,321.91592,71.0,70.0,89.0,84.0,97.0,97.0,97.0,97.0,0.0,0.0,0.0,0.0,0.04566869,0.045672137,0.05422468,0.054175906,-9.765923,-12.383759,10.085329,9.479373,1934.4624,1785.4257,730.4727,776.94196,0.0,0.0,0.0,2.0,1.0,-2.8599758,0.020132605,0.002574563,97.0,97.0,97.0,97.0,21.302864,21.302864,24.666473,24.666473,0.015721912,0.015772935,-3.8870264E-4,-3.889614E-4,1186.4011,0.0,0.0,0.0,0.0,0.0,0.0,0.0,0.0,0.0,0.0,0.0,0.0,0.0,-24.860123,-0.11360139,-85.93647,-0.013628928,-0.005182972,0.0045746164,547547.7,119984.91,0.008884957,0.012804498,8000.89,7974.5137,7227.206,7205.5034,0.30240822,0.0,0.0,0.0
276.97894,276.97894,3.166,0.0,0.0,322.2471,11501.0,100.0,0.0,0.06421115,0.0,8.0,1.0,0.0,4000000.0,110.0,1.0,0.0,0.0,10.0,0.0,0.0,-134.45605,3.478532,-103.62215,-0.03502795,0.10706485,0.09008835,326.98862,326.9854,322.12128,322.09967,71.0,70.0,88.0,84.0,97.0,97.0,97.0,97.0,0.0,0.0,0.0,0.0,0.048704695,0.04858644,0.05518766,0.055237096,85.27211,83.49157,10.357797,12.145936,706.0244,695.83185,-884.2035,-974.8086,0.0,0.0,0.0,2.0,1.0,-2.8602166,0.020025576,0.0014503002,97.0,97.0,97.0,97.0,21.302864,21.302864,24.666473,24.666473,0.014803256,0.014851006,-3.9996198E-4,-3.9857836E-4,1186.1439,0.0,0.0,0.0,0.0,0.0,0.0,0.0,0.0,0.0,0.0,0.0,0.0,0.0,-24.860096,-0.11651305,-85.99159,0.047437035,-0.0046578995,-0.0070618954,547619.4,119984.9,0.0056953346,0.008550875,8848.58,8814.283,7882.287,7908.4507,0.29890537,0.0,0.0,0.0
281.45535,281.45535,3.216,0.0,0.0,322.44348,11503.0,100.0,0.0,-0.05107524,0.0,8.0,1.0,0.0,4000000.0,110.0,1.0,0.0,0.0,10.0,0.0,0.0,-135.6991,3.4760435,-107.92327,-0.01801712,0.1026379,0.30935633,327.037,327.0337,322.31586,322.31146,70.0,70.0,88.0,84.0,97.0,97.0,97.0,97.0,0.0,0.0,0.0,0.0,0.049772173,0.049778417,0.05552264,0.055476807,-19.863544,-16.250162,6.851479,5.503669,-1851.0458,-1795.1487,-158.07594,-60.993427,0.0,0.0,0.0,2.0,1.0,-2.8603704,0.019891512,3.324747E-4,97.0,97.0,97.0,97.0,21.302864,21.302864,24.666473,24.666473,0.014239137,0.014239756,-3.9575182E-4,-4.0414554E-4,1186.272,0.0,0.0,0.0,0.0,0.0,0.0,0.0,0.0,0.0,0.0,0.0,0.0,0.0,-24.86022,0.02085661,-86.048416,1.6495457E-4,-4.103771E-4,-0.002398455,547583.25,119984.9,0.0042243954,0.005674377,9377.127,9368.52,8030.9253,8006.4824,0.29702568,0.0,0.0,0.0
285.93423,285.93423,3.266,0.0,0.0,322.61606,11517.0,100.0,0.0,-0.09657774,0.0,8.0,1.0,0.0,4000000.0,110.0,1.0,0.0,0.0,10.0,0.0,0.0,-136.94234,3.4789195,-112.22693,0.004825944,0.098708354,-0.033230886,327.43832,327.44424,322.47687,322.50247,70.0,70.0,88.0,83.0,97.0,97.0,97.0,97.0,0.0,0.0,0.0,0.0,0.04839118,0.048454497,0.055062003,0.05513326,-25.480537,-19.211767,-16.24614,-6.3467765,462.19824,1206.6721,-341.94144,487.51828,0.0,0.0,0.0,2.0,1.0,-2.8602302,0.020366592,6.300211E-4,97.0,97.0,97.0,97.0,21.302864,21.302864,24.666473,24.666473,0.014997488,0.014933773,-3.859739E-4,-3.949722E-4,1187.1144,0.0,0.0,0.0,0.0,0.0,0.0,0.0,0.0,0.0,0.0,0.0,0.0,0.0,-24.871298,0.062141903,-86.09509,-0.011803382,0.004937549,-0.010277828,547306.0,119984.9,0.0059196856,0.008072622,8609.228,8661.768,7513.999,7592.457,0.2987175,0.0,0.0,0.0
290.41556,290.41556,3.333,0.0,0.0,322.7942,11525.0,100.0,0.0,-0.025269017,0.0,8.0,1.0,0.0,4000000.0,110.0,1.0,0.0,0.0,10.0,0.0,0.0,-138.18643,3.4807985,-116.532875,0.011961268,0.1021233,-0.11047692,327.67804,327.67902,322.65207,322.67734,70.0,70.0,88.0,83.0,97.0,97.0,97.0,97.0,0.0,0.0,0.0,0.0,0.04802783,0.04809442,0.054849155,0.05493975,0.0,0.0,0.0,0.0,270.4471,-5.297355,532.7403,46.84477,0.0,0.0,0.0,2.0,1.0,-2.8599603,0.020464972,7.1287155E-4,97.0,97.0,97.0,97.0,21.302864,21.302864,24.666473,24.666473,0.015221602,0.015163891,-3.9568671E-4,-3.8960672E-4,1187.583,0.0,0.0,0.0,0.0,0.0,0.0,0.0,0.0,0.0,0.0,0.0,0.0,0.0,-24.891739,0.013590218,-86.14072,0.009756924,0.0037607488,-0.0019930345,547142.0,119984.9,0.0055808965,0.009081607,8380.311,8436.079,7546.599,7555.5386,0.30033398,0.0,0.0,0.0
294.8995,294.8995,3.383,0.0,0.0,322.989,11523.0,100.0,0.0,-0.0049469797,0.0,8.0,1.0,0.0,4000000.0,110.0,1.0,0.0,0.0,10.0,0.0,0.0,-139.43158,3.4819958,-120.84123,0.013396829,0.116402864,0.2021613,327.6103,327.59384,322.85352,322.8547,70.0,69.0,87.0,83.0,97.0,97.0,97.0,97.0,0.0,0.0,0.0,0.0,0.049666125,0.049823795,0.055221487,0.055361044,0.0,0.0,0.0,0.0,391.54883,358.03458,-641.1418,-352.10696,0.0,0.0,0.0,2.0,1.0,-2.859909,0.020650469,-7.9476833E-4,97.0,97.0,97.0,97.0,21.302864,21.302864,24.666473,24.666473,0.014390678,0.014339937,-4.047601E-4,-4.0347697E-4,1187.4801,0.0,0.0,0.0,0.0,0.0,0.0,0.0,0.0,0.0,0.0,0.0,0.0,0.0,-24.912281,0.057772238,-86.19109,0.023790808,-4.7280217E-4,-0.008101554,547189.56,119984.9,0.0026990895,0.0041005737,9194.627,9272.7705,7789.077,7873.586,0.29489708,0.0,0.0,0.0
299.38614,299.38614,3.416,0.0,0.0,323.17316,11536.0,100.0,0.0,0.097237274,0.0,8.0,1.0,0.0,4000000.0,110.0,1.0,0.0,0.0,10.0,0.0,0.0,-140.67749,3.4876943,-125.15219,-0.014507687,0.09438086,0.021302953,327.99854,327.9843,323.0662,323.03516,69.0,69.0,87.0,83.0,97.0,97.0,97.0,97.0,0.0,0.0,0.0,0.0,0.048599534,0.04852388,0.05503028,0.055172164,-49.50508,-49.71921,-2.5217233,-5.4151564,-1303.6472,-1037.4247,30.44307,-99.094215,0.0,0.0,0.0,2.0,1.0,-2.8600433,0.020285528,2.1195412E-4,97.0,97.0,97.0,97.0,21.302864,21.302864,24.666473,24.666473,0.0148386285,0.0148920715,-3.9263393E-4,-3.8716235E-4,1188.2423,0.0,0.0,0.0,0.0,0.0,0.0,0.0,0.0,0.0,0.0,0.0,0.0,0.0,-24.921541,0.13628057,-86.24157,-0.033455018,-0.004844381,0.019569337,546923.75,119984.91,0.0041036378,0.006313848,8685.14,8654.351,7619.082,7673.347,0.29536247,0.0,0.0,0.0
303.87512,303.87512,3.466,0.0,0.0,323.34076,11547.0,100.0,0.0,0.0010765959,0.0,8.0,1.0,0.0,4000000.0,110.0,1.0,0.0,0.0,10.0,0.0,0.0,-141.92377,3.4926047,-129.46547,-0.015660703,0.099821195,-0.2694915,328.32986,328.2953,323.2251,323.2064,69.0,69.0,87.0,82.0,97.0,97.0,97.0,97.0,0.0,0.0,0.0,0.0,0.047316767,0.047308132,0.05473331,0.054482598,-19.53609,-14.59524,-6.9710608,-22.643654,341.6464,642.24146,183.74472,-502.72632,0.0,0.0,0.0,2.0,1.0,-2.860256,0.020250736,0.0010416508,97.0,97.0,97.0,97.0,21.302864,21.302864,24.666473,24.666473,0.015440542,0.015419315,-3.8541114E-4,-3.826976E-4,1188.8958,0.0,0.0,0.0,0.0,0.0,0.0,0.0,0.0,0.0,0.0,0.0,0.0,0.0,-24.929745,0.04332624,-86.28776,-0.009858477,-0.003312301,-0.011429517,546703.2,119984.91,0.0070253955,0.010138753,8142.5713,8181.5303,7289.2354,7103.1904,0.3009739,0.0,0.0,0.0
308.36655,308.36655,3.533,0.0,0.0,323.5189,11549.0,100.0,0.0,-0.13553055,0.0,8.0,1.0,0.0,4000000.0,110.0,1.0,0.0,0.0,10.0,0.0,0.0,-143.17056,3.492047,-133.78114,0.0024952926,0.10072033,-0.094693586,328.3641,328.36865,323.38138,323.39554,69.0,69.0,87.0,82.0,97.0,97.0,97.0,97.0,0.0,0.0,0.0,0.0,0.047667846,0.048115212,0.054770384,0.05480246,0.0,0.0,0.0,0.0,2162.5977,18.292578,14.014542,280.69318,0.0,0.0,0.0,2.0,1.0,-2.8603082,0.021284608,9.2709064E-4,97.0,97.0,97.0,97.0,21.302864,21.302864,24.666473,24.666473,0.015079497,0.015063589,-3.839279E-4,-4.0102747E-4,1189.0145,0.0,0.0,0.0,0.0,0.0,0.0,0.0,0.0,0.0,0.0,0.0,0.0,0.0,-24.94252,-0.04142459,-86.33557,0.009704476,0.002795461,-0.022556067,546663.1,119984.9,0.0056403806,0.008802384,8517.772,8498.337,7567.599,7627.7207,0.29889297,0.0,0.0,0.0
