LapDistance [m],TotalDistance [m],LapTime [s],Sector1Time [s],Sector2Time [s],Speed [km/h],EngineRevs [rpm],ThrottlePercentage [%],BrakePercentage [%],Steer [%],Clutch [%],Gear [int],DRS [0/1],CanUseDRS [0/1],KERSLevel [J],EngineTemperature [C],RacePosition [int],Sector [int],InPits [int],FuelRemaining [kg],CurrentFlag [int],CurrentLapInvalid [int],X [m],Y [m],Z [m],GForceLatitudinal [G],GForceLongitudinal [G],GForceVertical [G],WheelSpeedRearLeft [km/h],WheelSpeedRearRight [km/h],WheelSpeedFrontLeft [km/h],WheelSpeedFrontRight [km/h],BrakeTemperatureRearLeft [C],BrakeTemperatureRearRight [C],BrakeTemperatureFrontLeft [C],BrakeTemperatureFrontRight [C],TyreTemperatureRearLeft [C],TyreTemperatureRearRight [C],TyreTemperatureFrontLeft [C],TyreTemperatureFrontRight [C],TyreWearRearLeft [%],TyreWearRearRight [%],TyreWearFrontLeft [%],TyreWearFrontRight [%],SuspensionPositionRearLeft [m],SuspensionPositionRearRight [m],SuspensionPositionFrontLeft [m],SuspensionPositionFrontRight [m],SuspensionVelocityRearLeft [m/s],SuspensionVelocityRearRight [m/s],SuspensionVelocityFrontLeft [m/s],SuspensionVelocityFrontRight [m/s],SuspensionAccelerationRearLeft [m/s^2],SuspensionAccelerationRearRight [m/s^2],SuspensionAccelerationFrontLeft [m/s^2],SuspensionAccelerationFrontRight [m/s^2],MGUKHarvested [J],MGUHHarvested [J],ERSSpent [J],ERSMode [int],FuelMixMode [int],Yaw [rad],Roll [rad],Pitch [rad],TyreCarcassTemperatureRearLeft [C],TyreCarcassTemperatureRearRight [C],TyreCarcassTemperatureFrontLeft [C],TyreCarcassTemperatureFrontRight [C],TyrePressureRearLeft [PSI],TyrePressureRearRight [PSI],TyrePressureFrontLeft [PSI],TyrePressureFrontRight [PSI],WheelSlipRearLeft [%],WheelSlipRearRight [%],WheelSlipFrontLeft [%],WheelSlipFrontRight [%],Torque [Nm],Handbrake [%],RearLeftInside [C],RearLeftMiddle [C],RearLeftOutside [C],RearRightInside [C],RearRightMiddle [C],RearRightOutside [C],FrontLeftInside [C],FrontLeftMiddle [C],FrontLeftOutside [C],FrontRightInside [C],FrontRightMiddle [C],FrontRightOutside [C],WoldSpeedX [km/h],WoldSpeedY [km/h],WoldSpeedZ [km/h],LocalAngularVelocityX [rad/s],LocalAngularVelocityY [rad/s],LocalAngularVelocityZ [rad/s],IcePower [W],MgukPower [W],FrontRideHeight [m],RearRideHeight [m],LoadRearLeft [N],LoadRearRight [N],LoadFrontLeft [N],LoadFrontRight [N],Extra1 [m],Extra2 [],Extra3 [],Extra4 []
3.948905,3.948905,0.033,0.0,0.0,303.79196,10924.0,100.0,0.0,-0.15101632,0.0,8.0,1.0,0.0,4000000.0,110.0,1.0,0.0,0.0,10.0,0.0,0.0,-58.19324,3.484487,158.48154,0.091798335,0.24174446,0.01928812,309.04163,308.98663,303.6349,303.69165,97.0,96.0,120.0,114.0,97.0,97.0,97.0,97.0,0.0,0.0,0.0,0.0,0.04195564,0.042862456,0.052952144,0.05325205,0.27291474,12.019201,11.604353,10.35288,-1661.0248,-762.35077,114.98628,579.67896,0.0,0.0,0.0,2.0,1.0,-2.867136,0.019856965,0.002548337,97.0,97.0,97.0,97.0,21.302864,21.302864,24.666473,24.666473,0.017400907,0.01706367,-4.250256E-4,-4.1916233E-4,1128.1382,0.0,0.0,0.0,0.0,0.0,0.0,0.0,0.0,0.0,0.0,0.0,0.0,0.0,-22.798634,-0.047260538,-81.24856,-0.009797552,0.009327137,-0.008793677,548349.7,119984.9,0.011950728,0.017172629,7421.8257,7688.2925,6566.1406,6710.2695,0.3096943,0.0,0.0,0.0
8.171715,8.171715,0.1,0.0,0.0,304.211,10938.0,100.0,0.0,-0.148041,0.0,8.0,1.0,0.0,4000000.0,110.0,1.0,0.0,0.0,10.0,0.0,0.0,-59.335064,3.4820597,154.41646,0.08029248,0.23698108,0.07167474,309.3986,309.38348,304.05463,304.10162,96.0,96.0,120.0,113.0,97.0,97.0,97.0,97.0,0.0,0.0,0.0,0.0,0.042291652,0.042769484,0.053220265,0.05377275,0.0,0.0,0.0,0.0,621.69574,602.51794,933.95844,126.98919,0.0,0.0,0.0,2.0,1.0,-2.8667157,0.019821966,0.0025092363,97.0,97.0,97.0,97.0,21.302864,21.302864,24.666473,24.666473,0.01718402,0.017013323,-4.227767E-4,-4.234683E-4,1130.0641,0.0,0.0,0.0,0.0,0.0,0.0,0.0,0.0,0.0,0.0,0.0,0.0,0.0,-22.86956,-0.039252844,-81.34954,0.020868389,0.0074490416,-8.621034E-4,548582.75,119984.89,0.009839148,0.016620526,7584.1416,7693.644,6845.3135,7071.924,0.3088417,0.0,0.0,0.0
12.400376,12.400376,0.15,0.0,0.0,304.63412,10948.0,100.0,0.0,-0.11789132,0.0,8.0,1.0,0.0,4000000.0,110.0,1.0,0.0,0.0,10.0,0.0,0.0,-60.48027,3.4808614,150.34627,0.0675248,0.23906413,0.07395175,309.6854,309.67804,304.4856,304.52155,96.0,95.0,119.0,113.0,97.0,97.0,97.0,97.0,0.0,0.0,0.0,0.0,0.04399342,0.044441286,0.053114105,0.0534608,0.0,0.0,0.0,0.0,245.79756,-418.58548,-0.8583068,120.79327,0.0,0.0,0.0,2.0,1.0,-2.866409,0.01957008,0.0014541149,97.0,97.0,97.0,97.0,21.302864,21.302864,24.666473,24.666473,0.016643114,0.016527677,-4.2328585E-4,-4.2289728E-4,1131.47,0.0,0.0,0.0,0.0,0.0,0.0,0.0,0.0,0.0,0.0,0.0,0.0,0.0,-22.93427,-0.008413939,-81.453445,0.0035874718,0.0058688717,0.0010656242,548763.56,119984.9,0.009992062,0.01356779,7933.825,8021.8623,6478.5977,6631.103,0.30444336,0.0,0.0,0.0
16.634838,16.634838,0.2,0.0,0.0,305.04504,10967.0,100.0,0.0,-0.1128378,0.0,8.0,1.0,0.0,4000000.0,110.0,1.0,0.0,0.0,10.0,0.0,0.0,-61.628586,3.4811513,146.27092,0.058062177,0.23094587,-0.015355293,310.23276,310.22272,304.90213,304.93256,96.0,95.0,119.0,113.0,97.0,97.0,97.0,97.0,0.0,0.0,0.0,0.0,0.043821458,0.04419562,0.053033076,0.05338404,0.0,0.0,0.0,0.0,-592.45966,-661.7411,-83.85925,-241.73405,0.0,0.0,0.0,2.0,1.0,-2.8661263,0.019193396,0.0018289089,97.0,97.0,97.0,97.0,21.302864,21.302864,24.666473,24.666473,0.01705653,0.016946329,-4.1724328E-4,-4.1879294E-4,1134.1255,0.0,0.0,0.0,0.0,0.0,0.0,0.0,0.0,0.0,0.0,0.0,0.0,0.0,-22.994001,0.0077318223,-81.55521,-0.010021522,0.0053351065,0.00921222,549098.5,119984.89,0.010814409,0.014953417,7615.236,7692.7227,6468.7334,6612.0835,0.30655003,0.0,0.0,0.0
20.87502,20.87502,0.25,0.0,0.0,305.4487,10984.0,100.0,0.0,-0.13708703,0.0,8.0,1.0,0.0,4000000.0,110.0,1.0,0.0,0.0,10.0,0.0,0.0,-62.77987,3.4808645,142.19046,0.06091902,0.22565347,-0.05935725,310.72586,310.7009,305.2997,305.34265,95.0,95.0,118.0,112.0,97.0,97.0,97.0,97.0,0.0,0.0,0.0,0.0,0.04272335,0.043121513,0.052919738,0.05334434,0.0,0.0,0.0,0.0,-299.6966,30.617407,-274.457,16.683338,0.0,0.0,0.0,2.0,1.0,-2.8657956,0.019036494,0.0025091171,97.0,97.0,97.0,97.0,21.302864,21.302864,24.666473,24.666473,0.017356083,0.0171539,-4.136307E-4,-4.163843E-4,1136.501,0.0,0.0,0.0,0.0,0.0,0.0,0.0,0.0,0.0,0.0,0.0,0.0,0.0,-23.053835,-0.018066864,-81.65482,-0.007588777,0.0074936613,0.007819033,549397.0,119984.89,0.011975735,0.017142618,7410.7285,7548.0054,6428.242,6641.4453,0.30905056,0.0,0.0,0.0
25.120766,25.120766,0.3,0.0,0.0,305.84885,10996.0,100.0,0.0,-0.15224205,0.0,8.0,1.0,0.0,4000000.0,110.0,1.0,0.0,0.0,10.0,0.0,0.0,-63.934105,3.4795527,138.10506,0.06423758,0.2266641,0.011764387,311.03964,311.0116,305.69406,305.7387,95.0,94.0,118.0,112.0,97.0,97.0,97.0,97.0,0.0,0.0,0.0,0.0,0.042367414,0.042890545,0.053317215,0.05350778,0.0,0.0,0.0,0.0,417.68695,1261.7646,-362.7955,-190.98666,0.0,0.0,0.0,2.0,1.0,-2.865433,0.018938392,0.0021489859,97.0,97.0,97.0,97.0,21.302864,21.302864,24.666473,24.666473,0.01712448,0.016898448,-4.1792676E-4,-4.1988393E-4,1138.144,0.0,0.0,0.0,0.0,0.0,0.0,0.0,0.0,0.0,0.0,0.0,0.0,0.0,-23.112957,-0.025984302,-81.753624,0.019240765,0.0071371035,-0.011928023,549590.9,119984.89,0.0108498195,0.016838918,7570.923,7746.7324,6724.064,6804.5264,0.30814075,0.0,0.0,0.0
29.372084,29.372084,0.333,0.0,0.0,306.24927,11008.0,100.0,0.0,-0.13647363,0.0,8.0,1.0,0.0,4000000.0,110.0,1.0,0.0,0.0,10.0,0.0,0.0,-65.09134,3.478682,134.01471,0.061610147,0.22369576,0.017823268,311.3869,311.35452,306.09906,306.1419,95.0,94.0,118.0,112.0,97.0,97.0,97.0,97.0,0.0,0.0,0.0,0.0,0.043705173,0.044169076,0.053227387,0.0532525,15.460029,6.196573,2.639964,-10.518059,-1421.3427,-1683.5284,348.01657,-439.7079,0.0,0.0,0.0,2.0,1.0,-2.8650653,0.019471824,0.0016304255,97.0,97.0,97.0,97.0,21.302864,21.302864,24.666473,24.666473,0.01684002,0.0166532,-4.1920363E-4,-4.1579662E-4,1139.5419,0.0,0.0,0.0,0.0,0.0,0.0,0.0,0.0,0.0,0.0,0.0,0.0,0.0,-23.172705,-0.01050074,-81.85232,-0.011509246,0.0070041735,-0.025112664,549666.0,119984.89,0.011000145,0.014887433,7736.131,7849.0015,6580.3105,6524.3477,0.30756855,0.0,0.0,0.0
33.62886,33.62886,0.4,0.0,0.0,306.64136,11022.0,100.0,0.0,-0.11528747,0.0,8.0,1.0,0.0,4000000.0,110.0,1.0,0.0,0.0,10.0,0.0,0.0,-66.25152,3.478572,129.91951,0.0569828,0.22111449,0.036862273,311.77682,311.773,306.4912,306.5308,94.0,94.0,117.0,111.0,97.0,97.0,97.0,97.0,0.0,0.0,0.0,0.0,0.04350782,0.044142403,0.053151313,0.053778008,0.0,0.0,0.0,0.0,599.90283,-383.54245,61.677383,-410.02924,0.0,0.0,0.0,2.0,1.0,-2.8647292,0.020092608,0.0016636848,97.0,97.0,97.0,97.0,21.302864,21.302864,24.666473,24.666473,0.016855646,0.016735276,-4.1657686E-4,-4.1875508E-4,1141.0228,0.0,0.0,0.0,0.0,0.0,0.0,0.0,0.0,0.0,0.0,0.0,0.0,0.0,-23.23052,0.0065168757,-81.949135,0.008089348,0.0065687657,0.00476578,549681.25,119984.89,0.010308954,0.015073304,7732.6064,7804.078,6637.9683,6938.3687,0.30618858,0.0,0.0,0.0
37.890987,37.890987,0.45,0.0,0.0,307.03043,11037.0,100.0,0.0,-0.13333552,0.0,8.0,1.0,0.0,4000000.0,110.0,1.0,0.0,0.0,10.0,0.0,0.0,-67.41454,3.478555,125.81955,0.054604996,0.2183942,0.023034371,312.18033,312.2309,306.8805,306.92264,94.0,93.0,117.0,111.0,97.0,97.0,97.0,97.0,0.0,0.0,0.0,0.0,0.04362298,0.043638814,0.053112265,0.05368575,0.0,0.0,0.0,0.0,21.229681,-679.3632,2331.684,860.6269,0.0,0.0,0.0,2.0,1.0,-2.8643785,0.019433187,0.0020489693,97.0,97.0,97.0,97.0,21.302864,21.302864,24.666473,24.666473,0.016867647,0.01691174,-4.14932E-4,-4.1949624E-4,1142.6093,0.0,0.0,0.0,0.0,0.0,0.0,0.0,0.0,0.0,0.0,0.0,0.0,0.0,-23.286905,-0.0017548567,-82.04548,-0.0013244338,0.0074111475,0.017738577,549697.44,119984.9,0.009379276,0.015094559,7716.201,7644.049,6781.7773,6990.0645,0.30799675,0.0,0.0,0.0
42.158535,42.158535,0.5,0.0,0.0,307.4214,11046.0,100.0,0.0,-0.1045695,0.0,8.0,1.0,0.0,4000000.0,110.0,1.0,0.0,0.0,10.0,0.0,0.0,-68.5804,3.478825,121.71477,0.05684428,0.22689429,0.039808385,312.43942,312.43332,307.27036,307.30762,94.0,93.0,117.0,111.0,97.0,97.0,97.0,97.0,0.0,0.0,0.0,0.0,0.04407143,0.04440377,0.053410817,0.05355658,0.0,0.0,0.0,0.0,2836.1675,2172.6963,-547.0767,-298.8785,0.0,0.0,0.0,2.0,1.0,-2.864057,0.019023215,0.0010955334,97.0,97.0,97.0,97.0,21.302864,21.302864,24.666473,24.666473,0.016425628,0.016318439,-4.2259874E-4,-4.1960878E-4,1143.5593,0.0,0.0,0.0,0.0,0.0,0.0,0.0,0.0,0.0,0.0,0.0,0.0,0.0,-23.344128,0.012300393,-82.14213,0.013580109,0.0057520163,-0.005956485,549706.25,119984.89,0.008407682,0.012490705,8039.386,8125.605,6630.5693,6679.199,0.30352116,0.0,0.0,0.0
46.431507,46.431507,0.55,0.0,0.0,307.80338,11062.0,100.0,0.0,-0.16422792,0.0,8.0,1.0,0.0,4000000.0,110.0,1.0,0.0,0.0,10.0,0.0,0.0,-69.74905,3.4810343,117.60513,0.06272976,0.21329229,-0.007716422,312.94342,312.88742,307.65845,307.69443,93.0,93.0,116.0,110.0,97.0,97.0,97.0,97.0,0.0,0.0,0.0,0.0,0.04480887,0.04570762,0.053263105,0.053455543,0.0,0.0,0.0,0.0,-1809.0961,-1783.8699,-430.6017,51.578876,0.0,0.0,0.0,2.0,1.0,-2.8637924,0.020484956,0.0011050701,97.0,97.0,97.0,97.0,21.302864,21.302864,24.666473,24.666473,0.016749647,0.01646029,-4.0863283E-4,-4.1777096E-4,1145.2532,0.0,0.0,0.0,0.0,0.0,0.0,0.0,0.0,0.0,0.0,0.0,0.0,0.0,-23.399881,0.052813284,-82.236565,-0.02248259,0.00665771,-0.02231402,549724.2,119984.9,0.009735695,0.012965642,7713.1772,7971.443,6497.6304,6637.451,0.30490303,0.0,0.0,0.0
50.709682,50.709682,0.6,0.0,0.0,308.1765,11081.0,100.0,0.0,-0.095387295,0.0,8.0,1.0,0.0,4000000.0,110.0,1.0,0.0,0.0,10.0,0.0,0.0,-70.92052,3.4824932,113.49089,0.050571404,0.21349175,-0.1375625,313.43747,313.43777,308.0309,308.07,93.0,92.0,116.0,110.0,97.0,97.0,97.0,97.0,0.0,0.0,0.0,0.0,0.043049455,0.04379865,0.05283691,0.053307615,0.0,0.0,0.0,0.0,857.69,369.38046,163.37332,-188.03622,0.0,0.0,0.0,2.0,1.0,-2.86343,0.020906102,0.0020868778,97.0,97.0,97.0,97.0,21.302864,21.302864,24.666473,24.666473,0.017168913,0.017053466,-4.125539E-4,-4.102963E-4,1147.261,0.0,0.0,0.0,0.0,0.0,0.0,0.0,0.0,0.0,0.0,0.0,0.0,0.0,-23.455275,-9.334972E-5,-82.32858,-0.018085718,0.006860461,0.00819366,549743.75,119984.89,0.011285999,0.0157091,7455.9014,7530.398,6330.451,6542.0205,0.30756092,0.0,0.0,0.0
54.993015,54.993015,0.65,0.0,0.0,308.5462,11093.0,100.0,0.0,-0.090306535,0.0,8.0,1.0,0.0,4000000.0,110.0,1.0,0.0,0.0,10.0,0.0,0.0,-72.094635,3.481103,109.372025,0.047102533,0.20863694,-0.066136435,313.7925,313.78317,308.40414,308.4293,93.0,92.0,116.0,109.0,97.0,97.0,97.0,97.0,0.0,0.0,0.0,0.0,0.042293143,0.04269195,0.05315963,0.053496823,0.0,0.0,0.0,0.0,608.62,592.19147,-49.299026,35.90137,0.0,0.0,0.0,2.0,1.0,-2.8631685,0.020602245,0.0026453733,97.0,97.0,97.0,97.0,21.302864,21.302864,24.666473,24.666473,0.01710549,0.017008048,-4.114146E-4,-4.1300687E-4,1148.5311,0.0,0.0,0.0,0.0,0.0,0.0,0.0,0.0,0.0,0.0,0.0,0.0,0.0,-23.506865,-0.04600595,-82.42065,0.005750465,0.004147919,0.0048258863,549757.0,119984.914,0.010702113,0.01685798,7491.796,7560.914,6674.8706,6824.6426,0.3079977,0.0,0.0,0.0
59.281487,59.281487,0.7,0.0,0.0,308.91577,11102.0,100.0,0.0,-0.0826381,0.0,8.0,1.0,0.0,4000000.0,110.0,1.0,0.0,0.0,10.0,0.0,0.0,-73.27127,3.478289,105.248535,0.040509872,0.2078334,-0.031934097,314.06024,314.02408,308.77823,308.79767,92.0,92.0,115.0,109.0,97.0,97.0,97.0,97.0,0.0,0.0,0.0,0.0,0.04327261,0.043601587,0.053264238,0.053215276,0.0,0.0,0.0,0.0,-540.3846,-205.0146,340.30524,268.99875,0.0,0.0,0.0,2.0,1.0,-2.8629954,0.020688575,0.0024882555,97.0,97.0,97.0,97.0,21.302864,21.302864,24.666473,24.666473,0.016702004,0.016563667,-4.1379157E-4,-4.1136678E-4,1149.483,0.0,0.0,0.0,0.0,0.0,0.0,0.0,0.0,0.0,0.0,0.0,0.0,0.0,-23.555243,-0.06426679,-82.51358,-0.013486203,0.0031637952,-0.015902918,549766.6,119984.9,0.0109561365,0.015293677,7741.5713,7846.706,6607.8765,6537.629,0.30721474,0.0,0.0,0.0
63.574997,63.574997,0.749,0.0,0.0,309.2755,11114.0,100.0,0.0,-0.123518504,0.0,8.0,1.0,0.0,4000000.0,110.0,1.0,0.0,0.0,10.0,0.0,0.0,-74.45028,3.4751775,101.120476,0.040263645,0.20594035,0.024682822,314.38272,314.3753,309.13068,309.15738,92.0,91.0,115.0,109.0,97.0,97.0,97.0,97.0,0.0,0.0,0.0,0.0,0.04320787,0.044151317,0.053446524,0.053793073,0.0,0.0,0.0,0.0,1497.276,542.4633,-465.7253,-342.71924,0.0,0.0,0.0,2.0,1.0,-2.8628247,0.021883722,0.0023236275,97.0,97.0,97.0,97.0,21.302864,21.302864,24.666473,24.666473,0.016639264,0.016517753,-4.0978842E-4,-4.1875555E-4,1150.7522,0.0,0.0,0.0,0.0,0.0,0.0,0.0,0.0,0.0,0.0,0.0,0.0,0.0,-23.602129,-0.057963774,-82.60412,0.013296278,0.004475643,-0.013549107,549779.4,119984.9,0.009663557,0.014858971,7790.0815,7904.837,6791.8574,6990.796,0.3069086,0.0,0.0,0.0
67.87352,67.87352,0.783,0.0,0.0,309.63388,11126.0,100.0,0.0,-0.13263223,0.0,8.0,1.0,0.0,4000000.0,110.0,1.0,0.0,0.0,10.0,0.0,0.0,-75.63161,3.4729488,96.98787,0.04253102,0.20026022,0.020203192,314.71045,314.7162,309.48584,309.52695,92.0,91.0,114.0,108.0,97.0,97.0,97.0,97.0,0.0,0.0,0.0,0.0,0.044787724,0.044928133,0.05320777,0.0536845,12.463107,0.87261194,0.6426125,-9.170472,-1294.9435,-1314.0409,511.87277,-353.48828,0.0,0.0,0.0,2.0,1.0,-2.8625202,0.021443972,0.0020048618,97.0,97.0,97.0,97.0,21.302864,21.302864,24.666473,24.666473,0.016462622,0.016372012,-4.0851563E-4,-4.11601E-4,1152.0211,0.0,0.0,0.0,0.0,0.0,0.0,0.0,0.0,0.0,0.0,0.0,0.0,0.0,-23.648754,-0.037049033,-82.69434,-0.002767901,0.007208899,0.017371677,549792.0,119984.9,0.010446461,0.013927087,7906.1694,7943.101,6596.6904,6770.6465,0.30672932,0.0,0.0,0.0
72.176926,72.176926,0.849,0.0,0.0,309.9819,11141.0,100.0,0.0,-0.106287785,0.0,8.0,1.0,0.0,4000000.0,110.0,1.0,0.0,0.0,10.0,0.0,0.0,-76.815315,3.470999,92.85086,0.04918615,0.19738205,-0.0076520983,315.12628,315.13162,309.83405,309.8714,91.0,91.0,114.0,108.0,97.0,97.0,97.0,97.0,0.0,0.0,0.0,0.0,0.044113882,0.044244517,0.053414144,0.053703435,0.0,0.0,0.0,0.0,244.87225,224.88983,-94.440575,355.13782,0.0,0.0,0.0,2.0,1.0,-2.8621829,0.020932898,0.0022847652,97.0,97.0,97.0,97.0,21.302864,21.302864,24.666473,24.666473,0.016696645,0.016614899,-4.097245E-4,-4.1109844E-4,1153.6069,0.0,0.0,0.0,0.0,0.0,0.0,0.0,0.0,0.0,0.0,0.0,0.0,0.0,-23.697412,-0.041303243,-82.78097,0.0044060787,0.006223439,0.0023151925,549807.56,119984.91,0.009976373,0.0150339855,7725.368,7774.2803,6790.84,6935.4707,0.3077383,0.0,0.0,0.0
76.48517,76.48517,0.899,0.0,0.0,310.3309,11150.0,100.0,0.0,-0.073379934,0.0,8.0,1.0,0.0,4000000.0,110.0,1.0,0.0,0.0,10.0,0.0,0.0,-78.001465,3.469361,88.70951,0.044375837,0.19704026,0.055135734,315.3891,315.36737,310.18826,310.21167,91.0,91.0,114.0,108.0,97.0,97.0,97.0,97.0,0.0,0.0,0.0,0.0,0.0444673,0.044936996,0.053575393,0.05380585,0.0,0.0,0.0,0.0,303.1164,512.10065,59.102467,-97.05572,0.0,0.0,0.0,2.0,1.0,-2.8619566,0.021225646,0.0016454458,97.0,97.0,97.0,97.0,21.302864,21.302864,24.666473,24.666473,0.016376846,0.016249932,-4.129311E-4,-4.1139105E-4,1154.5588,0.0,0.0,0.0,0.0,0.0,0.0,0.0,0.0,0.0,0.0,0.0,0.0,0.0,-23.745098,-0.021618837,-82.86816,0.012281946,0.003445794,-0.010294841,549817.06,119984.92,0.009216332,0.013605148,7936.1826,8061.5913,6857.992,6953.631,0.30799198,0.0,0.0,0.0
80.79823,80.79823,0.949,0.0,0.0,310.67816,11160.0,100.0,0.0,-0.08074834,0.0,8.0,1.0,0.0,4000000.0,110.0,1.0,0.0,0.0,10.0,0.0,0.0,-79.189896,3.4692824,84.56379,0.03803228,0.19664961,0.07261701,315.66794,315.68536,310.5389,310.55692,91.0,90.0,113.0,107.0,97.0,97.0,97.0,97.0,0.0,0.0,0.0,0.0,0.04542511,0.04584021,0.053397547,0.05401148,0.0,0.0,0.0,0.0,598.1594,-598.23987,-771.04114,119.30465,0.0,0.0,0.0,2.0,1.0,-2.861822,0.021417381,9.316206E-4,97.0,97.0,97.0,97.0,21.302864,21.302864,24.666473,24.666473,0.016141918,0.016124329,-4.0615283E-4,-4.172988E-4,1155.618,0.0,0.0,0.0,0.0,0.0,0.0,0.0,0.0,0.0,0.0,0.0,0.0,0.0,-23.789434,0.016254539,-82.955795,0.011718093,0.0033420492,0.0099468855,549828.4,119984.9,0.00899924,0.011985369,8125.685,8128.8477,6676.5015,7045.95,0.30479622,0.0,0.0,0.0
85.116684,85.116684,0.999,0.0,0.0,311.01657,11177.0,100.0,0.0,-0.093144596,0.0,8.0,1.0,0.0,4000000.0,110.0,1.0,0.0,0.0,10.0,0.0,0.0,-80.38048,3.4702585,80.41372,0.03757361,0.1868294,-0.035396617,316.18893,316.1426,310.88074,310.90405,90.0,90.0,113.0,107.0,97.0,97.0,97.0,97.0,0.0,0.0,0.0,0.0,0.045287132,0.045240484,0.053252075,0.053517688,0.0,0.0,0.0,0.0,-2179.7505,-272.72693,632.62573,596.68414,0.0,0.0,0.0,2.0,1.0,-2.8616128,0.020229977,0.0016715527,97.0,97.0,97.0,97.0,21.302864,21.302864,24.666473,24.666473,0.016648194,0.016439835,-4.0407365E-4,-4.0453262E-4,1157.4169,0.0,0.0,0.0,0.0,0.0,0.0,0.0,0.0,0.0,0.0,0.0,0.0,0.0,-23.831816,0.014293507,-83.041435,-0.018446218,0.004407033,0.027796563,549846.6,119984.9,0.010721449,0.013908185,7674.534,7851.941,6666.7124,6734.7163,0.30887985,0.0,0.0,0.0
89.43988,89.43988,1.049,0.0,0.0,311.34586,11190.0,100.0,0.0,-0.08519928,0.0,8.0,1.0,0.0,4000000.0,110.0,1.0,0.0,0.0,10.0,0.0,0.0,-81.573166,3.4701612,76.25947,0.038924206,0.18917046,-0.078953855,316.52545,316.51303,311.20456,311.227,90.0,90.0,113.0,107.0,97.0,97.0,97.0,97.0,0.0,0.0,0.0,0.0,0.04372545,0.043731462,0.053421006,0.053644005,0.0,0.0,0.0,0.0,461.09845,1129.5316,-784.94836,-244.51016,0.0,0.0,0.0,2.0,1.0,-2.8614223,0.019915432,0.0018422604,97.0,97.0,97.0,97.0,21.302864,21.302864,24.666473,24.666473,0.016751694,0.016651686,-4.0672117E-4,-4.1040752E-4,1158.7911,0.0,0.0,0.0,0.0,0.0,0.0,0.0,0.0,0.0,0.0,0.0,0.0,0.0,-23.874187,-0.01765601,-83.12443,0.010536125,0.0036387818,-0.005622942,549859.94,119984.92,0.01018449,0.015424455,7624.667,7701.842,6682.4697,6818.573,0.30853748,0.0,0.0,0.0
93.76773,93.76773,1.099,0.0,0.0,311.68243,11196.0,100.0,0.0,-0.07207771,0.0,8.0,1.0,0.0,4000000.0,110.0,1.0,0.0,0.0,10.0,0.0,0.0,-82.768,3.4693527,72.10099,0.03411617,0.1889291,0.065628126,316.70227,316.6914,311.54327,311.56183,90.0,89.0,112.0,106.0,97.0,97.0,97.0,97.0,0.0,0.0,0.0,0.0,0.04467936,0.045203306,0.053541187,0.053795382,0.0,0.0,0.0,0.0,386.02338,205.52443,-350.18915,297.60446,0.0,0.0,0.0,2.0,1.0,-2.8612578,0.020077312,0.0012339354,97.0,97.0,97.0,97.0,21.302864,21.302864,24.666473,24.666473,0.016182428,0.01608122,-4.081721E-4,-4.1131992E-4,1159.4268,0.0,0.0,0.0,0.0,0.0,0.0,0.0,0.0,0.0,0.0,0.0,0.0,0.0,-23.91618,-0.004958203,-83.20965,0.008455798,0.0030306543,-0.0015228679,549866.75,119984.91,0.009357502,0.012974675,8040.732,8145.2246,6842.316,6991.1265,0.30609798,0.0,0.0,0.0
98.10019,98.10019,1.149,0.0,0.0,312.01068,11209.0,100.0,0.0,-0.0960286,0.0,8.0,1.0,0.0,4000000.0,110.0,1.0,0.0,0.0,10.0,0.0,0.0,-83.96489,3.4697926,67.93831,0.03564148,0.1842535,0.043350864,317.06693,317.0474,311.86966,311.89468,89.0,89.0,112.0,106.0,97.0,97.0,97.0,97.0,0.0,0.0,0.0,0.0,0.04537835,0.045589328,0.0535704,0.053876568,0.0,0.0,0.0,0.0,-1178.3881,-129.05447,-0.54985994,-111.888336,0.0,0.0,0.0,2.0,1.0,-2.8610666,0.019961147,0.0011504889,97.0,97.0,97.0,97.0,21.302864,21.302864,24.666473,24.666473,0.016269602,0.016137807,-4.0549057E-4,-4.0937224E-4,1160.8016,0.0,0.0,0.0,0.0,0.0,0.0,0.0,0.0,0.0,0.0,0.0,0.0,0.0,-23.957232,0.020080857,-83.29272,0.0013899242,0.0043203253,0.0038304403,549880.3,119984.91,0.008910839,0.012588307,7953.4,8065.302,6868.2783,7001.2847,0.3054428,0.0,0.0,0.0
102.43718,102.43718,1.199,0.0,0.0,312.335,11221.0,100.0,0.0,-0.08454457,0.0,8.0,1.0,0.0,4000000.0,110.0,1.0,0.0,0.0,10.0,0.0,0.0,-85.16383,3.4711204,63.7715,0.036197446,0.18265182,0.012987223,317.40686,317.39093,312.19388,312.21912,89.0,89.0,112.0,106.0,97.0,97.0,97.0,97.0,0.0,0.0,0.0,0.0,0.045156617,0.04545002,0.05363363,0.053779285,0.0,0.0,0.0,0.0,-213.58427,0.871725,-144.85268,148.54071,0.0,0.0,0.0,2.0,1.0,-2.86085,0.019899415,0.001131773,97.0,97.0,97.0,97.0,21.302864,21.302864,24.666473,24.666473,0.016304476,0.016190829,-4.0653013E-4,-4.071892E-4,1162.0717,0.0,0.0,0.0,0.0,0.0,0.0,0.0,0.0,0.0,0.0,0.0,0.0,0.0,-23.998358,0.030569803,-83.37462,-1.7630018E-4,0.0041848165,-0.004857206,549893.2,119984.9,0.008854588,0.012711865,7917.288,8011.22,6868.1436,6938.923,0.3053913,0.0,0.0,0.0
106.77863,106.77863,1.233,0.0,0.0,312.65576,11233.0,100.0,0.0,-0.084233955,0.0,8.0,1.0,0.0,4000000.0,110.0,1.0,0.0,0.0,10.0,0.0,0.0,-86.36486,3.4727557,59.600636,0.03650305,0.18057969,-0.0234639,317.71848,317.735,312.5153,312.54224,89.0,88.0,111.0,106.0,97.0,97.0,97.0,97.0,0.0,0.0,0.0,0.0,0.045105267,0.04526904,0.053360134,0.05376831,2.249926,-9.623989,-5.980655,-5.369335,35.820892,-308.11874,-55.347374,-260.73752,0.0,0.0,0.0,2.0,1.0,-2.8606281,0.019470634,0.0011609793,97.0,97.0,97.0,97.0,21.302864,21.302864,24.666473,24.666473,0.016256258,0.016234042,-4.0319757E-4,-4.0540815E-4,1163.3405,0.0,0.0,0.0,0.0,0.0,0.0,0.0,0.0,0.0,0.0,0.0,0.0,0.0,-24.040455,0.030005852,-83.455215,-0.003325398,0.0047374396,0.014493103,549905.5,119984.91,0.009652489,0.013011855,7952.797,7948.7983,6656.4287,6837.885,0.30583858,0.0,0.0,0.0
111.12449,111.12449,1.299,0.0,0.0,312.97076,11246.0,100.0,0.0,-0.053817213,0.0,8.0,1.0,0.0,4000000.0,110.0,1.0,0.0,0.0,10.0,0.0,0.0,-87.568016,3.4735348,55.425804,0.035231683,0.18007524,-0.073899224,318.13336,318.09772,312.83325,312.85266,88.0,88.0,111.0,105.0,97.0,97.0,97.0,97.0,0.0,0.0,0.0,0.0,0.044021383,0.044680644,0.05356303,0.053498175,0.0,0.0,0.0,0.0,396.4573,298.86508,24.984783,650.3149,0.0,0.0,0.0,2.0,1.0,-2.8604214,0.019650802,0.0016041994,97.0,97.0,97.0,97.0,21.302864,21.302864,24.666473,24.666473,0.01658917,0.016410973,-4.0755855E-4,-4.030548E-4,1164.7178,0.0,0.0,0.0,0.0,0.0,0.0,0.0,0.0,0.0,0.0,0.0,0.0,0.0,-24.083036,-0.0014586411,-83.53401,-0.0064710584,0.0030420725,-0.008653758,549920.1,119984.91,0.009328993,0.013906841,7660.7964,7848.584,6830.717,6806.513,0.3069229,0.0,0.0,0.0
115.47475,115.47475,1.349,0.0,0.0,313.28802,11254.0,100.0,0.0,-0.08726121,0.0,8.0,1.0,0.0,4000000.0,110.0,1.0,0.0,0.0,10.0,0.0,0.0,-88.77325,3.473253,51.246986,0.034166552,0.1786518,9.1194734E-4,318.36395,318.30777,313.15057,313.16702,88.0,88.0,111.0,105.0,97.0,97.0,97.0,97.0,0.0,0.0,0.0,0.0,0.044368766,0.04517969,0.053718556,0.053662784,0.0,0.0,0.0,0.0,-211.5726,894.4495,-56.554367,-589.3752,0.0,0.0,0.0,2.0,1.0,-2.860284,0.020654166,0.001439333,97.0,97.0,97.0,97.0,21.302864,21.302864,24.666473,24.666473,0.016271455,0.016054086,-4.0585108E-4,-4.0635507E-4,1165.564,0.0,0.0,0.0,0.0,0.0,0.0,0.0,0.0,0.0,0.0,0.0,0.0,0.0,-24.123798,-0.0056958916,-83.61398,-0.0028871438,0.0026170951,-0.027511673,549928.5,119984.9,0.008826096,0.01276771,7895.927,8111.9175,6913.1616,6861.8706,0.3058567,0.0,0.0,0.0
119.82938,119.82938,1.399,0.0,0.0,313.59967,11266.0,100.0,0.0,-0.06014278,0.0,8.0,1.0,0.0,4000000.0,110.0,1.0,0.0,0.0,10.0,0.0,0.0,-89.98042,3.4730456,47.064186,0.028006691,0.17570126,-0.061067257,318.68063,318.66388,313.46536,313.4818,88.0,87.0,110.0,105.0,97.0,97.0,97.0,97.0,0.0,0.0,0.0,0.0,0.044934805,0.045436274,0.053227045,0.053776436,0.0,0.0,0.0,0.0,-1107.4706,-660.8023,-439.68106,-447.70087,0.0,0.0,0.0,2.0,1.0,-2.8601391,0.020900847,0.0015282631,97.0,97.0,97.0,97.0,21.302864,21.302864,24.666473,24.666473,0.016261233,0.016144568,-4.0201316E-4,-4.0447092E-4,1166.8336,0.0,0.0,0.0,0.0,0.0,0.0,0.0,0.0,0.0,0.0,0.0,0.0,0.0,-24.16098,-0.011447356,-83.69335,-0.008973804,0.003132627,0.01759324,549941.1,119984.91,0.009587719,0.012614474,7884.291,7986.736,6501.275,6797.91,0.3034048,0.0,0.0,0.0
124.18827,124.18827,1.449,0.0,0.0,313.90247,11280.0,100.0,0.0,-0.03817536,0.0,8.0,1.0,0.0,4000000.0,110.0,1.0,0.0,0.0,10.0,0.0,0.0,-91.18939,3.4713488,42.877464,0.021969814,0.16988811,-0.095148794,319.09222,319.07117,313.77145,313.78397,87.0,87.0,110.0,104.0,97.0,97.0,97.0,97.0,0.0,0.0,0.0,0.0,0.044201624,0.044349484,0.053460907,0.053430915,0.0,0.0,0.0,0.0,-427.16855,117.3064,256.05704,608.7138,0.0,0.0,0.0,2.0,1.0,-2.8599916,0.020192273,0.0026077032,97.0,97.0,97.0,97.0,21.302864,21.302864,24.666473,24.666473,0.016563619,0.01648837,-4.0214133E-4,-3.9757654E-4,1168.3163,0.0,0.0,0.0,0.0,0.0,0.0,0.0,0.0,0.0,0.0,0.0,0.0,0.0,-24.195803,-0.056104,-83.77082,-0.019147664,0.0021885464,0.0033655087,549956.5,119984.91,0.010479883,0.014845051,7662.667,7719.0835,6800.1855,6761.6143,0.30825043,0.0,0.0,0.0
128.55136,128.55136,1.499,0.0,0.0,314.19937,11288.0,100.0,0.0,-0.031539936,0.0,8.0,1.0,0.0,4000000.0,110.0,1.0,0.0,0.0,10.0,0.0,0.0,-92.40005,3.4679658,38.686905,0.017513204,0.16987613,-0.015877571,319.3023,319.26868,314.0671,314.07098,87.0,87.0,110.0,104.0,97.0,97.0,97.0,97.0,0.0,0.0,0.0,0.0,0.043879084,0.04423131,0.053813,0.053786054,0.0,0.0,0.0,0.0,1147.9451,1498.0135,-78.52166,-203.19072,0.0,0.0,0.0,2.0,1.0,-2.8599434,0.020495627,0.0025303364,97.0,97.0,97.0,97.0,21.302864,21.302864,24.666473,24.666473,0.016315691,0.016212946,-4.0551095E-4,-4.0304035E-4,1169.1614,0.0,0.0,0.0,0.0,0.0,0.0,0.0,0.0,0.0,0.0,0.0,0.0,0.0,-24.227966,-0.07422581,-83.84737,0.0125106815,4.6593883E-5,-0.017202146,549964.25,119984.91,0.009353045,0.014857316,7856.8643,7960.631,7023.359,6997.9277,0.30765438,0.0,0.0,0.0
132.91858,132.91858,1.549,0.0,0.0,314.5003,11294.0,100.0,0.0,-0.036220837,0.0,8.0,1.0,0.0,4000000.0,110.0,1.0,0.0,0.0,10.0,0.0,0.0,-93.61224,3.464821,34.492477,0.012004197,0.17181486,0.081288174,319.4563,319.44238,314.3658,314.37073,87.0,87.0,109.0,104.0,97.0,97.0,97.0,97.0,0.0,0.0,0.0,0.0,0.045614336,0.046027094,0.05388128,0.054062534,0.0,0.0,0.0,0.0,747.1426,-62.817307,-78.44119,-239.36032,0.0,0.0,0.0,2.0,1.0,-2.859933,0.021018302,0.0014094114,97.0,97.0,97.0,97.0,21.302864,21.302864,24.666473,24.666473,0.015823152,0.015777813,-4.0669244E-4,-4.08914E-4,1169.7963,0.0,0.0,0.0,0.0,0.0,0.0,0.0,0.0,0.0,0.0,0.0,0.0,0.0,-24.257404,-0.046534546,-83.92589,0.019009918,3.926849E-4,-0.010781076,549970.56,119984.9,0.007337979,0.0112235,8247.289,8285.501,7044.9585,7137.336,0.30435658,0.0,0.0,0.0
137.29,137.29,1.599,0.0,0.0,314.79865,11303.0,100.0,0.0,-0.0502656,0.0,8.0,1.0,0.0,4000000.0,110.0,1.0,0.0,0.0,10.0,0.0,0.0,-94.82584,3.464672,30.294104,0.012512319,0.16741447,0.103092186,319.73593,319.72275,314.66373,314.67575,87.0,86.0,109.0,103.0,97.0,97.0,97.0,97.0,0.0,0.0,0.0,0.0,0.047426794,0.04773476,0.053964306,0.054045044,0.0,0.0,0.0,0.0,-1695.4645,-1613.8046,-271.27856,-388.66547,0.0,0.0,0.0,2.0,1.0,-2.8598707,0.021006342,6.235838E-4,97.0,97.0,97.0,97.0,21.302864,21.302864,24.666473,24.666473,0.015714614,0.015646707,-4.0489165E-4,-4.043526E-4,1170.7509,0.0,0.0,0.0,0.0,0.0,0.0,0.0,0.0,0.0,0.0,0.0,0.0,0.0,-24.285198,0.026609534,-84.00413,0.0018447156,0.0018812257,-0.0018062049,549981.1,119984.91,0.007500115,0.009491836,8304.797,8371.849,7008.6514,7023.8955,0.30372047,0.0,0.0,0.0
141.6655,141.6655,1.649,0.0,0.0,315.08902,11319.0,100.0,0.0,-0.041079573,0.0,8.0,1.0,0.0,4000000.0,110.0,1.0,0.0,0.0,10.0,0.0,0.0,-96.04082,3.4661453,26.09187,0.0111647025,0.1623082,-0.050575886,320.16522,320.174,314.9617,314.9669,86.0,86.0,109.0,103.0,97.0,97.0,97.0,97.0,0.0,0.0,0.0,0.0,0.04639883,0.046591017,0.053481046,0.05383338,0.0,0.0,0.0,0.0,-389.57745,-792.1368,-181.43799,163.3331,0.0,0.0,0.0,2.0,1.0,-2.8598075,0.021015072,0.0012289286,97.0,97.0,97.0,97.0,21.302864,21.302864,24.666473,24.666473,0.016128222,0.016129002,-3.951266E-4,-4.024147E-4,1172.4432,0.0,0.0,0.0,0.0,0.0,0.0,0.0,0.0,0.0,0.0,0.0,0.0,0.0,-24.312159,0.022653151,-84.0803,-0.015601564,0.0015666678,0.013448982,549997.56,119984.9,0.009148591,0.011749516,7943.7383,7934.2495,6700.967,6911.998,0.30550575,0.0,0.0,0.0
146.04497,146.04497,1.699,0.0,0.0,315.374,11330.0,100.0,0.0,-0.032037467,0.0,8.0,1.0,0.0,4000000.0,110.0,1.0,0.0,0.0,10.0,0.0,0.0,-97.25715,3.4662602,21.885891,0.011324704,0.16266458,-0.08111239,320.50238,320.47916,315.24316,315.2517,86.0,86.0,108.0,103.0,97.0,97.0,97.0,97.0,0.0,0.0,0.0,0.0,0.045015547,0.04499402,0.05358627,0.053667083,0.0,0.0,0.0,0.0,318.8342,1198.6254,256.76785,-154.13313,0.0,0.0,0.0,2.0,1.0,-2.8597164,0.020319726,0.0018341541,97.0,97.0,97.0,97.0,21.302864,21.302864,24.666473,24.666473,0.016322555,0.016238388,-4.0135777E-4,-3.978977E-4,1173.6084,0.0,0.0,0.0,0.0,0.0,0.0,0.0,0.0,0.0,0.0,0.0,0.0,0.0,-24.339952,-0.017081127,-84.15466,-0.0027461597,0.0013067574,0.010748934,550009.6,119984.91,0.00966466,0.013731684,7798.788,7877.7627,6863.056,6843.541,0.30712223,0.0,0.0,0.0
150.4284,150.4284,1.749,0.0,0.0,315.65695,11338.0,100.0,0.0,-0.03356634,0.0,8.0,1.0,0.0,4000000.0,110.0,1.0,0.0,0.0,10.0,0.0,0.0,-98.47488,3.4648728,17.676205,0.011077285,0.15911902,0.022966884,320.7063,320.686,315.5254,315.5289,86.0,85.0,108.0,102.0,97.0,97.0,97.0,97.0,0.0,0.0,0.0,0.0,0.044912517,0.045097075,0.054005954,0.053808562,0.0,0.0,0.0,0.0,1006.0965,470.1778,74.76653,164.178,0.0,0.0,0.0,2.0,1.0,-2.8596826,0.020788865,0.0017261505,97.0,97.0,97.0,97.0,21.302864,21.302864,24.666473,24.666473,0.01604397,0.016007531,-4.0157756E-4,-4.0191849E-4,1174.4537,0.0,0.0,0.0,0.0,0.0,0.0,0.0,0.0,0.0,0.0,0.0,0.0,0.0,-24.36759,-0.027632797,-84.228485,0.0046674097,2.1935333E-4,-0.030687924,550017.44,119984.9,0.008576233,0.013204324,8025.6343,8044.008,7183.3394,7090.4424,0.306345,0.0,0.0,0.0
154.81577,154.81577,1.799,0.0,0.0,315.93893,11346.0,100.0,0.0,-0.021606034,0.0,8.0,1.0,0.0,4000000.0,110.0,1.0,0.0,0.0,10.0,0.0,0.0,-99.69395,3.4638414,13.462831,0.00605347,0.1587392,0.036584646,320.91956,320.9313,315.80783,315.81406,85.0,85.0,108.0,102.0,97.0,97.0,97.0,97.0,0.0,0.0,0.0,0.0,0.046099335,0.04618346,0.05357052,0.05413619,0.0,0.0,0.0,0.0,-283.77774,-1044.1703,1007.0219,-211.8006,0.0,0.0,0.0,2.0,1.0,-2.8596482,0.021027396,0.0013153553,97.0,97.0,97.0,97.0,21.302864,21.302864,24.666473,24.666473,0.015810922,0.015817031,-4.007196E-4,-4.034711E-4,1175.3009,0.0,0.0,0.0,0.0,0.0,0.0,0.0,0.0,0.0,0.0,0.0,0.0,0.0,-24.393217,-0.013310116,-84.30262,0.005057949,0.0011760326,0.019774308,550026.1,119984.9,0.008368978,0.011519323,8187.191,8171.6826,6884.534,7127.941,0.30560398,0.0,0.0,0.0
159.20699,159.20699,1.833,0.0,0.0,316.21393,11355.0,100.0,0.0,-0.03664622,0.0,8.0,1.0,0.0,4000000.0,110.0,1.0,0.0,0.0,10.0,0.0,0.0,-100.91425,3.4642196,9.245781,0.008067843,0.1570942,0.018017445,321.1654,321.1943,316.0805,316.0912,85.0,85.0,107.0,102.0,97.0,97.0,97.0,97.0,0.0,0.0,0.0,0.0,0.046698596,0.04638935,0.05378238,0.054040965,14.63145,2.8236954,-9.965747,-11.790319,976.88727,8.811063,-717.38354,-813.1786,0.0,0.0,0.0,2.0,1.0,-2.8595936,0.02014307,9.2196465E-4,97.0,97.0,97.0,97.0,21.302864,21.302864,24.666473,24.666473,0.015713088,0.015782941,-3.9849116E-4,-4.00668E-4,1176.2538,0.0,0.0,0.0,0.0,0.0,0.0,0.0,0.0,0.0,0.0,0.0,0.0,0.0,-24.417454,0.016837265,-84.37512,0.007898842,0.0017661327,0.014525539,550035.75,119984.9,0.008716131,0.011250176,8286.639,8192.532,6858.375,6963.9424,0.3042097,0.0,0.0,0.0
163.602,163.602,1.899,0.0,0.0,316.48346,11369.0,100.0,0.0,-0.05800641,0.0,8.0,1.0,0.0,4000000.0,110.0,1.0,0.0,0.0,10.0,0.0,0.0,-102.13586,3.4649537,5.0251603,0.016242892,0.14993663,-0.022421774,321.57364,321.57413,316.3484,316.36334,85.0,84.0,107.0,101.0,97.0,97.0,97.0,97.0,0.0,0.0,0.0,0.0,0.045940667,0.04594808,0.053872686,0.053946506,0.0,0.0,0.0,0.0,-629.1657,-1001.5099,294.4797,450.93292,0.0,0.0,0.0,2.0,1.0,-2.8594806,0.019862726,0.0013659,97.0,97.0,97.0,97.0,21.302864,21.302864,24.666473,24.666473,0.016138334,0.016100809,-3.973728E-4,-3.9941337E-4,1177.7356,0.0,0.0,0.0,0.0,0.0,0.0,0.0,0.0,0.0,0.0,0.0,0.0,0.0,-24.445402,0.010763351,-84.44498,-4.6688053E-4,0.0025703574,0.0012090207,550050.5,119984.9,0.007982952,0.012493357,7884.258,7917.497,7107.4956,7140.198,0.30663776,0.0,0.0,0.0
168.00075,168.00075,1.949,0.0,0.0,316.75446,11373.0,100.0,0.0,-0.031425998,0.0,8.0,1.0,0.0,4000000.0,110.0,1.0,0.0,0.0,10.0,0.0,0.0,-103.35888,3.4665096,0.8010546,0.017404437,0.15321477,0.07296514,321.68732,321.68524,316.6175,316.62955,85.0,84.0,107.0,101.0,97.0,97.0,97.0,97.0,0.0,0.0,0.0,0.0,0.046651244,0.046855718,0.053995278,0.054257628,0.0,0.0,0.0,0.0,415.36682,253.57597,-431.849,-99.63064,0.0,0.0,0.0,2.0,1.0,-2.859378,0.019954162,4.0721893E-4,97.0,97.0,97.0,97.0,21.302864,21.302864,24.666473,24.666473,0.015641155,0.015596755,-4.0050547E-4,-4.0346943E-4,1178.1594,0.0,0.0,0.0,0.0,0.0,0.0,0.0,0.0,0.0,0.0,0.0,0.0,0.0,-24.473824,0.04869169,-84.51511,0.019660477,0.0017540152,-0.0026441626,550054.9,119984.89,0.0073514925,0.010525857,8310.826,8354.633,7050.2217,7206.503,0.30586433,0.0,0.0,0.0
172.4032,172.4032,1.999,0.0,0.0,317.02615,11383.0,100.0,0.0,-0.053299583,0.0,8.0,1.0,0.0,4000000.0,110.0,1.0,0.0,0.0,10.0,0.0,0.0,-104.58336,3.4695861,-3.4265385,0.02168059,0.15500662,0.051171847,321.9873,321.96063,316.89044,316.90472,84.0,84.0,106.0,101.0,97.0,97.0,97.0,97.0,0.0,0.0,0.0,0.0,0.04687396,0.047336616,0.053983692,0.053981293,0.0,0.0,0.0,0.0,-129.44339,976.2703,53.107727,375.1471,0.0,0.0,0.0,2.0,1.0,-2.8592684,0.019994358,-2.002716E-5,97.0,97.0,97.0,97.0,21.302864,21.302864,24.666473,24.666473,0.015709698,0.0155719835,-4.0225647E-4,-4.014812E-4,1178.9803,0.0,0.0,0.0,0.0,0.0,0.0,0.0,0.0,0.0,0.0,0.0,0.0,0.0,-24.504179,0.07191964,-84.58487,-4.627665E-4,0.002291026,-0.0061771935,549954.6,119984.89,0.007094994,0.009318076,8213.584,8380.65,7088.156,7078.8467,0.30287743,0.0,0.0,0.0
176.8094,176.8094,2.049,0.0,0.0,317.29245,11395.0,100.0,0.0,-0.067576036,0.0,8.0,1.0,0.0,4000000.0,110.0,1.0,0.0,0.0,10.0,0.0,0.0,-105.80936,3.4732077,-7.657601,0.02318598,0.1480359,-0.073808424,322.34833,322.31915,317.16483,317.17688,84.0,84.0,106.0,100.0,97.0,97.0,97.0,97.0,0.0,0.0,0.0,0.0,0.046374235,0.04693049,0.053487305,0.05360944,0.0,0.0,0.0,0.0,-1039.9594,-551.3549,6.772613,555.01605,0.0,0.0,0.0,2.0,1.0,-2.8591545,0.020639334,7.9870224E-4,97.0,97.0,97.0,97.0,21.302864,21.302864,24.666473,24.666473,0.015951784,0.015818333,-3.906064E-4,-3.9531876E-4,1179.688,0.0,0.0,0.0,0.0,0.0,0.0,0.0,0.0,0.0,0.0,0.0,0.0,0.0,-24.534702,0.06048895,-84.653046,-0.038053498,0.0029269843,-0.0012502,549705.2,119984.9,0.010118147,0.011264347,7975.0986,8116.9937,6644.81,6743.81,0.30569172,0.0,0.0,0.0
181.21912,181.21912,2.099,0.0,0.0,317.5367,11413.0,100.0,0.0,-0.06718567,0.0,8.0,1.0,0.0,4000000.0,110.0,1.0,0.0,0.0,10.0,0.0,0.0,-107.036835,3.4743524,-11.891894,0.019389741,0.13858977,-0.30219528,322.84875,322.82895,317.40656,317.4203,84.0,83.0,106.0,100.0,97.0,97.0,97.0,97.0,0.0,0.0,0.0,0.0,0.04385374,0.044129193,0.053232353,0.053434655,0.0,0.0,0.0,0.0,-904.1189,-474.29486,-876.9213,-1416.5146,0.0,0.0,0.0,2.0,1.0,-2.8590212,0.020658342,0.0021078587,97.0,97.0,97.0,97.0,21.302864,21.302864,24.666473,24.666473,0.016804887,0.016715068,-3.8696927E-4,-3.8916184E-4,1180.8011,0.0,0.0,0.0,0.0,0.0,0.0,0.0,0.0,0.0,0.0,0.0,0.0,0.0,-24.56373,-0.030695634,-84.715294,-0.015697006,0.0026773794,0.005523062,549356.1,119984.91,0.011439044,0.016007021,7318.5073,7381.6826,6420.842,6478.4,0.31014252,0.0,0.0,0.0
185.63239,185.63239,2.149,0.0,0.0,317.79562,11412.0,100.0,0.0,-0.031378973,0.0,8.0,1.0,0.0,4000000.0,110.0,1.0,0.0,0.0,10.0,0.0,0.0,-108.26587,3.4712026,-16.129408,0.019737542,0.14374246,0.047687978,322.8103,322.8139,317.65463,317.67264,83.0,83.0,105.0,100.0,97.0,97.0,97.0,97.0,0.0,0.0,0.0,0.0,0.044207763,0.044398155,0.053951602,0.05418943,0.0,0.0,0.0,0.0,2099.4988,1760.5481,105.49129,349.02234,0.0,0.0,0.0,2.0,1.0,-2.858871,0.020652646,0.0019675493,97.0,97.0,97.0,97.0,21.302864,21.302864,24.666473,24.666473,0.015899885,0.015862664,-4.0203938E-4,-4.012297E-4,1180.7277,0.0,0.0,0.0,0.0,0.0,0.0,0.0,0.0,0.0,0.0,0.0,0.0,0.0,-24.594816,-0.064374015,-84.78114,0.026727766,0.0024100798,-0.0065099606,549370.06,119984.91,0.008534145,0.013938623,8062.243,8090.0933,7312.045,7439.245,0.30721855,0.0,0.0,0.0
190.04921,190.04921,2.199,0.0,0.0,318.05438,11416.0,100.0,0.0,-0.0037540074,0.0,8.0,1.0,0.0,4000000.0,110.0,1.0,0.0,0.0,10.0,0.0,0.0,-109.49627,3.4689484,-20.370235,0.012907483,0.14779648,0.14418629,322.9098,322.89612,317.92493,317.92105,83.0,83.0,105.0,100.0,97.0,97.0,97.0,97.0,0.0,0.0,0.0,0.0,0.047077786,0.047554456,0.054140415,0.05426245,0.0,0.0,0.0,0.0,94.10522,153.94545,-715.6401,419.76566,0.0,0.0,0.0,2.0,1.0,-2.858874,0.020617716,6.055832E-4,97.0,97.0,97.0,97.0,21.302864,21.302864,24.666473,24.666473,0.01531467,0.015267496,-4.0217585E-4,-4.045713E-4,1180.9988,0.0,0.0,0.0,0.0,0.0,0.0,0.0,0.0,0.0,0.0,0.0,0.0,0.0,-24.619894,-0.016929,-84.84873,0.017655902,-9.823052E-4,-0.0022002605,549303.7,119984.89,0.0065438575,0.008792843,8529.986,8614.791,7190.3066,7290.289,0.30247402,0.0,0.0,0.0
194.46962,194.46962,2.249,0.0,0.0,318.3092,11428.0,100.0,0.0,0.11730733,0.0,8.0,1.0,0.0,4000000.0,110.0,1.0,0.0,0.0,10.0,0.0,0.0,-110.727684,3.4695573,-24.614506,-0.019299794,0.14201684,0.04983791,323.2799,323.24573,318.20334,318.1655,83.0,82.0,105.0,99.0,97.0,97.0,97.0,97.0,0.0,0.0,0.0,0.0,0.04780834,0.047856167,0.054032758,0.05399122,0.0,0.0,0.0,0.0,-2642.8071,-1099.8129,544.2335,-95.4866,0.0,0.0,0.0,2.0,1.0,-2.8590593,0.020344667,8.5246563E-4,97.0,97.0,97.0,97.0,21.302864,21.302864,24.666473,24.666473,0.015551231,0.015569334,-4.0258866E-4,-3.909681E-4,1181.7041,0.0,0.0,0.0,0.0,0.0,0.0,0.0,0.0,0.0,0.0,0.0,0.0,0.0,-24.633978,0.028291246,-84.91834,-0.019525634,-0.0066340035,0.0074282726,549054.56,119984.91,0.0073713483,0.00906201,8253.607,8291.668,7108.0176,7031.422,0.30307102,0.0,0.0,0.0
198.89348,198.89348,2.299,0.0,0.0,318.55197,11441.0,100.0,0.0,0.13310793,0.0,8.0,1.0,0.0,4000000.0,110.0,1.0,0.0,0.0,10.0,0.0,0.0,-111.9595,3.4703918,-28.862232,-0.045230146,0.13895042,-0.09739858,323.6169,323.62625,318.45447,318.3996,83.0,82.0,104.0,99.0,97.0,97.0,97.0,97.0,0.0,0.0,0.0,0.0,0.04624943,0.046157453,0.05384509,0.053764697,0.0,0.0,0.0,0.0,939.89966,-34.53323,-60.363117,218.7073,0.0,0.0,0.0,2.0,1.0,-2.8594768,0.019842777,0.0016243458,97.0,97.0,97.0,97.0,21.302864,21.302864,24.666473,24.666473,0.01585651,0.016049575,-3.943171E-4,-3.9064832E-4,1182.5125,0.0,0.0,0.0,0.0,0.0,0.0,0.0,0.0,0.0,0.0,0.0,0.0,0.0,-24.63699,-0.0034700814,-84.98769,-0.009858821,-0.009255122,0.009453979,548805.9,119984.91,0.008812122,0.012001912,8020.3936,7870.165,6919.4766,6896.3647,0.30556393,0.0,0.0,0.0
203.32071,203.32071,2.349,0.0,0.0,318.7932,11447.0,100.0,0.0,0.11112463,0.0,8.0,1.0,0.0,4000000.0,110.0,1.0,0.0,0.0,10.0,0.0,0.0,-113.19116,3.469359,-33.113518,-0.06255998,0.1362319,-0.0065391674,323.79922,323.7981,318.6915,318.6371,82.0,82.0,104.0,99.0,97.0,97.0,97.0,97.0,0.0,0.0,0.0,0.0,0.04602717,0.045283724,0.053931743,0.05411839,0.0,0.0,0.0,0.0,732.5246,977.61145,305.47675,-486.16376,0.0,0.0,0.0,2.0,1.0,-2.8599606,0.019009614,0.0016559362,97.0,97.0,97.0,97.0,21.302864,21.302864,24.666473,24.666473,0.015691202,0.015848788,-3.9453415E-4,-3.9774904E-4,1182.8632,0.0,0.0,0.0,0.0,0.0,0.0,0.0,0.0,0.0,0.0,0.0,0.0,0.0,-24.628378,-0.026429154,-85.05995,0.018238163,-0.009294977,0.022221526,548680.9,119984.9,0.008363471,0.012430643,8174.443,8023.078,7144.9717,7202.4463,0.30582237,0.0,0.0,0.0
207.75128,207.75128,2.399,0.0,0.0,319.03256,11453.0,100.0,0.0,0.080873296,0.0,8.0,1.0,0.0,4000000.0,110.0,1.0,0.0,0.0,10.0,0.0,0.0,-114.42226,3.468145,-37.368435,-0.0618514,0.13554057,0.0049178074,323.9846,323.95468,318.92966,318.8845,82.0,82.0,104.0,98.0,97.0,97.0,97.0,97.0,0.0,0.0,0.0,0.0,0.046770893,0.04660069,0.05412917,0.05356137,0.0,0.0,0.0,0.0,-90.01493,163.85616,-635.7773,666.2472,0.0,0.0,0.0,2.0,1.0,-2.8603938,0.018630045,0.0012969971,97.0,97.0,97.0,97.0,21.302864,21.302864,24.666473,24.666473,0.015485821,0.015528037,-3.9216792E-4,-3.9329415E-4,1183.2233,0.0,0.0,0.0,0.0,0.0,0.0,0.0,0.0,0.0,0.0,0.0,0.0,0.0,-24.616499,-0.0236248,-85.1326,-0.01169917,-0.0074676694,-0.010325109,548560.4,119984.9,0.009428802,0.011218533,8308.727,8298.419,7039.08,6799.7275,0.30558777,0.0,0.0,0.0
212.18509,212.18509,2.449,0.0,0.0,319.25845,11466.0,100.0,0.0,0.045393486,0.0,8.0,1.0,0.0,4000000.0,110.0,1.0,0.0,0.0,10.0,0.0,0.0,-115.652824,3.4667323,-41.626873,-0.054517575,0.12610124,-0.08130374,324.35257,324.33618,319.14383,319.11984,82.0,81.0,103.0,98.0,97.0,97.0,97.0,97.0,0.0,0.0,0.0,0.0,0.04602224,0.045723867,0.054016847,0.053876214,0.0,0.0,0.0,0.0,-1165.1381,-673.30145,21.471079,-940.39575,0.0,0.0,0.0,2.0,1.0,-2.860656,0.019227317,0.001778245,97.0,97.0,97.0,97.0,21.302864,21.302864,24.666473,24.666473,0.015967788,0.015997278,-3.8995408E-4,-3.920828E-4,1184.0065,0.0,0.0,0.0,0.0,0.0,0.0,0.0,0.0,0.0,0.0,0.0,0.0,0.0,-24.60748,-0.040051512,-85.200516,-0.00168367,-0.0039779,-0.012906037,548301.1,119984.9,0.009064406,0.013130237,7878.6396,7831.9707,7095.16,6997.382,0.3069458,0.0,0.0,0.0
216.6221,216.6221,2.499,0.0,0.0,319.49258,11468.0,100.0,0.0,0.07577642,0.0,8.0,1.0,0.0,4000000.0,110.0,1.0,0.0,0.0,10.0,0.0,0.0,-116.88307,3.4648762,-45.888737,-0.048038922,0.1312516,0.09757866,324.39297,324.39438,319.37057,319.35147,81.0,81.0,103.0,98.0,97.0,97.0,97.0,97.0,0.0,0.0,0.0,0.0,0.046786968,0.046682462,0.05432888,0.05428842,0.0,0.0,0.0,0.0,1160.1492,529.5618,13.987712,-266.4506,0.0,0.0,0.0,2.0,1.0,-2.8608284,0.019389156,9.7489357E-4,97.0,97.0,97.0,97.0,21.302864,21.302864,24.666473,24.666473,0.0153755285,0.01543454,-4.001322E-4,-3.9693585E-4,1184.1313,0.0,0.0,0.0,0.0,0.0,0.0,0.0,0.0,0.0,0.0,0.0,0.0,0.0,-24.602201,-0.020375464,-85.26974,0.025843585,-0.0038628238,-0.0033719486,548263.3,119984.91,0.007191827,0.010583234,8414.945,8359.523,7387.3613,7363.795,0.3045578,0.0,0.0,0.0
221.06233,221.06233,2.549,0.0,0.0,319.72693,11475.0,100.0,0.0,0.064516135,0.0,8.0,1.0,0.0,4000000.0,110.0,1.0,0.0,0.0,10.0,0.0,0.0,-118.11313,3.4651866,-50.154022,-0.038095336,0.13225506,0.11190392,324.59802,324.5867,319.60876,319.5891,81.0,81.0,103.0,97.0,97.0,97.0,97.0,97.0,0.0,0.0,0.0,0.0,0.048271444,0.04827021,0.05429647,0.054133877,0.0,0.0,0.0,0.0,-1005.68054,-875.71423,-34.38591,270.72873,0.0,0.0,0.0,2.0,1.0,-2.8610058,0.019514147,2.5641918E-4,97.0,97.0,97.0,97.0,21.302864,21.302864,24.666473,24.666473,0.015232915,0.015256095,-3.9952455E-4,-3.955343E-4,1184.553,0.0,0.0,0.0,0.0,0.0,0.0,0.0,0.0,0.0,0.0,0.0,0.0,0.0,-24.60102,0.031487975,-85.33782,-0.0021182583,-0.0034961023,-0.005475161,548124.0,119984.9,0.006754062,0.008239138,8506.001,8503.784,7248.5586,7183.324,0.30307007,0.0,0.0,0.0
225.50575,225.50575,2.599,0.0,0.0,319.95267,11487.0,100.0,0.0,0.08820879,0.0,8.0,1.0,0.0,4000000.0,110.0,1.0,0.0,0.0,10.0,0.0,0.0,-119.34311,3.4675834,-54.42267,-0.04386419,0.12639308,-0.02243619,324.9288,324.9273,319.84476,319.81122,81.0,80.0,102.0,97.0,97.0,97.0,97.0,97.0,0.0,0.0,0.0,0.0,0.04750781,0.04739477,0.054051362,0.054033466,0.0,0.0,0.0,0.0,17.59529,-285.01154,71.011475,-368.34772,0.0,0.0,0.0,2.0,1.0,-2.8612435,0.019563992,6.952286E-4,97.0,97.0,97.0,97.0,21.302864,21.302864,24.666473,24.666473,0.015523095,0.015614617,-3.914807E-4,-3.8962232E-4,1185.2892,0.0,0.0,0.0,0.0,0.0,0.0,0.0,0.0,0.0,0.0,0.0,0.0,0.0,-24.598026,0.048829347,-85.40394,-0.011163322,-0.0055494057,0.006967272,547891.7,119984.9,0.007994459,0.01004272,8220.454,8150.542,7054.211,7037.8965,0.30461025,0.0,0.0,0.0
229.95227,229.95227,2.649,0.0,0.0,320.17358,11498.0,100.0,0.0,0.09302335,0.0,8.0,1.0,0.0,4000000.0,110.0,1.0,0.0,0.0,10.0,0.0,0.0,-120.57289,3.4689023,-58.694588,-0.048747666,0.12526745,-0.08638541,325.236,325.20596,320.06894,320.02844,81.0,80.0,102.0,97.0,97.0,97.0,97.0,97.0,0.0,0.0,0.0,0.0,0.04608727,0.0461189,0.05397866,0.053765703,0.0,0.0,0.0,0.0,360.52893,453.69562,-68.47678,734.0803,0.0,0.0,0.0,2.0,1.0,-2.8615594,0.019830756,0.0013751984,97.0,97.0,97.0,97.0,21.302864,21.302864,24.666473,24.666473,0.015801663,0.015820256,-3.8969083E-4,-3.8894318E-4,1185.9835,0.0,0.0,0.0,0.0,0.0,0.0,0.0,0.0,0.0,0.0,0.0,0.0,0.0,-24.593355,0.0051369676,-85.469154,-0.010429757,-0.006750104,-0.0037373176,547688.2,119984.9,0.008748176,0.012176432,7969.409,7990.8315,7061.7285,6993.157,0.30587387,0.0,0.0,0.0
234.40186,234.40186,2.699,0.0,0.0,320.39377,11503.0,100.0,0.0,0.054211006,0.0,8.0,1.0,0.0,4000000.0,110.0,1.0,0.0,0.0,10.0,0.0,0.0,-121.80241,3.4683986,-62.969765,-0.04864283,0.12536725,-0.0066565764,325.36893,325.3628,320.279,320.25058,80.0,80.0,102.0,97.0,97.0,97.0,97.0,97.0,0.0,0.0,0.0,0.0,0.04602349,0.045801517,0.05414039,0.05409557,0.0,0.0,0.0,0.0,876.8408,1130.4436,533.2499,-170.26659,0.0,0.0,0.0,2.0,1.0,-2.8618526,0.01981848,0.0012677908,97.0,97.0,97.0,97.0,21.302864,21.302864,24.666473,24.666473,0.0155527415,0.015614215,-3.9392125E-4,-3.9420847E-4,1186.277,0.0,0.0,0.0,0.0,0.0,0.0,0.0,0.0,0.0,0.0,0.0,0.0,0.0,-24.587545,-0.016455853,-85.53446,0.013457361,-0.005065916,3.4377445E-5,547585.56,119984.9,0.0073420294,0.011484474,8197.709,8149.7305,7273.3643,7224.4346,0.30486298,0.0,0.0,0.0
238.85449,238.85449,2.749,0.0,0.0,320.61694,11507.0,100.0,0.0,0.020810355,0.0,8.0,1.0,0.0,4000000.0,110.0,1.0,0.0,0.0,10.0,0.0,0.0,-123.03166,3.4681063,-67.24822,-0.040784325,0.12653562,0.056858707,325.49344,325.49158,320.49957,320.47943,80.0,80.0,101.0,96.0,97.0,97.0,97.0,97.0,0.0,0.0,0.0,0.0,0.047510717,0.04751343,0.05421954,0.05402901,0.0,0.0,0.0,0.0,82.491295,-726.93207,-356.3046,171.01764,0.0,0.0,0.0,2.0,1.0,-2.86208,0.01998491,6.480217E-4,97.0,97.0,97.0,97.0,21.302864,21.302864,24.666473,24.666473,0.0152172,0.015268438,-3.922575E-4,-3.9634752E-4,1186.494,0.0,0.0,0.0,0.0,0.0,0.0,0.0,0.0,0.0,0.0,0.0,0.0,0.0,-24.58323,0.006164628,-85.600204,-0.0017848915,-0.0032315743,-0.0069034644,547495.4,119984.91,0.0071134786,0.008880434,8483.36,8434.146,7162.367,7104.878,0.3034563,0.0,0.0,0.0
243.3102,243.3102,2.799,0.0,0.0,320.83157,11519.0,100.0,0.0,0.04313119,0.0,8.0,1.0,0.0,4000000.0,110.0,1.0,0.0,0.0,10.0,0.0,0.0,-124.26076,3.4687617,-71.5299,-0.036573455,0.11997232,-0.03911712,325.81537,325.81537,320.71307,320.6995,80.0,79.0,101.0,96.0,97.0,97.0,97.0,97.0,0.0,0.0,0.0,0.0,0.047242004,0.047113903,0.05396828,0.054163933,0.0,0.0,0.0,0.0,-821.27893,-368.61594,-122.77809,-451.22794,0.0,0.0,0.0,2.0,1.0,-2.8621926,0.019793686,0.0010576248,97.0,97.0,97.0,97.0,21.302864,21.302864,24.666473,24.666473,0.015550229,0.015570878,-3.8948152E-4,-3.8949493E-4,1187.2468,0.0,0.0,0.0,0.0,0.0,0.0,0.0,0.0,0.0,0.0,0.0,0.0,0.0,-24.58179,0.009833872,-85.66264,-0.0025319397,-0.002131251,0.020541271,547272.0,119984.9,0.007566474,0.010214237,8140.0933,8141.4355,7043.978,7146.075,0.30427837,0.0,0.0,0.0
247.76886,247.76886,2.849,0.0,0.0,321.04443,11526.0,100.0,0.0,0.05794146,0.0,8.0,1.0,0.0,4000000.0,110.0,1.0,0.0,0.0,10.0,0.0,0.0,-125.48985,3.4684517,-75.81467,-0.034395218,0.11964287,-0.06611699,326.0571,326.01736,320.93353,320.90714,79.0,79.0,101.0,96.0,97.0,97.0,97.0,97.0,0.0,0.0,0.0,0.0,0.046513774,0.04649649,0.05410777,0.05368752,0.0,0.0,0.0,0.0,-242.12297,452.4081,-401.5937,1091.5785,0.0,0.0,0.0,2.0,1.0,-2.8623683,0.019549154,0.0015643835,97.0,97.0,97.0,97.0,21.302864,21.302864,24.666473,24.666473,0.015604529,0.015570011,-3.903333E-4,-3.858649E-4,1187.6321,0.0,0.0,0.0,0.0,0.0,0.0,0.0,0.0,0.0,0.0,0.0,0.0,0.0,-24.58106,-0.022133447,-85.724365,-0.017024158,-0.0044907015,-0.00944851,547117.1,119984.9,0.008568082,0.011273183,8087.325,8148.831,7098.453,6933.2397,0.30474567,0.0,0.0,0.0
252.23041,252.23041,2.899,0.0,0.0,321.2474,11535.0,100.0,0.0,0.020013468,0.0,8.0,1.0,0.0,4000000.0,110.0,1.0,0.0,0.0,10.0,0.0,0.0,-126.71895,3.4666746,-80.10245,-0.033152543,0.114615686,-0.074955456,326.263,326.2748,321.12927,321.11533,79.0,79.0,100.0,95.0,97.0,97.0,97.0,97.0,0.0,0.0,0.0,0.0,0.046185967,0.04581268,0.053854313,0.054110438,0.0,0.0,0.0,0.0,31.220911,110.0913,951.2587,-1070.7914,0.0,0.0,0.0,2.0,1.0,-2.862532,0.019558271,0.0020737648,97.0,97.0,97.0,97.0,21.302864,21.302864,24.666473,24.666473,0.015631242,0.01571061,-3.8584872E-4,-3.884553E-4,1188.2089,0.0,0.0,0.0,0.0,0.0,0.0,0.0,0.0,0.0,0.0,0.0,0.0,0.0,-24.5814,-0.05147765,-85.782906,-0.0017616116,-0.0021087672,0.012839358,546955.75,119984.9,0.008451863,0.012609243,8086.322,7989.375,7050.6426,7115.4346,0.30615425,0.0,0.0,0.0
256.69476,256.69476,2.949,0.0,0.0,321.45416,11538.0,100.0,0.0,0.036057927,0.0,8.0,1.0,0.0,4000000.0,110.0,1.0,0.0,0.0,10.0,0.0,0.0,-127.94806,3.4639266,-84.39314,-0.0270572,0.11999279,0.05181296,326.3569,326.34436,321.3281,321.31375,79.0,79.0,100.0,95.0,97.0,97.0,97.0,97.0,0.0,0.0,0.0,0.0,0.046526376,0.046463765,0.054644395,0.05428582,0.0,0.0,0.0,0.0,1886.1559,1164.7357,-595.6381,52.745644,0.0,0.0,0.0,2.0,1.0,-2.8626587,0.01928052,0.0013247728,97.0,97.0,97.0,97.0,21.302864,21.302864,24.666473,24.666473,0.015311945,0.015335783,-3.9912394E-4,-3.9496415E-4,1188.3883,0.0,0.0,0.0,0.0,0.0,0.0,0.0,0.0,0.0,0.0,0.0,0.0,0.0,-24.583595,-0.047778282,-85.842026,0.031083254,-0.0033865287,-0.020418815,546896.1,119984.9,0.0046505453,0.009735922,8373.799,8350.489,7572.4917,7406.8467,0.30355072,0.0,0.0,0.0
261.16205,261.16205,2.999,0.0,0.0,321.66974,11538.0,100.0,0.0,0.006905466,0.0,8.0,1.0,0.0,4000000.0,110.0,1.0,0.0,0.0,10.0,0.0,0.0,-129.17735,3.4657083,-88.686844,-0.013362668,0.12494689,0.30643627,326.3677,326.32623,321.53967,321.54114,79.0,78.0,100.0,95.0,97.0,97.0,97.0,97.0,0.0,0.0,0.0,0.0,0.049157154,0.0495177,0.054652255,0.054734126,0.0,0.0,0.0,0.0,-4869.952,-5989.0103,-329.14716,-305.9327,0.0,0.0,0.0,2.0,1.0,-2.8627427,0.020643922,-5.286932E-4,97.0,97.0,97.0,97.0,21.302864,21.302864,24.666473,24.666473,0.0146251,0.014491567,-4.0029795E-4,-4.0030977E-4,1188.3848,0.0,0.0,0.0,0.0,0.0,0.0,0.0,0.0,0.0,0.0,0.0,0.0,0.0,-24.59007,0.10764008,-85.902405,-0.0014456057,1.6851115E-4,-0.014543908,546894.5,119984.89,0.004238709,0.0054935194,8979.394,9129.084,7369.4805,7455.2637,0.30048275,0.0,0.0,0.0
265.63217,265.63217,3.049,0.0,0.0,321.86298,11556.0,100.0,0.0,-0.031301405,0.0,8.0,1.0,0.0,4000000.0,110.0,1.0,0.0,0.0,10.0,0.0,0.0,-130.40704,3.4721165,-92.98338,-0.010814454,0.11192648,-0.14238112,326.87344,326.8596,321.74576,321.73962,78.0,78.0,100.0,95.0,97.0,97.0,97.0,97.0,0.0,0.0,0.0,0.0,0.047070753,0.047295265,0.05401478,0.05381376,0.0,0.0,0.0,0.0,1036.7676,1270.978,-540.7199,-260.06696,0.0,0.0,0.0,2.0,1.0,-2.862769,0.020864869,4.1913986E-4,97.0,97.0,97.0,97.0,21.302864,21.302864,24.666473,24.666473,0.01554813,0.015522244,-3.7936823E-4,-3.8345397E-4,1189.4636,0.0,0.0,0.0,0.0,0.0,0.0,0.0,0.0,0.0,0.0,0.0,0.0,0.0,-24.597555,0.11116613,-85.956085,-0.03648725,-1.5486582E-4,6.1549246E-5,546538.4,119984.91,0.008145898,0.009270236,8074.454,8121.5186,6822.702,6719.9175,0.30357933,0.0,0.0,0.0
270.10358,270.10358,3.099,0.0,0.0,322.05157,11570.0,100.0,0.0,0.047383957,0.0,8.0,1.0,0.0,4000000.0,110.0,1.0,0.0,0.0,10.0,0.0,0.0,-131.63727,3.4746659,-97.28254,-0.014344952,0.10740186,-0.2807668,327.2761,327.26868,321.9335,321.93,78.0,78.0,99.0,94.0,97.0,97.0,97.0,97.0,0.0,0.0,0.0,0.0,0.044388343,0.04459306,0.053399973,0.05357292,0.0,0.0,0.0,0.0,575.7227,451.12057,400.05142,51.136303,0.0,0.0,0.0,2.0,1.0,-2.8627284,0.021292305,0.0022574663,97.0,97.0,97.0,97.0,21.302864,21.302864,24.666473,24.666473,0.01627101,0.016254414,-3.795416E-4,-3.73659E-4,1190.294,0.0,0.0,0.0,0.0,0.0,0.0,0.0,0.0,0.0,0.0,0.0,0.0,0.0,-24.61011,-0.011783391,-86.00706,-0.026607558,-2.883523E-4,0.0096214255,546258.06,119984.9,0.011603606,0.015402238,7524.5273,7552.4473,6669.1406,6753.0,0.30854988,0.0,0.0,0.0
274.57712,274.57712,3.149,0.0,0.0,322.2341,11576.0,100.0,0.0,-0.04529864,0.0,8.0,1.0,0.0,4000000.0,110.0,1.0,0.0,0.0,10.0,0.0,0.0,-132.8681,3.4712284,-101.58417,-0.002362227,0.100775875,-0.29807678,327.44754,327.44147,322.1096,322.11096,78.0,78.0,99.0,94.0,97.0,97.0,97.0,97.0,0.0,0.0,0.0,0.0,0.04313734,0.043308176,0.053502966,0.05355947,0.0,0.0,0.0,0.0,-816.33026,-1004.742,-1323.2944,-1048.6498,0.0,0.0,0.0,2.0,1.0,-2.8627415,0.021184826,0.0029164553,97.0,97.0,97.0,97.0,21.302864,21.302864,24.666473,24.666473,0.01627191,0.01624737,-3.762712E-4,-3.8153134E-4,1190.6483,0.0,0.0,0.0,0.0,0.0,0.0,0.0,0.0,0.0,0.0,0.0,0.0,0.0,-24.623638,-0.12516159,-86.05583,-0.0024218948,4.9040647E-4,0.0025576719,546137.5,119984.9,0.011216809,0.016705677,7466.4795,7491.4736,6626.8164,6661.335,0.3102026,0.0,0.0,0.0
279.05328,279.05328,3.199,0.0,0.0,322.42862,11570.0,100.0,0.0,-0.06303695,0.0,8.0,1.0,0.0,4000000.0,110.0,1.0,0.0,0.0,10.0,0.0,0.0,-134.09966,3.4642177,-105.88836,0.0037836935,0.10836126,0.13841435,327.27542,327.27457,322.29114,322.29938,78.0,77.0,99.0,94.0,97.0,97.0,97.0,97.0,0.0,0.0,0.0,0.0,0.0458612,0.045922756,0.054429386,0.05455607,0.0,0.0,0.0,0.0,1540.9961,1697.7039,-100.0463,-44.819637,0.0,0.0,0.0,2.0,1.0,-2.8627226,0.02113397,0.0019514561,97.0,97.0,97.0,97.0,21.302864,21.302864,24.666473,24.666473,0.015141184,0.015113846,-3.925803E-4,-3.9896948E-4,1190.2748,0.0,0.0,0.0,0.0,0.0,0.0,0.0,0.0,0.0,0.0,0.0,0.0,0.0,-24.638044,-0.12186463,-86.10792,0.037749898,8.076434E-4,-0.010163433,546249.3,119984.91,0.007260455,0.011385146,8493.158,8515.798,7607.1953,7672.0205,0.3048687,0.0,0.0,0.0
283.53217,283.53217,3.249,0.0,0.0,322.6246,11571.0,100.0,0.0,-0.015711106,0.0,8.0,1.0,0.0,4000000.0,110.0,1.0,0.0,0.0,10.0,0.0,0.0,-135.33195,3.4612598,-110.19511,0.0039565936,0.11828778,0.3172614,327.288,327.2792,322.4901,322.498,77.0,77.0,98.0,93.0,97.0,97.0,97.0,97.0,0.0,0.0,0.0,0.0,0.049358815,0.049435697,0.05466782,0.054760315,0.0,0.0,0.0,0.0,-4543.8896,-4538.726,-217.67465,-370.96283,0.0,0.0,0.0,2.0,1.0,-2.8626652,0.020997416,1.6379356E-4,97.0,97.0,97.0,97.0,21.302864,21.302864,24.666473,24.666473,0.014521211,0.014479032,-4.0171682E-4,-3.9857623E-4,1190.3566,0.0,0.0,0.0,0.0,0.0,0.0,0.0,0.0,0.0,0.0,0.0,0.0,0.0,-24.652498,0.006808703,-86.16049,0.011173405,9.0091216E-4,1.4774967E-4,546239.6,119984.9,0.005605071,0.006581746,9055.16,9106.574,7509.9937,7536.3496,0.30147648,0.0,0.0,0.0
288.01364,288.01364,3.299,0.0,0.0,322.79932,11586.0,100.0,0.0,-0.0038928315,0.0,8.0,1.0,0.0,4000000.0,110.0,1.0,0.0,0.0,10.0,0.0,0.0,-136.565,3.46409,-114.50437,0.005818723,0.09537419,0.017624114,327.74084,327.72717,322.67343,322.67783,77.0,77.0,98.0,93.0,97.0,97.0,97.0,97.0,0.0,0.0,0.0,0.0,0.047754236,0.047769226,0.05442988,0.054505605,0.0,0.0,0.0,0.0,-368.21362,-16.03958,135.35765,-62.602753,0.0,0.0,0.0,2.0,1.0,-2.8625896,0.020850385,8.401871E-4,97.0,97.0,97.0,97.0,21.302864,21.302864,24.666473,24.666473,0.015287233,0.015248995,-3.8592826E-4,-3.8252387E-4,1191.2264,0.0,0.0,0.0,0.0,0.0,0.0,0.0,0.0,0.0,0.0,0.0,0.0,0.0,-24.668098,0.07452417,-86.206474,-0.015915575,8.513778E-4,0.004014009,545931.06,119984.89,0.006529159,0.009535032,8263.097,8302.358,7326.867,7345.2373,0.30390072,0.0,0.0,0.0
292.4975,292.4975,3.349,0.0,0.0,322.97662,11592.0,100.0,0.0,0.09698506,0.0,8.0,1.0,0.0,4000000.0,110.0,1.0,0.0,0.0,10.0,0.0,0.0,-137.79865,3.4678907,-118.81595,-0.0149335265,0.10369232,-0.025416028,327.9051,327.88284,322.86307,322.83243,77.0,77.0,98.0,93.0,97.0,97.0,97.0,97.0,0.0,0.0,0.0,0.0,0.047004785,0.04720502,0.0543258,0.054425605,0.0,0.0,0.0,0.0,1015.88654,668.3259,-350.4306,-17.313658,0.0,0.0,0.0,2.0,1.0,-2.8627512,0.021512695,3.1077862E-4,97.0,97.0,97.0,97.0,21.302864,21.302864,24.666473,24.666473,0.015284224,0.015299214,-3.8853174E-4,-3.859817E-4,1191.5978,0.0,0.0,0.0,0.0,0.0,0.0,0.0,0.0,0.0,0.0,0.0,0.0,0.0,-24.676851,0.0717531,-86.2552,0.0178163,-0.005816716,-0.011951987,545818.56,119984.9,0.0069235447,0.010376215,8281.23,8309.768,7199.7803,7290.3164,0.3049097,0.0,0.0,0.0
296.98398,296.98398,3.399,0.0,0.0,323.1637,11597.0,100.0,0.0,0.06989207,0.0,8.0,1.0,0.0,4000000.0,110.0,1.0,0.0,0.0,10.0,0.0,0.0,-139.03262,3.4714053,-123.13011,-0.030468617,0.10782074,0.02451463,328.04315,328.00894,323.05603,323.01666,77.0,76.0,97.0,93.0,97.0,97.0,97.0,97.0,0.0,0.0,0.0,0.0,0.047693178,0.04773049,0.05429412,0.054131787,0.0,0.0,0.0,0.0,364.6865,940.9725,346.01834,209.38661,0.0,0.0,0.0,2.0,1.0,-2.8630795,0.021409145,-3.1077862E-4,97.0,97.0,97.0,97.0,21.302864,21.302864,24.666473,24.666473,0.015085166,0.015099994,-3.910616E-4,-3.892116E-4,1191.9081,0.0,0.0,0.0,0.0,0.0,0.0,0.0,0.0,0.0,0.0,0.0,0.0,0.0,-24.678864,0.07275526,-86.30867,0.0015207727,-0.006880854,-0.0032994342,545725.3,119984.9,0.0062029855,0.008193557,8451.093,8477.409,7276.453,7166.931,0.3022833,0.0,0.0,0.0
301.473,301.473,3.449,0.0,0.0,323.3477,11605.0,100.0,0.0,0.012874388,0.0,8.0,1.0,0.0,4000000.0,110.0,1.0,0.0,0.0,10.0,0.0,0.0,-140.26665,3.4756536,-127.44695,-0.029510343,0.10281348,-0.017747214,328.23935,328.26593,323.23538,323.21524,76.0,76.0,97.0,92.0,97.0,97.0,97.0,97.0,0.0,0.0,0.0,0.0,0.048070207,0.047687322,0.05391246,0.054290492,0.0,0.0,0.0,0.0,-578.4719,-227.18306,-568.065,-497.57654,0.0,0.0,0.0,2.0,1.0,-2.863321,0.021119395,1.0192394E-4,97.0,97.0,97.0,97.0,21.302864,21.302864,24.666473,24.666473,0.015118276,0.015242155,-3.7691425E-4,-3.903259E-4,1192.3866,0.0,0.0,0.0,0.0,0.0,0.0,0.0,0.0,0.0,0.0,0.0,0.0,0.0,-24.67808,0.08649396,-86.36204,-0.01590194,-0.0022972191,0.021761514,545568.06,119984.91,0.0078109577,0.008798015,8424.722,8284.273,6938.6343,7166.8105,0.3016796,0.0,0.0,0.0
305.96448,305.96448,3.499,0.0,0.0,323.51404,11620.0,100.0,0.0,-0.057671957,0.0,8.0,1.0,0.0,4000000.0,110.0,1.0,0.0,0.0,10.0,0.0,0.0,-141.50069,3.4783518,-131.76631,-0.015402665,0.09026654,-0.28170374,328.71524,328.67117,323.3953,323.39438,76.0,76.0,97.0,92.0,97.0,97.0,97.0,97.0,0.0,0.0,0.0,0.0,0.045804016,0.045799565,0.053941242,0.053393938,0.0,0.0,0.0,0.0,-2387.179,-1269.5564,-517.08966,-368.49527,0.0,0.0,0.0,2.0,1.0,-2.86335,0.020623324,0.0016326904,97.0,97.0,97.0,97.0,21.302864,21.302864,24.666473,24.666473,0.016081342,0.015967526,-3.73596E-4,-3.72992E-4,1193.2646,0.0,0.0,0.0,0.0,0.0,0.0,0.0,0.0,0.0,0.0,0.0,0.0,0.0,-24.681349,0.0039009647,-86.40921,-0.031773694,3.1281984E-4,-0.006214819,545265.06,119984.9,0.009969086,0.013507955,7519.038,7647.241,6887.2715,6553.7695,0.30767822,0.0,0.0,0.0
310.45828,310.45828,3.549,0.0,0.0,323.68875,11618.0,100.0,0.0,-0.054530706,0.0,8.0,1.0,0.0,4000000.0,110.0,1.0,0.0,0.0,10.0,0.0,0.0,-142.73506,3.4764762,-136.08803,-0.0014919937,0.098646864,-0.014958233,328.63382,328.62405,323.55206,323.5664,76.0,76.0,97.0,92.0,97.0,97.0,97.0,97.0,0.0,0.0,0.0,0.0,0.045104053,0.045620177,0.054223433,0.054310523,0.0,0.0,0.0,0.0,2456.4607,2395.1184,-348.35184,89.840576,0.0,0.0,0.0,2.0,1.0,-2.8632777,0.022168294,0.0016466379,97.0,97.0,97.0,97.0,21.302864,21.302864,24.666473,24.666473,0.015400237,0.015314183,-3.8455348E-4,-3.9135726E-4,1193.1477,0.0,0.0,0.0,0.0,0.0,0.0,0.0,0.0,0.0,0.0,0.0,0.0,0.0,-24.693352,-0.051339816,-86.45624,0.015439409,0.0022190358,-0.031127315,545305.44,119984.91,0.007907386,0.012491256,8177.6084,8267.571,7357.3555,7469.3354,0.305151,0.0,0.0,0.0
314.95493,314.95493,3.599,0.0,0.0,323.86554,11620.0,100.0,0.0,-0.06756717,0.0,8.0,1.0,0.0,4000000.0,110.0,1.0,0.0,0.0,10.0,0.0,0.0,-143.97011,3.4744596,-140.41208,0.008191289,0.10065403,0.115200646,328.66104,328.67026,323.72366,323.74756,76.0,75.0,96.0,91.0,97.0,97.0,97.0,97.0,0.0,0.0,0.0,0.0,0.047952402,0.048182808,0.054267853,0.054670833,0.0,0.0,0.0,0.0,-217.94287,-409.69388,-136.06844,-406.22055,0.0,0.0,0.0,2.0,1.0,-2.8631217,0.022234518,5.079508E-4,97.0,97.0,97.0,97.0,21.302864,21.302864,24.666473,24.666473,0.014901697,0.014855173,-3.8813628E-4,-3.937849E-4,1193.2911,0.0,0.0,0.0,0.0,0.0,0.0,0.0,0.0,0.0,0.0,0.0,0.0,0.0,-24.708006,-0.018176613,-86.503136,0.02092133,0.00391377,0.009694572,545277.1,119984.9,0.0057963836,0.007925215,8626.641,8653.396,7334.5933,7522.0186,0.30177212,0.0,0.0,0.0
