LapDistance [m],TotalDistance [m],LapTime [s],Sector1Time [s],Sector2Time [s],Speed [km/h],EngineRevs [rpm],ThrottlePercentage [%],BrakePercentage [%],Steer [%],Clutch [%],Gear [int],DRS [0/1],CanUseDRS [0/1],KERSLevel [J],EngineTemperature [C],RacePosition [int],Sector [int],InPits [int],FuelRemaining [kg],CurrentFlag [int],CurrentLapInvalid [int],X [m],Y [m],Z [m],GForceLatitudinal [G],GForceLongitudinal [G],GForceVertical [G],WheelSpeedRearLeft [km/h],WheelSpeedRearRight [km/h],WheelSpeedFrontLeft [km/h],WheelSpeedFrontRight [km/h],BrakeTemperatureRearLeft [C],BrakeTemperatureRearRight [C],BrakeTemperatureFrontLeft [C],BrakeTemperatureFrontRight [C],TyreTemperatureRearLeft [C],TyreTemperatureRearRight [C],TyreTemperatureFrontLeft [C],TyreTemperatureFrontRight [C],TyreWearRearLeft [%],TyreWearRearRight [%],TyreWearFrontLeft [%],TyreWearFrontRight [%],SuspensionPositionRearLeft [m],SuspensionPositionRearRight [m],SuspensionPositionFrontLeft [m],SuspensionPositionFrontRight [m],SuspensionVelocityRearLeft [m/s],SuspensionVelocityRearRight [m/s],SuspensionVelocityFrontLeft [m/s],SuspensionVelocityFrontRight [m/s],SuspensionAccelerationRearLeft [m/s^2],SuspensionAccelerationRearRight [m/s^2],SuspensionAccelerationFrontLeft [m/s^2],SuspensionAccelerationFrontRight [m/s^2],MGUKHarvested [J],MGUHHarvested [J],ERSSpent [J],ERSMode [int],FuelMixMode [int],Yaw [rad],Roll [rad],Pitch [rad],TyreCarcassTemperatureRearLeft [C],TyreCarcassTemperatureRearRight [C],TyreCarcassTemperatureFrontLeft [C],TyreCarcassTemperatureFrontRight [C],TyrePressureRearLeft [PSI],TyrePressureRearRight [PSI],TyrePressureFrontLeft [PSI],TyrePressureFrontRight [PSI],WheelSlipRearLeft [%],WheelSlipRearRight [%],WheelSlipFrontLeft [%],WheelSlipFrontRight [%],Torque [Nm],Handbrake [%],RearLeftInside [C],RearLeftMiddle [C],RearLeftOutside [C],RearRightInside [C],RearRightMiddle [C],RearRightOutside [C],FrontLeftInside [C],FrontLeftMiddle [C],FrontLeftOutside [C],FrontRightInside [C],FrontRightMiddle [C],FrontRightOutside [C],WoldSpeedX [km/h],WoldSpeedY [km/h],WoldSpeedZ [km/h],LocalAngularVelocityX [rad/s],LocalAngularVelocityY [rad/s],LocalAngularVelocityZ [rad/s],IcePower [W],MgukPower [W],FrontRideHeight [m],RearRideHeight [m],LoadRearLeft [N],LoadRearRight [N],LoadFrontLeft [N],LoadFrontRight [N],Extra1 [m],Extra2 [],Extra3 [],Extra4 []
2.918949,2.918949,0.033,0.0,0.0,276.21426,11134.0,100.0,0.0,0.117551684,0.0,7.0,1.0,0.0,4000000.0,110.0,1.0,0.0,0.0,10.0,0.0,0.0,98.69365,-2.8574812,331.1429,-0.023857333,0.4837463,0.030049328,281.7222,281.70963,276.07986,276.05557,503.0,503.0,565.0,568.0,93.0,93.0,93.0,93.0,0.0,0.0,0.0,0.0,0.042761005,0.042832628,0.052052923,0.051829897,11.101215,8.380785,2.1562724,0.73157245,-151.19612,-286.60742,3.902621,-45.77189,0.0,0.0,0.0,2.0,1.0,-1.3112413,-0.014114858,0.0025197268,93.0,93.0,93.0,93.0,21.775778,21.775778,24.740557,24.740557,0.019937774,0.019978661,-5.299152E-4,-5.1961414E-4,1152.8671,0.0,0.0,0.0,0.0,0.0,0.0,0.0,0.0,0.0,0.0,0.0,0.0,0.0,-74.15062,-0.08413954,19.712597,-0.0062841526,-0.004452304,-6.957941E-4,549800.4,119984.91,0.0146242445,0.018536754,6988.7207,6979.521,5727.4814,5622.9443,0.30843544,0.0,0.0,0.0
6.7629256,6.7629256,0.083,0.0,0.0,277.06073,11167.0,100.0,0.0,0.20107678,0.0,7.0,1.0,0.0,4000000.0,110.0,1.0,0.0,0.0,10.0,0.0,0.0,94.979996,-2.8614495,332.12973,-0.047662318,0.4775267,0.020419104,282.57797,282.55005,276.94583,276.8835,501.0,501.0,563.0,566.0,93.0,93.0,93.0,93.0,0.0,0.0,0.0,0.0,0.04300575,0.042900816,0.052143324,0.051805213,5.8230753,0.40769574,2.832189,-0.1401454,116.17987,69.79107,29.222673,63.045307,0.0,0.0,0.0,2.0,1.0,-1.3116348,-0.013918819,0.0024638176,93.0,93.0,93.0,93.0,21.775778,21.775778,24.740557,24.740557,0.019838363,0.01995696,-5.266855E-4,-5.170521E-4,1156.3593,0.0,0.0,0.0,0.0,0.0,0.0,0.0,0.0,0.0,0.0,0.0,0.0,0.0,-74.382866,-0.075295955,19.75419,-0.0049027638,-0.010923272,2.9121962E-4,549836.1,119984.92,0.014560818,0.018425277,7011.2827,6962.592,5776.6826,5617.3843,0.30831814,0.0,0.0,0.0
10.618678,10.618678,0.133,0.0,0.0,277.8961,11201.0,100.0,0.0,0.14912128,0.0,7.0,1.0,0.0,4000000.0,110.0,1.0,0.0,0.0,10.0,0.0,0.0,91.25474,-2.8651595,333.11832,-0.060891014,0.47120702,0.002183088,283.4196,283.38846,277.78552,277.71487,499.0,499.0,561.0,564.0,93.0,93.0,93.0,93.0,0.0,0.0,0.0,0.0,0.043024085,0.042853285,0.052169874,0.05177923,0.96403056,0.2132356,0.03442168,0.16339122,-3.3393464,109.51458,-94.4808,62.106537,0.0,0.0,0.0,2.0,1.0,-1.3122312,-0.013635273,0.0024267435,93.0,93.0,93.0,93.0,21.775778,21.775778,24.740557,24.740557,0.01979666,0.019915182,-5.182629E-4,-5.209047E-4,1159.9546,0.0,0.0,0.0,0.0,0.0,0.0,0.0,0.0,0.0,0.0,0.0,0.0,0.0,-74.61439,-0.07370949,19.78642,-0.0066960836,-0.011840327,0.0012589053,549871.5,119984.91,0.014598328,0.018473051,7002.691,6945.166,5769.433,5595.5586,0.30830383,0.0,0.0,0.0
13.195655,13.195655,0.183,0.0,0.0,278.44757,11222.0,100.0,0.0,0.14302415,0.0,7.0,1.0,0.0,4000000.0,110.0,1.0,0.0,0.0,10.0,0.0,0.0,88.76481,-2.8676364,333.77817,-0.07116181,0.4674063,4.0106624E-4,283.9544,283.9437,278.33533,278.26807,497.0,498.0,560.0,563.0,93.0,93.0,93.0,93.0,0.0,0.0,0.0,0.0,0.043066975,0.042850897,0.052216902,0.051772334,0.0,0.0,0.0,0.0,251.06815,-82.491325,135.55882,-1.9446014,0.0,0.0,0.0,2.0,1.0,-1.3126158,-0.013449913,0.0024180412,93.0,93.0,93.0,93.0,21.775778,21.775778,24.740557,24.740557,0.019709354,0.019891066,-5.168708E-4,-5.196234E-4,1162.1779,0.0,0.0,0.0,0.0,0.0,0.0,0.0,0.0,0.0,0.0,0.0,0.0,0.0,-74.768295,-0.07436038,19.803642,-0.0065289186,-0.011225533,0.0012309314,549894.44,119984.91,0.014492761,0.018398972,7032.7827,6927.5166,5812.548,5600.269,0.3082409,0.0,0.0,0.0
18.364985,18.364985,0.233,0.0,0.0,279.53665,11265.0,100.0,0.0,0.13018568,0.0,7.0,1.0,0.0,4000000.0,110.0,1.0,0.0,0.0,10.0,0.0,0.0,83.76964,-2.8726354,335.0995,-0.074304834,0.45954674,8.738139E-4,285.027,285.0186,279.41898,279.36273,494.0,495.0,557.0,560.0,93.0,93.0,93.0,93.0,0.0,0.0,0.0,0.0,0.043244377,0.043022793,0.0522672,0.051840547,1.8323957,5.316138,-0.59433275,2.0704417,-216.06532,110.46675,-151.33022,64.775345,0.0,0.0,0.0,2.0,1.0,-1.3132955,-0.0129368715,0.0023453236,93.0,93.0,93.0,93.0,21.775778,21.775778,24.740557,24.740557,0.01960323,0.019734275,-5.144439E-4,-5.1627663E-4,1166.727,0.0,0.0,0.0,0.0,0.0,0.0,0.0,0.0,0.0,0.0,0.0,0.0,0.0,-75.07317,-0.07488338,19.834072,-0.0074578216,-0.009345044,2.5835773E-4,549939.7,119984.92,0.014296795,0.018126318,7047.1973,6985.6523,5831.3867,5648.8335,0.3079357,0.0,0.0,0.0
22.255268,22.255268,0.283,0.0,0.0,280.34244,11296.0,100.0,0.0,0.10332428,0.0,7.0,1.0,0.0,4000000.0,110.0,1.0,0.0,0.0,10.0,0.0,0.0,80.01002,-2.8762891,336.09177,-0.06884934,0.4540686,0.0069608586,285.80774,285.8049,280.2201,280.17346,492.0,493.0,555.0,558.0,93.0,93.0,93.0,93.0,0.0,0.0,0.0,0.0,0.043508213,0.043308824,0.052318357,0.05190182,2.7204304,6.2978263,-0.5424767,1.5599279,-306.79102,14.899663,-176.12723,33.648308,0.0,0.0,0.0,2.0,1.0,-1.3137088,-0.012556372,0.0022479296,93.0,93.0,93.0,93.0,21.775778,21.775778,24.740557,24.740557,0.019473856,0.019592602,-5.1220437E-4,-5.147556E-4,1170.008,0.0,0.0,0.0,0.0,0.0,0.0,0.0,0.0,0.0,0.0,0.0,0.0,0.0,-75.29854,-0.07112434,19.85732,-0.007621059,-0.007672983,1.5233993E-5,549972.75,119984.91,0.0141045395,0.017754339,7087.9688,7032.0894,5862.993,5683.6865,0.30768394,0.0,0.0,0.0
26.156765,26.156765,0.333,0.0,0.0,281.13797,11327.0,100.0,0.0,0.10875453,0.0,7.0,1.0,0.0,4000000.0,110.0,1.0,0.0,0.0,10.0,0.0,0.0,76.239235,-2.8797607,337.0853,-0.06383456,0.44860914,0.0032531805,286.5928,286.58954,281.0132,280.9721,490.0,491.0,553.0,556.0,93.0,93.0,93.0,93.0,0.0,0.0,0.0,0.0,0.04367063,0.04351555,0.05233387,0.051945463,0.2928078,4.64268,-0.8015334,1.7635523,-264.90836,80.31875,-108.26735,89.82716,0.0,0.0,0.0,2.0,1.0,-1.3140593,-0.01214541,0.0021762848,93.0,93.0,93.0,93.0,21.775778,21.775778,24.740557,24.740557,0.019389598,0.019488728,-5.1186956E-4,-5.112357E-4,1173.2894,0.0,0.0,0.0,0.0,0.0,0.0,0.0,0.0,0.0,0.0,0.0,0.0,0.0,-75.52045,-0.06832957,19.882452,-0.007592552,-0.006868992,9.3223085E-4,550005.8,119984.91,0.013975679,0.017507143,7103.599,7059.9795,5874.0503,5708.824,0.3075199,0.0,0.0,0.0
30.06937,30.06937,0.383,0.0,0.0,281.9236,11357.0,100.0,0.0,0.062064797,0.0,7.0,1.0,0.0,4000000.0,110.0,1.0,0.0,0.0,10.0,0.0,0.0,72.45742,-2.8831346,338.0801,-0.05416334,0.44311467,-0.0012402467,287.3726,287.36478,281.7969,281.76016,488.0,488.0,551.0,554.0,93.0,93.0,93.0,93.0,0.0,0.0,0.0,0.0,0.043773785,0.04365549,0.052350823,0.05199245,-0.81494445,3.9806213,-1.0525434,1.9986925,-276.0261,138.72383,-135.96115,113.068504,0.0,0.0,0.0,2.0,1.0,-1.3143884,-0.011743507,0.0021297932,93.0,93.0,93.0,93.0,21.775778,21.775778,24.740557,24.740557,0.019323982,0.019390993,-5.072415E-4,-5.1222305E-4,1176.467,0.0,0.0,0.0,0.0,0.0,0.0,0.0,0.0,0.0,0.0,0.0,0.0,0.0,-75.738945,-0.06730597,19.909685,-0.007836877,-0.0059169964,0.0011402047,550038.56,119984.9,0.013824699,0.017302634,7110.697,7082.6396,5885.6016,5736.92,0.30735493,0.0,0.0,0.0
32.68386,32.68386,0.433,0.0,0.0,282.44232,11377.0,100.0,0.0,0.041718997,0.0,7.0,1.0,0.0,4000000.0,110.0,1.0,0.0,0.0,10.0,0.0,0.0,69.93019,-2.8853664,338.74414,-0.04797087,0.43966576,0.0021554418,287.8751,287.87955,282.30948,282.28525,486.0,487.0,550.0,553.0,93.0,93.0,93.0,93.0,0.0,0.0,0.0,0.0,0.0438818,0.043753885,0.052376125,0.05202245,0.0,0.0,0.0,0.0,80.050514,-39.3346,22.047756,-43.518833,0.0,0.0,0.0,2.0,1.0,-1.3145448,-0.0114671,0.002093792,93.0,93.0,93.0,93.0,21.775778,21.775778,24.740557,24.740557,0.019239862,0.019327508,-5.0653156E-4,-5.0966616E-4,1178.5847,0.0,0.0,0.0,0.0,0.0,0.0,0.0,0.0,0.0,0.0,0.0,0.0,0.0,-75.88241,-0.0666847,19.930649,-0.0098548755,-0.0038830813,0.001412052,550060.0,119984.91,0.013741509,0.017154085,7147.3467,7094.8066,5915.523,5752.5796,0.3071537,0.0,0.0,0.0
37.92724,37.92724,0.483,0.0,0.0,283.4661,11417.0,100.0,0.0,0.043239962,0.0,7.0,1.0,0.0,4000000.0,110.0,1.0,0.0,0.0,10.0,0.0,0.0,64.861534,-2.8896692,340.07437,-0.037017442,0.43200475,0.0049749953,288.87744,288.86752,283.33173,283.31113,484.0,484.0,547.0,550.0,93.0,93.0,93.0,93.0,0.0,0.0,0.0,0.0,0.04410389,0.04407268,0.052402724,0.052110925,2.0637362,5.2913275,0.30666587,1.4271586,-147.13254,197.75925,-25.387104,103.60031,0.0,0.0,0.0,2.0,1.0,-1.3147717,-0.0109084565,0.0019977093,93.0,93.0,93.0,93.0,21.775778,21.775778,24.740557,24.740557,0.019107863,0.019127024,-5.049314E-4,-5.0614454E-4,1181.0574,0.0,0.0,0.0,0.0,0.0,0.0,0.0,0.0,0.0,0.0,0.0,0.0,0.0,-76.16448,-0.06300669,19.97615,-0.008502273,-0.0033528386,9.4752375E-4,549282.8,119984.9,0.013534823,0.016783578,7168.9873,7162.551,5934.6733,5808.1055,0.30697155,0.0,0.0,0.0
41.8722,41.8722,0.533,0.0,0.0,284.22107,11446.0,100.0,0.0,0.035027284,0.0,7.0,1.0,0.0,4000000.0,110.0,1.0,0.0,0.0,10.0,0.0,0.0,61.047832,-2.89277,341.07413,-0.03050945,0.42607427,0.004800536,289.61768,289.6033,284.0856,284.06778,482.0,482.0,545.0,548.0,93.0,93.0,93.0,93.0,0.0,0.0,0.0,0.0,0.044229977,0.044253096,0.052425362,0.052159883,1.9010155,5.470365,0.49017364,1.694709,-67.752594,245.6635,-7.60406,114.181625,0.0,0.0,0.0,2.0,1.0,-1.3149264,-0.010488211,0.0019375086,93.0,93.0,93.0,93.0,21.775778,21.775778,24.740557,24.740557,0.019008778,0.019008253,-5.02767E-4,-5.037684E-4,1182.8145,0.0,0.0,0.0,0.0,0.0,0.0,0.0,0.0,0.0,0.0,0.0,0.0,0.0,-76.37156,-0.061256304,20.013256,-0.008951666,-0.0029065385,0.001165174,548706.25,119984.9,0.013406232,0.016564714,7188.6357,7193.8315,5954.343,5839.7554,0.306818,0.0,0.0,0.0
45.82765,45.82765,0.583,0.0,0.0,284.9656,11475.0,100.0,0.0,0.039068054,0.0,7.0,1.0,0.0,4000000.0,110.0,1.0,0.0,0.0,10.0,0.0,0.0,57.22386,-2.8958385,342.0758,-0.027738854,0.4203717,0.0053270212,290.34637,290.3298,284.8308,284.8121,479.0,480.0,543.0,546.0,93.0,93.0,93.0,93.0,0.0,0.0,0.0,0.0,0.04435638,0.044399038,0.052455287,0.052203193,3.3087282,5.710199,1.1558084,2.042502,27.787683,311.05573,25.521214,137.94598,0.0,0.0,0.0,2.0,1.0,-1.315076,-0.010062127,0.0018880367,93.0,93.0,93.0,93.0,21.775778,21.775778,24.740557,24.740557,0.018901424,0.018898834,-5.0072814E-4,-5.0106377E-4,1184.5829,0.0,0.0,0.0,0.0,0.0,0.0,0.0,0.0,0.0,0.0,0.0,0.0,0.0,-76.57542,-0.060947847,20.051188,-0.009141436,-0.003092307,0.0011855544,548137.8,119984.89,0.013213903,0.016305773,7214.21,7221.189,5981.2275,5871.7827,0.3066225,0.0,0.0,0.0
49.79342,49.79342,0.633,0.0,0.0,285.69965,11503.0,100.0,0.0,-0.00999126,0.0,7.0,1.0,0.0,4000000.0,110.0,1.0,0.0,0.0,10.0,0.0,0.0,53.389793,-2.898801,343.07938,-0.018683575,0.41346985,0.009329811,291.06348,291.04474,285.56143,285.5502,477.0,478.0,541.0,544.0,93.0,93.0,93.0,93.0,0.0,0.0,0.0,0.0,0.04457501,0.044635646,0.052489378,0.05226456,2.702102,6.266534,0.7912516,1.9973514,-256.56668,217.66124,-5.552172,141.67426,0.0,0.0,0.0,2.0,1.0,-1.315204,-0.009625334,0.0018222332,93.0,93.0,93.0,93.0,21.775778,21.775778,24.740557,24.740557,0.018807149,0.018763274,-4.957279E-4,-5.009639E-4,1186.2616,0.0,0.0,0.0,0.0,0.0,0.0,0.0,0.0,0.0,0.0,0.0,0.0,0.0,-76.77572,-0.05758703,20.09118,-0.010362962,-0.0016271495,0.0014646034,547578.44,119984.89,0.013064517,0.01604469,7222.2886,7258.435,6003.2607,5907.6836,0.30645466,0.0,0.0,0.0
52.442917,52.442917,0.683,0.0,0.0,286.1827,11522.0,100.0,0.0,0.013609075,0.0,7.0,1.0,0.0,4000000.0,110.0,1.0,0.0,0.0,10.0,0.0,0.0,50.82824,-2.9006975,343.74957,-0.019283079,0.4094922,-0.0027811003,291.53568,291.53537,286.0413,286.037,476.0,476.0,540.0,542.0,93.0,93.0,93.0,93.0,0.0,0.0,0.0,0.0,0.044620134,0.04472529,0.052479107,0.05227985,0.0,0.0,0.0,0.0,67.2832,-277.5013,33.004578,-161.44214,0.0,0.0,0.0,2.0,1.0,-1.3152331,-0.0093452735,0.0017822981,93.0,93.0,93.0,93.0,21.775778,21.775778,24.740557,24.740557,0.018741451,0.018753845,-4.973101E-4,-4.96433E-4,1187.4052,0.0,0.0,0.0,0.0,0.0,0.0,0.0,0.0,0.0,0.0,0.0,0.0,0.0,-76.90712,-0.057183277,20.119097,-0.008224655,-7.0974336E-4,0.0014348677,547202.5,119984.91,0.013119617,0.016014175,7244.2666,7235.9116,5984.796,5888.216,0.30634308,0.0,0.0,0.0
57.755325,57.755325,0.733,0.0,0.0,287.1366,11559.0,100.0,0.0,0.030414844,0.0,7.0,1.0,0.0,4000000.0,110.0,1.0,0.0,0.0,10.0,0.0,0.0,45.692062,-2.9044397,345.09274,-0.016489431,0.40274388,0.0073130867,292.46997,292.45218,286.9995,286.98715,473.0,474.0,537.0,540.0,93.0,93.0,93.0,93.0,0.0,0.0,0.0,0.0,0.04482831,0.044934172,0.052547064,0.052340046,4.0496883,5.013272,1.9530951,1.8386542,82.59862,302.5263,92.85806,169.90451,0.0,0.0,0.0,2.0,1.0,-1.3153318,-0.008816649,0.001721859,93.0,93.0,93.0,93.0,21.775778,21.775778,24.740557,24.740557,0.018598545,0.018576223,-4.945597E-4,-4.938877E-4,1189.6439,0.0,0.0,0.0,0.0,0.0,0.0,0.0,0.0,0.0,0.0,0.0,0.0,0.0,-77.16646,-0.05530959,20.174688,-0.008973864,-0.002078456,0.0011324708,546479.3,119984.91,0.012779517,0.015614346,7282.388,7300.7925,6050.757,5958.1084,0.30617332,0.0,0.0,0.0
61.75053,61.75053,0.783,0.0,0.0,287.8402,11586.0,100.0,0.0,0.04033083,0.0,7.0,1.0,0.0,4000000.0,110.0,1.0,0.0,0.0,10.0,0.0,0.0,41.828686,-2.9071665,346.10257,-0.018307082,0.39714998,0.012622664,293.15384,293.13544,287.70486,287.68958,471.0,472.0,535.0,538.0,93.0,93.0,93.0,93.0,0.0,0.0,0.0,0.0,0.045021404,0.045123283,0.052593533,0.052383855,6.2546873,6.111413,2.72423,1.7783045,186.88287,309.24527,154.28064,160.82523,0.0,0.0,0.0,2.0,1.0,-1.3154434,-0.008419555,0.0016549826,93.0,93.0,93.0,93.0,21.775778,21.775778,24.740557,24.740557,0.018477907,0.01846505,-4.9248413E-4,-4.91316E-4,1191.2572,0.0,0.0,0.0,0.0,0.0,0.0,0.0,0.0,0.0,0.0,0.0,0.0,0.0,-77.35779,-0.053109907,20.21559,-0.009058826,-0.0025844504,7.336169E-4,545945.2,119984.9,0.012629466,0.015350853,7321.275,7333.7803,6086.728,5989.1016,0.305995,0.0,0.0,0.0
65.75023,65.75023,0.833,0.0,0.0,288.5336,11613.0,100.0,0.0,0.018030994,0.0,7.0,1.0,0.0,4000000.0,110.0,1.0,0.0,0.0,10.0,0.0,0.0,37.95582,-2.9097593,347.11444,-0.01593887,0.39143914,0.008254682,293.83328,293.81763,288.39612,288.38583,469.0,469.0,533.0,536.0,93.0,93.0,93.0,93.0,0.0,0.0,0.0,0.0,0.045187924,0.04530156,0.052613158,0.0524152,4.6943126,4.651397,1.8261372,1.1681019,122.684235,212.7662,136.2696,131.1734,0.0,0.0,0.0,2.0,1.0,-1.3155426,-0.008001306,0.0015850067,93.0,93.0,93.0,93.0,21.775778,21.775778,24.740557,24.740557,0.0183919,0.018372193,-4.8954936E-4,-4.9028045E-4,1192.8701,0.0,0.0,0.0,0.0,0.0,0.0,0.0,0.0,0.0,0.0,0.0,0.0,0.0,-77.54616,-0.05086922,20.256578,-0.009406154,-0.0016708467,0.0014124939,545413.3,119984.89,0.012537777,0.015136425,7337.579,7351.1904,6091.169,5998.56,0.3058586,0.0,0.0,0.0
68.422035,68.422035,0.883,0.0,0.0,288.9902,11631.0,100.0,0.0,0.019828346,0.0,7.0,1.0,0.0,4000000.0,110.0,1.0,0.0,0.0,10.0,0.0,0.0,35.368702,-2.911433,347.79013,-0.016083479,0.38724357,-0.0041667665,294.28244,294.27737,288.85202,288.84317,468.0,468.0,532.0,535.0,93.0,93.0,93.0,93.0,0.0,0.0,0.0,0.0,0.045238815,0.045369867,0.052605014,0.052430414,0.0,0.0,0.0,0.0,54.274494,-247.15211,1.0460606,-175.1214,0.0,0.0,0.0,2.0,1.0,-1.3155922,-0.007744398,0.0015478134,93.0,93.0,93.0,93.0,21.775778,21.775778,24.740557,24.740557,0.018346509,0.01835492,-4.8889784E-4,-4.889178E-4,1193.9417,0.0,0.0,0.0,0.0,0.0,0.0,0.0,0.0,0.0,0.0,0.0,0.0,0.0,-77.67019,-0.050640076,20.283573,-0.007375875,-0.0014473567,0.0013028542,545058.44,119984.9,0.012617831,0.015116495,7338.246,7334.3975,6066.3965,5980.3086,0.3057785,0.0,0.0,0.0
73.77762,73.77762,0.933,0.0,0.0,289.5426,11553.0,100.0,0.0,0.06729539,0.0,7.0,1.0,0.0,4000000.0,110.0,1.0,0.0,0.0,10.0,0.0,0.0,30.1828,-2.914704,349.14395,-0.024329625,-0.21238598,0.054139286,289.8053,289.78955,289.55988,289.53778,465.0,465.0,529.0,532.0,93.0,93.0,93.0,93.0,0.0,0.0,0.0,0.0,0.045019276,0.045073286,0.05273825,0.05251088,-20.677149,-23.345722,5.536526,3.736764,-1359.5848,-1376.0133,328.3828,286.29895,0.0,0.0,0.0,2.0,1.0,-1.3157866,-0.007263695,0.0016853809,93.0,93.0,93.0,93.0,21.775778,21.775778,24.740557,24.740557,8.487712E-4,8.6902187E-4,-5.5575194E-5,-5.08007E-5,1189.2819,0.0,0.0,0.0,0.0,0.0,0.0,0.0,0.0,0.0,0.0,0.0,0.0,0.0,-77.82226,-0.041636515,20.308578,-0.0020915228,-0.004201489,0.025383148,546596.75,119984.91,0.012128067,0.01506905,7424.3545,7413.343,6204.6445,6095.673,0.30558014,0.0,0.0,0.0
77.78841,77.78841,0.983,0.0,0.0,288.57532,11064.0,100.0,0.0,0.070978135,0.0,8.0,1.0,0.0,4000000.0,110.0,1.0,0.0,0.0,10.0,0.0,0.0,26.298964,-2.9156501,350.15714,-0.030009113,-0.4357519,0.0518024,291.1265,291.11032,288.53506,288.50854,463.0,463.0,527.0,530.0,93.0,93.0,93.0,93.0,0.0,0.0,0.0,0.0,0.042076956,0.042114552,0.053466894,0.053225946,-54.598373,-57.204807,11.432692,9.786933,647.2975,527.36273,-306.91174,-407.58847,0.0,0.0,0.0,2.0,1.0,-1.3160174,-0.0068989354,0.0033689737,93.0,93.0,93.0,93.0,21.775778,21.775778,24.740557,24.740557,0.0067721484,0.00679878,-1.290926E-4,-1.2347558E-4,1145.4644,0.0,0.0,0.0,0.0,0.0,0.0,0.0,0.0,0.0,0.0,0.0,0.0,0.0,-77.56564,-0.0032882607,20.227856,-0.0034018587,-0.0048418054,0.019390792,549726.2,119984.9,0.011521409,0.018824825,7030.617,7002.756,6763.132,6647.742,0.30682564,0.0,0.0,0.0
80.459,80.459,1.033,0.0,0.0,288.8215,10810.0,100.0,0.0,0.04510927,0.0,8.0,1.0,0.0,4000000.0,110.0,1.0,0.0,0.0,10.0,0.0,0.0,23.712841,-2.9160001,350.83142,-0.028280817,0.39727792,-0.11099856,294.82733,294.8169,288.67374,288.6495,461.0,462.0,526.0,529.0,93.0,93.0,93.0,93.0,0.0,0.0,0.0,0.0,0.04183295,0.04190965,0.053082194,0.052862417,0.0,0.0,0.0,0.0,2178.5972,2098.7878,-957.32056,-890.9761,0.0,0.0,0.0,2.0,1.0,-1.3161596,-0.006630629,0.002978921,93.0,93.0,93.0,93.0,21.775778,21.775778,24.740557,24.740557,0.020768765,0.020802088,-5.1922223E-4,-5.2073336E-4,1112.3198,0.0,0.0,0.0,0.0,0.0,0.0,0.0,0.0,0.0,0.0,0.0,0.0,0.0,-77.63415,-0.0253174,20.236147,-0.014874011,-0.003815148,-0.028675508,546362.6,119984.9,0.01310185,0.019456292,6945.949,6933.24,6154.1826,6057.2397,0.30784035,0.0,0.0,0.0
85.814255,85.814255,1.083,0.0,0.0,289.91943,10395.0,100.0,0.0,0.16639487,0.0,8.0,1.0,0.0,4000000.0,110.0,1.0,0.0,0.0,10.0,0.0,0.0,18.526762,-2.9202623,352.18234,-0.050700724,0.4660587,-0.026614886,295.5735,295.56238,289.788,289.7392,459.0,459.0,523.0,526.0,93.0,93.0,93.0,93.0,0.0,0.0,0.0,0.0,0.044673353,0.04462116,0.05247797,0.052177727,44.87492,39.42601,4.50097,1.6763805,147.5617,-172.06374,612.2141,420.38257,0.0,0.0,0.0,2.0,1.0,-1.3165354,-0.006218811,0.0015099049,93.0,93.0,93.0,93.0,21.775778,21.775778,24.740557,24.740557,0.01989326,0.020012708,-5.3496234E-4,-5.257889E-4,1048.9215,0.0,0.0,0.0,0.0,0.0,0.0,0.0,0.0,0.0,0.0,0.0,0.0,0.0,-77.93616,-0.084149286,20.286465,-0.0065490287,-0.008545275,-0.0070472113,535791.1,119984.9,0.013078375,0.01572635,7397.797,7346.6055,6010.1167,5862.777,0.30633068,0.0,0.0,0.0
89.84313,89.84313,1.133,0.0,0.0,290.58572,10400.0,100.0,0.0,0.27081603,0.0,8.0,1.0,0.0,4000000.0,110.0,1.0,0.0,0.0,10.0,0.0,0.0,14.624882,-2.9238815,353.19724,-0.07842026,0.3605648,0.07492611,295.69644,295.67285,290.48544,290.40543,457.0,457.0,521.0,524.0,93.0,93.0,93.0,93.0,0.0,0.0,0.0,0.0,0.046214387,0.046035916,0.05291254,0.052520834,26.368124,21.339653,7.6778226,5.087703,-30.00057,-388.03513,-32.68275,-203.23096,0.0,0.0,0.0,2.0,1.0,-1.3170869,-0.005974569,0.0012518167,93.0,93.0,93.0,93.0,21.775778,21.775778,24.740557,24.740557,0.017502435,0.017676204,-4.833753E-4,-4.6977215E-4,1049.828,0.0,0.0,0.0,0.0,0.0,0.0,0.0,0.0,0.0,0.0,0.0,0.0,0.0,-78.12341,-0.056801703,20.301867,-0.003644186,-0.014041153,-0.0033963881,535996.3,119984.9,0.011676292,0.013726394,7598.9404,7514.5127,6326.84,6137.326,0.3046379,0.0,0.0,0.0
93.88096,93.88096,1.183,0.0,0.0,291.21613,10423.0,100.0,0.0,0.36903775,0.0,8.0,1.0,0.0,4000000.0,110.0,1.0,0.0,0.0,10.0,0.0,0.0,10.713933,-2.9258716,354.21237,-0.11473355,0.35597855,0.029991345,296.36185,296.33438,291.13446,291.01755,455.0,455.0,520.0,522.0,93.0,93.0,93.0,93.0,0.0,0.0,0.0,0.0,0.046714425,0.046373308,0.053016018,0.05247064,3.09661,-4.583448,-0.71369106,-3.7215648,-193.64206,-922.3579,-100.51577,-173.86076,0.0,0.0,0.0,2.0,1.0,-1.3179375,-0.0058128377,0.0010968447,93.0,93.0,93.0,93.0,21.775778,21.775778,24.740557,24.740557,0.017512485,0.017791523,-4.8296654E-4,-4.6764742E-4,1054.4081,0.0,0.0,0.0,0.0,0.0,0.0,0.0,0.0,0.0,0.0,0.0,0.0,0.0,-78.30505,-0.029742187,20.29912,-0.00200017,-0.020371577,-1.5761392E-4,537146.8,119984.9,0.011698217,0.013417579,7577.047,7426.8945,6280.193,6019.2314,0.3044815,0.0,0.0,0.0
97.927635,97.927635,1.233,0.0,0.0,291.84042,10446.0,100.0,0.0,0.4603837,0.0,8.0,1.0,0.0,4000000.0,110.0,1.0,0.0,0.0,10.0,0.0,0.0,6.7937903,-2.9272397,355.2267,-0.16071352,0.35313356,-0.013235363,297.03876,296.99988,291.7837,291.61725,453.0,453.0,518.0,520.0,93.0,93.0,93.0,93.0,0.0,0.0,0.0,0.0,0.046520997,0.045923308,0.05302608,0.052301325,-5.9086823,-10.252296,-0.50179654,-2.7671454,17.045458,-65.539795,-52.799274,36.49146,0.0,0.0,0.0,2.0,1.0,-1.3191947,-0.0056857,0.0011613369,93.0,93.0,93.0,93.0,21.775778,21.775778,24.740557,24.740557,0.017588528,0.017970346,-4.7995968E-4,-4.6780673E-4,1059.024,0.0,0.0,0.0,0.0,0.0,0.0,0.0,0.0,0.0,0.0,0.0,0.0,0.0,-78.49094,-0.028713379,20.273016,-3.99278E-4,-0.02862233,0.0024572983,538310.44,119984.91,0.012007452,0.013961877,7514.3374,7318.67,6273.0215,5936.4507,0.30485344,0.0,0.0,0.0
100.630325,100.630325,1.283,0.0,0.0,292.2534,10462.0,100.0,0.0,0.42151612,0.0,8.0,1.0,0.0,4000000.0,110.0,1.0,0.0,0.0,10.0,0.0,0.0,4.1751633,-2.9282856,355.902,-0.18038645,0.3510574,-0.013577466,297.48953,297.42282,292.2011,292.0252,451.0,452.0,516.0,519.0,93.0,93.0,93.0,93.0,0.0,0.0,0.0,0.0,0.046402268,0.045627512,0.05310722,0.05224106,0.0,0.0,0.0,0.0,-31.824398,234.04951,15.248364,135.0492,0.0,0.0,0.0,2.0,1.0,-1.3201764,-0.0055516656,0.001226902,93.0,93.0,93.0,93.0,21.775778,21.775778,24.740557,24.740557,0.01767965,0.017996304,-4.7378076E-4,-4.7173034E-4,1062.1398,0.0,0.0,0.0,0.0,0.0,0.0,0.0,0.0,0.0,0.0,0.0,0.0,0.0,-78.61643,-0.033399567,20.245754,-0.0053027044,-0.029767225,0.002311787,539068.5,119984.9,0.011944706,0.014171585,7510.6772,7302.304,6343.0503,5941.7085,0.30479622,0.0,0.0,0.0
106.04741,106.04741,1.333,0.0,0.0,293.07452,10490.0,100.0,0.0,0.34455678,0.0,8.0,1.0,0.0,4000000.0,110.0,1.0,0.0,0.0,10.0,0.0,0.0,-1.0747156,-2.930646,357.24945,-0.19980317,0.34750143,6.488933E-4,298.27597,298.2366,293.0106,292.85645,449.0,449.0,514.0,516.0,93.0,93.0,93.0,93.0,0.0,0.0,0.0,0.0,0.046572957,0.04568078,0.053215776,0.052272577,2.4600325,5.432367,-0.049397346,1.130104,-196.69978,195.8817,-193.99074,51.35088,0.0,0.0,0.0,2.0,1.0,-1.322046,-0.005195886,0.0011783838,93.0,93.0,93.0,93.0,21.775778,21.775778,24.740557,24.740557,0.017566279,0.017880158,-4.6990122E-4,-4.7557772E-4,1067.7283,0.0,0.0,0.0,0.0,0.0,0.0,0.0,0.0,0.0,0.0,0.0,0.0,0.0,-78.86924,-0.035212584,20.178268,-0.006563425,-0.025622291,-1.902486E-4,540458.4,119984.9,0.011756198,0.013894145,7590.708,7365.829,6393.646,5972.8237,0.304636,0.0,0.0,0.0
110.12039,110.12039,1.383,0.0,0.0,293.68423,10511.0,100.0,0.0,0.29094455,0.0,8.0,1.0,0.0,4000000.0,110.0,1.0,0.0,0.0,10.0,0.0,0.0,-5.023155,-2.9323466,358.25696,-0.19372068,0.34469497,0.002098281,298.87555,298.8431,293.60947,293.47702,447.0,447.0,512.0,514.0,93.0,93.0,93.0,93.0,0.0,0.0,0.0,0.0,0.04679931,0.045909666,0.053247675,0.052299507,1.1562555,6.1147656,-0.5190074,1.0040401,-303.92108,151.33022,-114.2889,54.851162,0.0,0.0,0.0,2.0,1.0,-1.3232279,-0.004794999,0.0010935068,93.0,93.0,93.0,93.0,21.775778,21.775778,24.740557,24.740557,0.017531304,0.017798595,-4.68649E-4,-4.7541148E-4,1071.2224,0.0,0.0,0.0,0.0,0.0,0.0,0.0,0.0,0.0,0.0,0.0,0.0,0.0,-79.057434,-0.0331161,20.125763,-0.009543234,-0.02185842,0.001011971,541143.75,119984.91,0.011631599,0.013583076,7611.146,7403.0625,6410.87,5987.76,0.3043928,0.0,0.0,0.0
112.8405,112.8405,1.433,0.0,0.0,294.0875,10525.0,100.0,0.0,0.28689435,0.0,8.0,1.0,0.0,4000000.0,110.0,1.0,0.0,0.0,10.0,0.0,0.0,-7.6606445,-2.933418,358.92722,-0.18820524,0.34230903,0.0050361548,299.26712,299.24835,294.0068,293.88657,445.0,446.0,511.0,513.0,93.0,93.0,93.0,93.0,0.0,0.0,0.0,0.0,0.046933867,0.046039116,0.05325765,0.05234124,0.0,0.0,0.0,0.0,75.85285,-119.07665,66.62606,-90.9671,0.0,0.0,0.0,2.0,1.0,-1.3239174,-0.0045050555,0.0010519028,93.0,93.0,93.0,93.0,21.775778,21.775778,24.740557,24.740557,0.017477509,0.017765777,-4.6967063E-4,-4.72679E-4,1073.1339,0.0,0.0,0.0,0.0,0.0,0.0,0.0,0.0,0.0,0.0,0.0,0.0,0.0,-79.181366,-0.031303853,20.092896,-0.009777528,-0.019956231,0.0012715391,541388.25,119984.89,0.01149751,0.013393012,7643.334,7409.503,6430.4053,6010.689,0.30426788,0.0,0.0,0.0
118.292114,118.292114,1.483,0.0,0.0,294.88596,10553.0,100.0,0.0,0.21211112,0.0,8.0,1.0,0.0,4000000.0,110.0,1.0,0.0,0.0,10.0,0.0,0.0,-12.947859,-2.935433,360.26477,-0.15984091,0.33770618,0.004053064,300.06094,300.03473,294.7923,294.6987,443.0,443.0,508.0,511.0,93.0,93.0,93.0,93.0,0.0,0.0,0.0,0.0,0.047043227,0.046318695,0.053248588,0.052430753,1.6294419,4.286617,0.38109717,0.93810254,-112.250435,95.05748,3.0845401,4.3854113,0.0,0.0,0.0,2.0,1.0,-1.3250818,-0.0038106625,9.80258E-4,93.0,93.0,93.0,93.0,21.775778,21.775778,24.740557,24.740557,0.01745623,0.017640138,-4.6785607E-4,-4.7183648E-4,1076.9525,0.0,0.0,0.0,0.0,0.0,0.0,0.0,0.0,0.0,0.0,0.0,0.0,0.0,-79.4238,-0.028936507,20.038996,-0.012029992,-0.015429007,0.0018581235,541873.1,119984.89,0.011351041,0.013123783,7637.118,7468.232,6431.8975,6061.379,0.30397606,0.0,0.0,0.0
122.39065,122.39065,1.533,0.0,0.0,295.47812,10573.0,100.0,0.0,0.21278262,0.0,8.0,1.0,0.0,4000000.0,110.0,1.0,0.0,0.0,10.0,0.0,0.0,-16.92375,-2.9368231,361.26584,-0.1444564,0.33410427,-2.7887078E-4,300.629,300.62253,295.3803,295.29547,441.0,441.0,506.0,509.0,93.0,93.0,93.0,93.0,0.0,0.0,0.0,0.0,0.047134075,0.04649485,0.053228386,0.052493483,1.4597921,1.9184499,0.043138858,0.18261372,-100.32802,-17.68916,-2.7492638,-27.063484,0.0,0.0,0.0,2.0,1.0,-1.3258151,-0.0033177936,9.288788E-4,93.0,93.0,93.0,93.0,21.775778,21.775778,24.740557,24.740557,0.017347667,0.01757727,-4.6871547E-4,-4.6864385E-4,1079.6997,0.0,0.0,0.0,0.0,0.0,0.0,0.0,0.0,0.0,0.0,0.0,0.0,0.0,-79.60137,-0.027446993,20.007423,-0.010761706,-0.014144259,0.0018449231,542227.75,119984.9,0.011271736,0.012962982,7642.545,7487.638,6420.507,6086.8945,0.30385113,0.0,0.0,0.0
126.4975,126.4975,1.583,0.0,0.0,296.06357,10594.0,100.0,0.0,0.23779401,0.0,8.0,1.0,0.0,4000000.0,110.0,1.0,0.0,0.0,10.0,0.0,0.0,-20.908434,-2.9381664,362.2655,-0.13679484,0.33043098,-9.92967E-4,301.21057,301.20407,295.96637,295.88043,439.0,439.0,504.0,507.0,93.0,93.0,93.0,93.0,0.0,0.0,0.0,0.0,0.047230203,0.046637326,0.053231567,0.052546896,2.660304,0.77113503,0.53130084,-0.08158385,-3.647804,-68.44997,12.592969,-71.11876,0.0,0.0,0.0,2.0,1.0,-1.3265271,-0.0028771772,8.90255E-4,93.0,93.0,93.0,93.0,21.775778,21.775778,24.740557,24.740557,0.017293494,0.017529972,-4.6939746E-4,-4.6522383E-4,1082.5562,0.0,0.0,0.0,0.0,0.0,0.0,0.0,0.0,0.0,0.0,0.0,0.0,0.0,-79.775734,-0.026719227,19.980717,-0.009316486,-0.014533299,0.0014842954,542584.6,119984.9,0.011161361,0.012800408,7659.742,7506.078,6429.99,6116.5273,0.30373955,0.0,0.0,0.0
130.61256,130.61256,1.633,0.0,0.0,296.643,10614.0,100.0,0.0,0.25619477,0.0,8.0,1.0,0.0,4000000.0,110.0,1.0,0.0,0.0,10.0,0.0,0.0,-24.901775,-2.9394794,363.2639,-0.13487935,0.327005,2.3862474E-4,301.78378,301.77487,296.54892,296.4568,437.0,437.0,502.0,505.0,93.0,93.0,93.0,93.0,0.0,0.0,0.0,0.0,0.047354434,0.046795845,0.05325625,0.05259071,3.8433816,0.96917146,0.86769456,-0.32790002,69.8313,-128.63872,28.458235,-137.27544,0.0,0.0,0.0,2.0,1.0,-1.32728,-0.0024658376,8.4102154E-4,93.0,93.0,93.0,93.0,21.775778,21.775778,24.740557,24.740557,0.017232817,0.017476706,-4.6893844E-4,-4.6361727E-4,1085.3016,0.0,0.0,0.0,0.0,0.0,0.0,0.0,0.0,0.0,0.0,0.0,0.0,0.0,-79.94788,-0.025857016,19.955788,-0.0083370395,-0.015655588,7.83139E-4,542935.7,119984.9,0.011014886,0.012567118,7684.9766,7529.724,6449.909,6141.865,0.3035984,0.0,0.0,0.0
134.73573,134.73573,1.683,0.0,0.0,297.21667,10634.0,100.0,0.0,0.2539824,0.0,8.0,1.0,0.0,4000000.0,110.0,1.0,0.0,0.0,10.0,0.0,0.0,-28.903677,-2.9407895,364.261,-0.13685623,0.32391733,-0.0061126975,302.35437,302.34845,297.12653,297.0268,435.0,435.0,501.0,503.0,93.0,93.0,93.0,93.0,0.0,0.0,0.0,0.0,0.047461335,0.046923403,0.05324853,0.052627403,4.4187155,-1.7458944,1.7637758,-1.0845064,310.22424,-368.96463,287.84122,-265.3375,0.0,0.0,0.0,2.0,1.0,-1.3281001,-0.0022451153,8.107424E-4,93.0,93.0,93.0,93.0,21.775778,21.775778,24.740557,24.740557,0.017176846,0.017453717,-4.6674264E-4,-4.641041E-4,1088.0498,0.0,0.0,0.0,0.0,0.0,0.0,0.0,0.0,0.0,0.0,0.0,0.0,0.0,-80.11858,-0.02725218,19.929787,-8.528277E-4,-0.016829189,-1.3509457E-4,543286.75,119984.9,0.010788882,0.012308712,7709.732,7528.4795,6455.8438,6155.404,0.30340385,0.0,0.0,0.0
138.86697,138.86697,1.733,0.0,0.0,297.7853,10654.0,100.0,0.0,0.25225767,0.0,8.0,1.0,0.0,4000000.0,110.0,1.0,0.0,0.0,10.0,0.0,0.0,-32.91409,-2.9421582,365.25677,-0.13911796,0.32085901,0.0021986617,302.9131,302.90356,297.69635,297.59363,433.0,434.0,499.0,501.0,93.0,93.0,93.0,93.0,0.0,0.0,0.0,0.0,0.04768899,0.047050226,0.05332844,0.052662406,4.3116508,2.2590904,0.6911158,0.9912996,29.450653,-168.34882,-65.687294,-87.721634,0.0,0.0,0.0,2.0,1.0,-1.3289611,-0.0020471679,7.773638E-4,93.0,93.0,93.0,93.0,21.775778,21.775778,24.740557,24.740557,0.01710867,0.017380064,-4.652905E-4,-4.6416523E-4,1090.7821,0.0,0.0,0.0,0.0,0.0,0.0,0.0,0.0,0.0,0.0,0.0,0.0,0.0,-80.28827,-0.026760984,19.90186,-0.0051565696,-0.017268836,-3.286408E-4,543628.6,119984.9,0.01045128,0.011922824,7741.609,7565.8022,6502.7344,6196.6562,0.30309296,0.0,0.0,0.0
143.00618,143.00618,1.783,0.0,0.0,298.34872,10673.0,100.0,0.0,0.23641312,0.0,8.0,1.0,0.0,4000000.0,110.0,1.0,0.0,0.0,10.0,0.0,0.0,-36.932957,-2.9434514,366.25107,-0.14204168,0.31787866,0.027586717,303.45255,303.44525,298.2593,298.15738,431.0,432.0,497.0,499.0,93.0,93.0,93.0,93.0,0.0,0.0,0.0,0.0,0.048053496,0.047295462,0.053444453,0.05269542,14.081373,4.3478603,6.2464175,0.7154792,651.1464,-198.29568,344.56995,-57.251743,0.0,0.0,0.0,2.0,1.0,-1.3298249,-0.0017006758,7.0261955E-4,93.0,93.0,93.0,93.0,21.775778,21.775778,24.740557,24.740557,0.016984018,0.017281448,-4.630282E-4,-4.637521E-4,1093.3947,0.0,0.0,0.0,0.0,0.0,0.0,0.0,0.0,0.0,0.0,0.0,0.0,0.0,-80.45685,-0.021947907,19.872131,-0.012905886,-0.017073497,2.9938668E-4,543960.6,119984.9,0.0102074705,0.011502162,7844.3574,7614.842,6615.958,6246.922,0.30280876,0.0,0.0,0.0
147.15327,147.15327,1.833,0.0,0.0,298.9047,10693.0,100.0,0.0,0.22678918,0.0,8.0,1.0,0.0,4000000.0,110.0,1.0,0.0,0.0,10.0,0.0,0.0,-40.960194,-2.9445462,367.24393,-0.14128162,0.3132738,-0.0059763226,304.00912,304.04605,298.81055,298.72205,429.0,430.0,495.0,498.0,93.0,93.0,93.0,93.0,0.0,0.0,0.0,0.0,0.04818719,0.047351424,0.053091116,0.052858118,9.019374,-8.68611,-0.77024096,3.7816908,716.2168,-938.4378,1005.0638,-65.700714,0.0,0.0,0.0,2.0,1.0,-1.3306166,-0.0014896976,8.0251694E-4,93.0,93.0,93.0,93.0,21.775778,21.775778,24.740557,24.740557,0.01694747,0.017351994,-4.6073386E-4,-4.6206813E-4,1096.1577,0.0,0.0,0.0,0.0,0.0,0.0,0.0,0.0,0.0,0.0,0.0,0.0,0.0,-80.62306,-0.02405537,19.84313,0.014538175,-0.014742513,0.0038817422,544315.25,119984.9,0.010800063,0.011681977,7851.6616,7526.8076,6413.2197,6267.7676,0.30267334,0.0,0.0,0.0
149.92233,149.92233,1.883,0.0,0.0,299.26944,10707.0,100.0,0.0,0.20533432,0.0,8.0,1.0,0.0,4000000.0,110.0,1.0,0.0,0.0,10.0,0.0,0.0,-43.6496,-2.9453757,367.90503,-0.12857687,0.308061,-0.023638058,304.42725,304.4165,299.17236,299.08694,428.0,428.0,494.0,496.0,93.0,93.0,93.0,93.0,0.0,0.0,0.0,0.0,0.04780689,0.047043175,0.053265158,0.052817956,0.0,0.0,0.0,0.0,-1549.2169,607.88245,-371.68707,65.875046,0.0,0.0,0.0,2.0,1.0,-1.3310972,-0.0016822953,9.2315674E-4,93.0,93.0,93.0,93.0,21.775778,21.775778,24.740557,24.740557,0.017187154,0.017356176,-4.588732E-4,-4.6068922E-4,1098.0803,0.0,0.0,0.0,0.0,0.0,0.0,0.0,0.0,0.0,0.0,0.0,0.0,0.0,-80.73191,-0.027801303,19.82475,0.006634192,-0.014073797,-0.0021347147,544556.94,119984.9,0.011047156,0.012415354,7623.1855,7538.2705,6478.849,6285.648,0.30230522,0.0,0.0,0.0
155.47064,155.47064,1.933,0.0,0.0,299.99307,10731.0,100.0,0.0,0.15604588,0.0,8.0,1.0,0.0,4000000.0,110.0,1.0,0.0,0.0,10.0,0.0,0.0,-49.0392,-2.9476826,369.22562,-0.111464754,0.3065026,-0.021357672,305.08594,305.1255,299.88574,299.82156,425.0,426.0,491.0,494.0,93.0,93.0,93.0,93.0,0.0,0.0,0.0,0.0,0.04800869,0.047133178,0.053135958,0.052895427,-1.9805876,12.7132225,-13.333261,6.230771,229.31543,618.14185,-1228.1565,455.0501,0.0,0.0,0.0,2.0,1.0,-1.3318996,-0.0024198815,8.9228153E-4,93.0,93.0,93.0,93.0,21.775778,21.775778,24.740557,24.740557,0.016949799,0.017229138,-4.57119E-4,-4.6415013E-4,1101.3906,0.0,0.0,0.0,0.0,0.0,0.0,0.0,0.0,0.0,0.0,0.0,0.0,0.0,-80.94586,-0.038780317,19.796204,0.014049032,-0.010377273,-0.003373779,544977.0,119984.91,0.011534821,0.012401044,7819.869,7609.996,6306.1006,6299.875,0.30128574,0.0,0.0,0.0
159.64073,159.64073,1.983,0.0,0.0,300.5297,10750.0,100.0,0.0,0.16666834,0.0,8.0,1.0,0.0,4000000.0,110.0,1.0,0.0,0.0,10.0,0.0,0.0,-53.09064,-2.950065,370.21503,-0.10438728,0.30463344,0.028785344,305.62878,305.63916,300.41995,300.3569,424.0,424.0,490.0,492.0,93.0,93.0,93.0,93.0,0.0,0.0,0.0,0.0,0.0480465,0.04707483,0.053670503,0.052802037,-3.1158326,9.154826,29.594822,-5.109161,-789.8166,1109.9784,902.60345,-20.612782,0.0,0.0,0.0,2.0,1.0,-1.3324047,-0.003790377,9.0813637E-4,93.0,93.0,93.0,93.0,21.775778,21.775778,24.740557,24.740557,0.016944489,0.01718472,-4.6608882E-4,-4.562874E-4,1103.9976,0.0,0.0,0.0,0.0,0.0,0.0,0.0,0.0,0.0,0.0,0.0,0.0,0.0,-81.10315,-0.0459128,19.780445,-1.8457393E-4,-0.010924165,-0.011163585,545301.44,119984.9,0.009922541,0.011840095,7799.3887,7643.316,6882.7803,6365.818,0.2996683,0.0,0.0,0.0
163.8183,163.8183,2.033,0.0,0.0,301.065,10765.0,100.0,0.0,0.16197005,0.0,8.0,1.0,0.0,4000000.0,110.0,1.0,0.0,0.0,10.0,0.0,0.0,-57.1499,-2.9516308,371.2038,-0.09401796,0.3039239,0.078401245,306.0767,306.06125,300.95444,300.89526,422.0,422.0,488.0,490.0,93.0,93.0,93.0,93.0,0.0,0.0,0.0,0.0,0.048757512,0.04861201,0.05353821,0.05296218,20.424797,22.246464,-4.9526987,4.567131,574.8778,-967.2983,453.23962,7.912502,0.0,0.0,0.0,2.0,1.0,-1.33292,-0.0025783256,2.9575825E-4,93.0,93.0,93.0,93.0,21.775778,21.775778,24.740557,24.740557,0.01656964,0.016731776,-4.6394192E-4,-4.5842244E-4,1106.0818,0.0,0.0,0.0,0.0,0.0,0.0,0.0,0.0,0.0,0.0,0.0,0.0,0.0,-81.25847,-0.015964553,19.77117,-0.03179316,-0.010188819,0.0052469815,545569.7,119984.89,0.009626232,0.0099852355,8113.5938,7946.791,6613.568,6364.953,0.2988491,0.0,0.0,0.0
168.00333,168.00333,2.083,0.0,0.0,301.5888,10786.0,100.0,0.0,0.1429171,0.0,8.0,1.0,0.0,4000000.0,110.0,1.0,0.0,0.0,10.0,0.0,0.0,-61.216843,-2.9516087,372.19208,-0.093574345,0.29595006,0.008099113,306.65955,306.64935,301.4804,301.42062,420.0,420.0,486.0,488.0,93.0,93.0,93.0,93.0,0.0,0.0,0.0,0.0,0.04831219,0.048167225,0.05346353,0.052974515,6.62595,-15.926734,-0.013411044,-4.8134475,1477.7092,-230.40176,323.00497,-311.05576,0.0,0.0,0.0,2.0,1.0,-1.3334389,-0.0016831369,4.5406818E-4,93.0,93.0,93.0,93.0,21.775778,21.775778,24.740557,24.740557,0.016730346,0.016894454,-4.5887192E-4,-4.5694908E-4,1108.9672,0.0,0.0,0.0,0.0,0.0,0.0,0.0,0.0,0.0,0.0,0.0,0.0,0.0,-81.41047,0.0058084787,19.761854,-0.006998936,-0.01018051,0.008982973,545927.9,119984.9,0.009927907,0.010676019,7933.197,7805.5957,6574.3115,6321.2085,0.2996559,0.0,0.0,0.0
170.79738,170.79738,2.133,0.0,0.0,301.93262,10800.0,100.0,0.0,0.14628102,0.0,8.0,1.0,0.0,4000000.0,110.0,1.0,0.0,0.0,10.0,0.0,0.0,-63.932335,-2.9513953,372.85068,-0.08872456,0.29152378,-0.037949733,307.09045,307.0386,301.82507,301.76184,419.0,419.0,485.0,487.0,93.0,93.0,93.0,93.0,0.0,0.0,0.0,0.0,0.047850795,0.04800728,0.05350731,0.05291256,0.0,0.0,0.0,0.0,-446.27933,309.7012,-1142.46,235.29675,0.0,0.0,0.0,2.0,1.0,-1.3337932,-9.5003826E-4,5.1128864E-4,93.0,93.0,93.0,93.0,21.775778,21.775778,24.740557,24.740557,0.017018951,0.017026635,-4.549541E-4,-4.5454767E-4,1110.9165,0.0,0.0,0.0,0.0,0.0,0.0,0.0,0.0,0.0,0.0,0.0,0.0,0.0,-81.510254,0.0020376034,19.755611,-0.020097341,-0.010628876,0.003674657,546178.56,119984.9,0.010173833,0.011491652,7675.585,7704.2793,6544.9004,6318.868,0.30042076,0.0,0.0,0.0
174.99454,174.99454,2.183,0.0,0.0,302.44962,10817.0,100.0,0.0,0.13654487,0.0,8.0,1.0,0.0,4000000.0,110.0,1.0,0.0,0.0,10.0,0.0,0.0,-68.01184,-2.951529,373.83826,-0.085716136,0.29076922,-0.018708989,307.58853,307.52496,302.34024,302.27933,417.0,417.0,483.0,485.0,93.0,93.0,93.0,93.0,0.0,0.0,0.0,0.0,0.047919255,0.04825842,0.053501606,0.052920703,0.0,0.0,0.0,0.0,-1221.9607,197.97379,-1010.6564,283.32172,0.0,0.0,0.0,2.0,1.0,-1.3343117,4.6285518E-4,3.963709E-4,93.0,93.0,93.0,93.0,21.775778,21.775778,24.740557,24.740557,0.016951416,0.016902478,-4.5515137E-4,-4.5549942E-4,1113.2812,0.0,0.0,0.0,0.0,0.0,0.0,0.0,0.0,0.0,0.0,0.0,0.0,0.0,-81.660126,-0.0054563796,19.746866,-0.027561726,-0.010193972,0.002193117,546481.0,119984.9,0.010106226,0.011261776,7706.572,7797.7627,6564.707,6358.1924,0.3010168,0.0,0.0,0.0
180.60193,180.60193,2.233,0.0,0.0,303.1316,10840.0,100.0,0.0,0.17691252,0.0,8.0,1.0,0.0,4000000.0,110.0,1.0,0.0,0.0,10.0,0.0,0.0,-73.4628,-2.951829,375.15417,-0.09653592,0.28784105,-0.006055503,308.21066,308.1726,303.02673,302.95712,414.0,415.0,480.0,483.0,93.0,93.0,93.0,93.0,0.0,0.0,0.0,0.0,0.048122577,0.048381265,0.05355793,0.052923426,-2.9189138,-1.7776339,-5.7131047,0.378862,650.3149,-605.91095,-250.6524,-195.07704,0.0,0.0,0.0,2.0,1.0,-1.3350449,0.0021157556,2.69413E-4,93.0,93.0,93.0,93.0,21.775778,21.775778,24.740557,24.740557,0.016725896,0.016775185,-4.5781033E-4,-4.5395852E-4,1116.4453,0.0,0.0,0.0,0.0,0.0,0.0,0.0,0.0,0.0,0.0,0.0,0.0,0.0,-81.858604,-0.0022203168,19.731968,-0.019566583,-0.011835225,0.005163976,546871.4,119984.89,0.010024429,0.010666515,7864.082,7882.0347,6603.1523,6326.9644,0.30161762,0.0,0.0,0.0
184.81606,184.81606,2.283,0.0,0.0,303.6332,10858.0,100.0,0.0,0.1858673,0.0,8.0,1.0,0.0,4000000.0,110.0,1.0,0.0,0.0,10.0,0.0,0.0,-77.55964,-2.9518285,376.1404,-0.10322605,0.2819027,-0.014463011,308.75745,308.70105,303.5334,303.45508,412.0,413.0,479.0,481.0,93.0,93.0,93.0,93.0,0.0,0.0,0.0,0.0,0.04804093,0.04821724,0.05362938,0.0529578,-11.68929,-4.278794,0.22932886,1.3998895,127.67307,-174.92024,-101.53501,-2.7090309,0.0,0.0,0.0,2.0,1.0,-1.3356845,0.0033237964,4.2402744E-4,93.0,93.0,93.0,93.0,21.775778,21.775778,24.740557,24.740557,0.016793873,0.016840369,-4.5461106E-4,-4.5097314E-4,1118.9724,0.0,0.0,0.0,0.0,0.0,0.0,0.0,0.0,0.0,0.0,0.0,0.0,0.0,-82.005714,-9.447189E-4,19.71625,-0.021843985,-0.013350525,0.005931362,547200.56,119984.89,0.009872462,0.011080136,7795.873,7807.8555,6691.58,6385.025,0.3023758,0.0,0.0,0.0
189.0379,189.0379,2.333,0.0,0.0,304.13284,10874.0,100.0,0.0,0.18219756,0.0,8.0,1.0,0.0,4000000.0,110.0,1.0,0.0,0.0,10.0,0.0,0.0,-81.66379,-2.951768,377.12573,-0.109657355,0.28460607,-0.007854711,309.19916,309.13696,304.03418,303.95035,411.0,411.0,477.0,479.0,93.0,93.0,93.0,93.0,0.0,0.0,0.0,0.0,0.048239384,0.048625465,0.053707756,0.0528818,8.450299,10.243132,-11.995285,-1.3294815,553.4201,-151.03522,-810.16113,-18.855928,0.0,0.0,0.0,2.0,1.0,-1.3363898,0.004960815,4.887581E-5,93.0,93.0,93.0,93.0,21.775778,21.775778,24.740557,24.740557,0.016612101,0.016626896,-4.5572745E-4,-4.5516941E-4,1121.1747,0.0,0.0,0.0,0.0,0.0,0.0,0.0,0.0,0.0,0.0,0.0,0.0,0.0,-82.15296,0.0011795667,19.697416,-0.028300332,-0.014135097,0.0021523233,547470.8,119984.89,0.009790103,0.010171744,7915.271,7992.929,6621.3633,6283.3643,0.3030243,0.0,0.0,0.0
191.85638,191.85638,2.383,0.0,0.0,304.46313,10883.0,100.0,0.0,0.18083961,0.0,8.0,1.0,0.0,4000000.0,110.0,1.0,0.0,0.0,10.0,0.0,0.0,-84.40401,-2.9512947,377.78207,-0.113309786,0.2775792,0.17001422,309.47427,309.39572,304.36703,304.2814,409.0,410.0,476.0,478.0,93.0,93.0,93.0,93.0,0.0,0.0,0.0,0.0,0.048929248,0.049073838,0.054082125,0.053078704,0.0,0.0,0.0,0.0,-1269.865,1993.7527,632.59894,989.8825,0.0,0.0,0.0,2.0,1.0,-1.3368636,0.0063181585,6.246567E-5,93.0,93.0,93.0,93.0,21.775778,21.775778,24.740557,24.740557,0.01635292,0.016329475,-4.52374E-4,-4.4993876E-4,1122.4402,0.0,0.0,0.0,0.0,0.0,0.0,0.0,0.0,0.0,0.0,0.0,0.0,0.0,-82.25095,0.03512021,19.682144,-0.052975837,-0.014423161,0.011290397,547635.5,119984.89,0.0095675215,0.010236275,8181.6797,8270.53,7130.377,6693.349,0.30394936,0.0,0.0,0.0
197.50232,197.50232,2.433,0.0,0.0,305.0937,10912.0,100.0,0.0,0.11646986,0.0,8.0,1.0,0.0,4000000.0,110.0,1.0,0.0,0.0,10.0,0.0,0.0,-89.89395,-2.9485123,379.0931,-0.10926632,0.266539,-0.06692468,310.30478,310.22488,304.98804,304.9193,407.0,407.0,473.0,476.0,93.0,93.0,93.0,93.0,0.0,0.0,0.0,0.0,0.047497544,0.047972344,0.053891424,0.05298959,-26.421768,-11.141895,5.6140866,3.3896415,138.3618,429.5558,426.0286,385.2054,0.0,0.0,0.0,2.0,1.0,-1.3377305,0.008823245,3.15547E-4,93.0,93.0,93.0,93.0,21.775778,21.775778,24.740557,24.740557,0.017057208,0.016961899,-4.4826593E-4,-4.4728612E-4,1126.4717,0.0,0.0,0.0,0.0,0.0,0.0,0.0,0.0,0.0,0.0,0.0,0.0,0.0,-82.43852,0.029454501,19.65081,-0.036309943,-0.011663388,-0.0018304838,548141.8,119984.89,0.009514517,0.01258745,7551.2637,7686.918,6887.754,6454.118,0.3075657,0.0,0.0,0.0
201.74457,201.74457,2.483,0.0,0.0,305.58038,10918.0,100.0,0.0,0.08893825,0.0,8.0,1.0,0.0,4000000.0,110.0,1.0,0.0,0.0,10.0,0.0,0.0,-94.01968,-2.9464207,380.0751,-0.10323475,0.27748266,0.3346901,310.4666,310.36053,305.4579,305.4059,405.0,406.0,472.0,474.0,93.0,93.0,93.0,93.0,0.0,0.0,0.0,0.0,0.050048977,0.050139405,0.054862797,0.05356841,117.97785,84.792,40.08807,21.414309,5721.3257,2880.2766,2038.5457,863.08105,0.0,0.0,0.0,2.0,1.0,-1.3382516,0.011200391,-0.0014076233,93.0,93.0,93.0,93.0,21.775778,21.775778,24.740557,24.740557,0.01597143,0.015831945,-4.566541E-4,-4.5522273E-4,1127.2903,0.0,0.0,0.0,0.0,0.0,0.0,0.0,0.0,0.0,0.0,0.0,0.0,0.0,-82.58212,0.08939842,19.63118,-0.061368022,-0.009570154,-0.04087691,548238.7,119984.9,0.0062421765,0.007378844,8583.355,8755.5625,7751.658,7177.957,0.3102827,0.0,0.0,0.0
205.99362,205.99362,2.533,0.0,0.0,305.367,10934.0,100.0,0.0,0.0121109225,0.0,8.0,1.0,0.0,4000000.0,110.0,1.0,0.0,0.0,10.0,0.0,0.0,-98.15249,-2.9365697,381.0564,-0.07317391,0.25926498,0.38213313,310.89938,310.8593,305.9207,305.9093,403.0,404.0,470.0,472.0,93.0,93.0,93.0,93.0,0.0,0.0,0.0,0.0,0.049570918,0.050025877,0.054701746,0.054234672,-26.263742,-16.44507,14.687776,6.8494673,-252.86519,319.3437,1967.306,-959.1981,0.0,0.0,0.0,2.0,1.0,-1.3385111,0.013175339,-0.0026011467,93.0,93.0,93.0,93.0,21.775778,21.775778,24.740557,24.740557,0.015803581,0.015678909,-4.5845253E-4,-4.468685E-4,1129.5308,0.0,0.0,0.0,0.0,0.0,0.0,0.0,0.0,0.0,0.0,0.0,0.0,0.0,-82.559135,0.6070899,19.461761,0.07757586,-0.0023290163,-0.14970657,548524.44,119984.89,0.00603806,0.0068246275,8597.777,8838.162,7563.251,7280.16,0.29703426,0.0,0.0,0.0
208.82391,208.82391,2.583,0.0,0.0,305.71893,10949.0,100.0,0.0,0.15852618,0.0,8.0,1.0,0.0,4000000.0,110.0,1.0,0.0,0.0,10.0,0.0,0.0,-100.90629,-2.9195948,381.70566,0.026800968,0.25392967,-0.86528164,311.36108,311.25647,305.61462,305.57883,402.0,402.0,469.0,471.0,93.0,93.0,93.0,93.0,0.0,0.0,0.0,0.0,0.046096656,0.046528433,0.051406056,0.049314797,0.0,0.0,0.0,0.0,-5081.994,-98.27636,-517.9879,5155.0845,0.0,0.0,0.0,2.0,1.0,-1.3386291,0.013207803,-0.003034711,93.0,93.0,93.0,93.0,21.775778,21.775778,24.740557,24.740557,0.018127823,0.017946556,-4.4490545E-4,-4.3215606E-4,1131.5974,0.0,0.0,0.0,0.0,0.0,0.0,0.0,0.0,0.0,0.0,0.0,0.0,0.0,-82.653496,0.38826364,19.49314,-0.059155703,-0.0056741997,0.103285946,548775.25,119984.9,0.020955952,0.016422292,6622.9414,6882.982,3934.3477,3086.7305,0.30589104,0.0,0.0,0.0
214.493,214.493,2.633,0.0,0.0,306.31848,10966.0,100.0,0.0,0.42373267,0.0,8.0,1.0,0.0,4000000.0,110.0,1.0,0.0,0.0,10.0,0.0,0.0,-106.422,-2.9095647,383.00696,-0.06794118,0.26931697,-0.21402372,311.80774,311.75034,306.23135,306.1216,400.0,400.0,466.0,469.0,93.0,93.0,93.0,93.0,0.0,0.0,0.0,0.0,0.039575245,0.04108471,0.052319705,0.053287968,54.317635,35.30927,55.99491,29.255299,9392.357,6203.6543,1298.5378,-3406.1233,0.0,0.0,0.0,2.0,1.0,-1.339253,0.017304646,0.0011966228,93.0,93.0,93.0,93.0,21.775778,21.775778,24.740557,24.740557,0.018063923,0.0181715,-4.610168E-4,-4.322515E-4,1133.959,0.0,0.0,0.0,0.0,0.0,0.0,0.0,0.0,0.0,0.0,0.0,0.0,0.0,-82.81691,0.014812948,19.52963,0.030104494,-0.02043151,-0.04145794,549068.0,119984.9,0.016618889,0.02446763,7005.585,7052.4116,6538.336,6842.8843,0.32064056,0.0,0.0,0.0
218.75226,218.75226,2.683,0.0,0.0,306.78134,10962.0,100.0,0.0,0.20854399,0.0,8.0,1.0,0.0,4000000.0,110.0,1.0,0.0,0.0,10.0,0.0,0.0,-110.566414,-2.9099445,383.9829,-0.10259895,0.26469398,0.27839744,311.662,311.65497,306.69745,306.55588,398.0,398.0,464.0,467.0,93.0,93.0,93.0,93.0,0.0,0.0,0.0,0.0,0.04931061,0.047572978,0.05377499,0.054285817,225.2881,215.79689,14.0111885,52.798836,1279.172,4104.906,-1056.3075,1476.328,0.0,0.0,0.0,2.0,1.0,-1.3405415,0.015813854,-0.002081871,93.0,93.0,93.0,93.0,21.775778,21.775778,24.740557,24.740557,0.015896939,0.016236013,-4.4098706E-4,-4.7168197E-4,1133.4094,0.0,0.0,0.0,0.0,0.0,0.0,0.0,0.0,0.0,0.0,0.0,0.0,0.0,-82.953354,0.030010082,19.511108,0.023791797,-0.024096936,-0.100658625,549002.1,119984.89,0.008448384,0.010415904,8576.58,8283.612,7184.409,7572.3066,0.31557178,0.0,0.0,0.0
223.01201,223.01201,2.733,0.0,0.0,305.56702,10957.0,100.0,0.0,-0.03437668,0.0,8.0,1.0,0.0,4000000.0,110.0,1.0,0.0,0.0,10.0,0.0,0.0,-114.7127,-2.8921633,384.95255,-1.3361421,-1.9459834,3.3136148,311.34875,311.7183,305.82117,305.79337,396.0,397.0,463.0,465.0,93.0,93.0,93.0,93.0,0.0,0.0,0.0,0.0,0.049125683,0.046468817,0.052180883,0.051379498,-202.0946,-256.40552,-124.7435,-207.7107,-12653.989,-14172.535,-8404.916,-11891.64,0.0,0.0,0.0,2.0,1.0,-1.3412218,0.012455402,-0.00538671,93.0,93.0,93.0,93.0,21.775778,21.775778,24.740557,24.740557,0.01787481,0.019346615,-1.08183274E-4,-1.2842254E-4,1132.7156,0.0,0.0,0.0,0.0,0.0,0.0,0.0,0.0,0.0,0.0,0.0,0.0,0.0,-82.69695,0.94343495,19.102144,0.08486889,-2.800962E-4,-5.2440725E-4,548916.44,119984.89,0.013147667,0.0098281605,7832.9272,6508.5137,4153.2144,3510.2603,0.29052734,0.0,0.0,0.0
227.2608,227.2608,2.783,0.0,0.0,306.00854,11009.0,100.0,0.0,0.2240095,0.0,8.0,1.0,0.0,4000000.0,110.0,1.0,0.0,0.0,10.0,0.0,0.0,-118.85029,-2.8639624,385.91092,0.12437412,0.2458503,-1.303904,313.04456,313.02423,305.85748,305.92242,394.0,395.0,461.0,463.0,93.0,93.0,93.0,93.0,0.0,0.0,0.0,0.0,0.03586388,0.03455981,0.04860591,0.05040573,-228.27385,-206.15256,19.59577,32.860188,2770.6155,512.38214,5864.542,602.3302,0.0,0.0,0.0,2.0,1.0,-1.3407452,0.012180574,3.1268597E-4,93.0,93.0,93.0,93.0,21.775778,21.775778,24.740557,24.740557,0.023114119,0.023027869,-4.3759812E-4,-3.9063918E-4,1139.6478,0.0,0.0,0.0,0.0,0.0,0.0,0.0,0.0,0.0,0.0,0.0,0.0,0.0,-82.80044,0.248111,19.220556,0.063138634,0.00972416,0.102324955,549667.2,119984.89,0.022086097,0.030523181,4645.468,4630.413,3990.3455,4726.1543,0.3152218,0.0,0.0,0.0
230.09708,230.09708,2.833,0.0,0.0,306.35678,10980.0,100.0,0.0,0.29059583,0.0,8.0,1.0,0.0,4000000.0,110.0,1.0,0.0,0.0,10.0,0.0,0.0,-121.61189,-2.860828,386.55255,0.07459774,0.29816312,-0.53140324,312.16818,312.24387,306.2407,306.2004,393.0,394.0,460.0,462.0,93.0,93.0,93.0,93.0,0.0,0.0,0.0,0.0,0.03532921,0.034560762,0.05191336,0.0517762,0.0,0.0,0.0,0.0,9713.698,8619.358,1215.3895,-365.92047,0.0,0.0,0.0,2.0,1.0,-1.34078,0.009655534,0.002156973,93.0,93.0,93.0,93.0,21.775778,21.775778,24.740557,24.740557,0.019276626,0.019571988,-4.651973E-4,-4.3428948E-4,1135.9393,0.0,0.0,0.0,0.0,0.0,0.0,0.0,0.0,0.0,0.0,0.0,0.0,0.0,-82.888374,0.004869445,19.2711,0.084828086,-0.008208879,-0.013150228,549325.56,119984.9,0.017038992,0.02808701,6396.2847,6344.164,5988.074,6297.74,0.317235,0.0,0.0,0.0
235.77864,235.77864,2.883,0.0,0.0,306.99493,10972.0,100.0,0.0,0.6221904,0.0,8.0,1.0,0.0,4000000.0,110.0,1.0,0.0,0.0,10.0,0.0,0.0,-127.143616,-2.8646066,387.8392,-0.06748822,0.27426207,0.098407514,312.00784,311.88095,306.9442,306.7416,391.0,391.0,458.0,460.0,93.0,93.0,93.0,93.0,0.0,0.0,0.0,0.0,0.048403446,0.04784314,0.054349657,0.053208813,168.87544,196.28673,-20.46883,27.972532,-5725.43,-1196.801,-5296.5845,2210.475,0.0,0.0,0.0,2.0,1.0,-1.3423114,0.006001157,-0.0010778904,93.0,93.0,93.0,93.0,21.775778,21.775778,24.740557,24.740557,0.016190268,0.016378528,-4.78992E-4,-4.4121614E-4,1134.8029,0.0,0.0,0.0,0.0,0.0,0.0,0.0,0.0,0.0,0.0,0.0,0.0,0.0,-83.06187,-0.045682598,19.307615,-0.029827733,-0.036826815,-0.061413944,549176.1,119984.9,0.006569322,0.00849777,8105.9214,8146.128,6987.2866,6733.6206,0.29710865,0.0,0.0,0.0
240.04262,240.04262,2.933,0.0,0.0,306.8329,10977.0,100.0,0.0,0.026552623,0.0,8.0,1.0,0.0,4000000.0,110.0,1.0,0.0,0.0,10.0,0.0,0.0,-131.29608,-2.8559413,388.80054,0.011246923,0.19758353,-0.13317746,312.18982,311.9988,306.78668,306.7771,389.0,390.0,456.0,458.0,93.0,93.0,93.0,93.0,0.0,0.0,0.0,0.0,0.047320496,0.048714016,0.053883683,0.051834036,-90.69733,-50.51158,-36.735085,-37.030575,1173.0642,1901.297,-1261.6708,-188.15688,0.0,0.0,0.0,2.0,1.0,-1.342969,0.009961637,-0.0018041134,93.0,93.0,93.0,93.0,21.775778,21.775778,24.740557,24.740557,0.017051887,0.016514154,-4.5275324E-4,-4.2740995E-4,1135.5007,0.0,0.0,0.0,0.0,0.0,0.0,0.0,0.0,0.0,0.0,0.0,0.0,0.0,-83.04458,0.29078662,19.180668,-0.100275554,3.0347862E-4,0.016960576,549263.5,119984.9,0.009447094,0.008772309,7461.0444,8083.329,6274.0166,5342.948,0.29199982,0.0,0.0,0.0
244.30739,244.30739,2.983,0.0,0.0,307.04413,11005.0,100.0,0.0,0.23943281,0.0,8.0,1.0,0.0,4000000.0,110.0,1.0,0.0,0.0,10.0,0.0,0.0,-135.44989,-2.8456028,389.75958,-0.046016805,0.09279918,-0.5103327,313.0821,312.75574,306.937,306.9034,387.0,388.0,454.0,456.0,93.0,93.0,93.0,93.0,0.0,0.0,0.0,0.0,0.04224538,0.04518732,0.051245812,0.050269745,-157.42174,-105.928024,-40.222626,-3.5317986,-4393.806,-3113.91,1041.3408,2932.6733,0.0,0.0,0.0,2.0,1.0,-1.3430785,0.016562767,8.510351E-4,93.0,93.0,93.0,93.0,21.775778,21.775778,24.740557,24.740557,0.01955402,0.018629596,-4.4249132E-4,-4.029166E-4,1139.2258,0.0,0.0,0.0,0.0,0.0,0.0,0.0,0.0,0.0,0.0,0.0,0.0,0.0,-83.10515,0.094292976,19.181143,-0.10399111,-0.006014494,0.13810249,549663.4,119984.9,0.01895664,0.018852359,5827.1787,6541.116,4742.0,4492.8657,0.3035183,0.0,0.0,0.0
248.57684,248.57684,3.033,0.0,0.0,307.49692,11015.0,100.0,0.0,0.14469169,0.0,8.0,1.0,0.0,4000000.0,110.0,1.0,0.0,0.0,10.0,0.0,0.0,-139.6082,-2.8502002,390.71997,0.008026294,0.2626155,-0.39832044,313.34525,313.0584,307.39383,307.32,386.0,386.0,452.0,455.0,93.0,93.0,93.0,93.0,0.0,0.0,0.0,0.0,0.038063772,0.04079058,0.05223354,0.053306762,-31.38363,-6.0823555,37.759243,67.060585,2664.5598,6992.988,-617.7797,-638.5533,0.0,0.0,0.0,2.0,1.0,-1.3435187,0.020578403,0.0043091774,93.0,93.0,93.0,93.0,21.775778,21.775778,24.740557,24.740557,0.019266862,0.018411053,-4.4897813E-4,-4.378228E-4,1140.2834,0.0,0.0,0.0,0.0,0.0,0.0,0.0,0.0,0.0,0.0,0.0,0.0,0.0,-83.22345,-0.20748892,19.226946,-0.0275411,-0.013565572,-0.007870514,549674.2,119984.89,0.013519563,0.023311315,6152.365,6870.306,6525.404,6751.1406,0.30985546,0.0,0.0,0.0
252.85272,252.85272,3.083,0.0,0.0,307.9667,11006.0,100.0,0.0,0.13667399,0.0,8.0,1.0,0.0,4000000.0,110.0,1.0,0.0,0.0,10.0,0.0,0.0,-143.7729,-2.8616219,391.68127,-0.06420581,0.26504713,0.11531006,312.9411,312.877,307.86615,307.7657,384.0,384.0,451.0,453.0,93.0,93.0,93.0,93.0,0.0,0.0,0.0,0.0,0.048214164,0.047913447,0.053871036,0.05356234,220.05064,172.39227,21.070763,-1.5559046,-1764.1698,937.45874,-705.6221,33.836056,0.0,0.0,0.0,2.0,1.0,-1.3443903,0.01950486,0.0013865232,93.0,93.0,93.0,93.0,21.775778,21.775778,24.740557,24.740557,0.016146736,0.016225753,-4.5178746E-4,-4.563291E-4,1139.3303,0.0,0.0,0.0,0.0,0.0,0.0,0.0,0.0,0.0,0.0,0.0,0.0,0.0,-83.35671,-0.21517302,19.229748,8.61316E-4,-0.01824656,-0.06908272,549663.8,119984.89,0.008466864,0.010137558,8245.155,8230.842,7010.0537,6818.9287,0.30176163,0.0,0.0,0.0
257.13525,257.13525,3.133,0.0,0.0,308.44086,11015.0,100.0,0.0,0.14321642,0.0,8.0,1.0,0.0,4000000.0,110.0,1.0,0.0,0.0,10.0,0.0,0.0,-147.9445,-2.868131,392.64218,-0.10231739,0.2538851,0.42695293,313.19296,313.14633,308.35962,308.24786,382.0,383.0,449.0,451.0,93.0,93.0,93.0,93.0,0.0,0.0,0.0,0.0,0.050549902,0.050430838,0.05426633,0.05388796,-36.33119,-31.126139,5.5553017,10.574162,-2522.4966,-3068.9294,-139.74306,144.90634,0.0,0.0,0.0,2.0,1.0,-1.3453721,0.019671643,2.913475E-4,93.0,93.0,93.0,93.0,21.775778,21.775778,24.740557,24.740557,0.015193113,0.015366997,-4.4547115E-4,-4.6012795E-4,1140.2826,0.0,0.0,0.0,0.0,0.0,0.0,0.0,0.0,0.0,0.0,0.0,0.0,0.0,-83.49762,-0.032979593,19.20596,-0.0044036447,-0.01785625,0.026326006,549673.75,119984.89,0.0064805713,0.005287364,9127.727,8980.303,7204.958,7050.2515,0.2985773,0.0,0.0,0.0
261.42395,261.42395,3.183,0.0,0.0,308.86398,11045.0,100.0,0.0,0.034485754,0.0,8.0,1.0,0.0,4000000.0,110.0,1.0,0.0,0.0,10.0,0.0,0.0,-152.12273,-2.8678138,393.6019,-0.09433837,0.2383494,-0.108737074,314.02493,314.01956,308.75476,308.70105,381.0,381.0,447.0,450.0,93.0,93.0,93.0,93.0,0.0,0.0,0.0,0.0,0.047987822,0.047922563,0.05391138,0.053649887,-44.397484,-43.084545,-14.601945,-12.350454,674.7365,727.2406,-484.541,-413.7307,0.0,0.0,0.0,2.0,1.0,-1.3459926,0.01997584,0.0015420914,93.0,93.0,93.0,93.0,21.775778,21.775778,24.740557,24.740557,0.016628249,0.01674155,-4.3088972E-4,-4.4377596E-4,1143.4537,0.0,0.0,0.0,0.0,0.0,0.0,0.0,0.0,0.0,0.0,0.0,0.0,0.0,-83.623,6.1899726E-4,19.185162,0.0015352175,-0.008185632,0.011190323,549705.25,119984.89,0.00898864,0.010880813,7756.4277,7674.585,6741.293,6632.9155,0.30236626,0.0,0.0,0.0
264.28638,264.28638,3.233,0.0,0.0,309.1538,11056.0,100.0,0.0,-0.07259552,0.0,8.0,1.0,0.0,4000000.0,110.0,1.0,0.0,0.0,10.0,0.0,0.0,-154.91167,-2.8689775,394.2413,-0.07184674,0.25006822,-0.19579636,314.3501,314.3565,309.02475,309.00565,379.0,380.0,446.0,448.0,93.0,93.0,93.0,93.0,0.0,0.0,0.0,0.0,0.047469154,0.047259446,0.053502336,0.05318201,0.0,0.0,0.0,0.0,683.0379,801.95355,296.86682,321.52982,0.0,0.0,0.0,2.0,1.0,-1.346171,0.020055054,0.0015861988,93.0,93.0,93.0,93.0,21.775778,21.775778,24.740557,24.740557,0.016851215,0.016918154,-4.329555E-4,-4.5128583E-4,1144.6184,0.0,0.0,0.0,0.0,0.0,0.0,0.0,0.0,0.0,0.0,0.0,0.0,0.0,-83.70707,-0.06461713,19.178617,-0.007248394,-0.0024112752,-0.0015901984,549717.7,119984.89,0.010188353,0.012137555,7626.2,7553.7827,6506.9917,6356.2437,0.30359936,0.0,0.0,0.0
270.01938,270.01938,3.283,0.0,0.0,309.7426,11070.0,100.0,0.0,-0.043895356,0.0,8.0,1.0,0.0,4000000.0,110.0,1.0,0.0,0.0,10.0,0.0,0.0,-160.49791,-2.875789,395.5202,-0.027362507,0.25051576,0.023139266,314.73477,314.74963,309.58798,309.61584,377.0,377.0,444.0,446.0,93.0,93.0,93.0,93.0,0.0,0.0,0.0,0.0,0.04880795,0.04890981,0.05359168,0.053521745,27.673243,33.094658,6.0892844,9.579286,-300.48785,-253.10669,68.19514,95.48663,0.0,0.0,0.0,2.0,1.0,-1.3459679,0.020656234,0.0010882616,93.0,93.0,93.0,93.0,21.775778,21.775778,24.740557,24.740557,0.016233211,0.016192093,-4.4714785E-4,-4.4623573E-4,1146.0986,0.0,0.0,0.0,0.0,0.0,0.0,0.0,0.0,0.0,0.0,0.0,0.0,0.0,-83.87225,-0.11194243,19.18978,-0.009107114,0.0045580775,-0.00797862,549732.44,119984.89,0.008750385,0.009479158,8101.1865,8125.9717,6798.715,6778.1816,0.30166245,0.0,0.0,0.0
274.32623,274.32623,3.333,0.0,0.0,310.17648,11083.0,100.0,0.0,-0.046399456,0.0,8.0,1.0,0.0,4000000.0,110.0,1.0,0.0,0.0,10.0,0.0,0.0,-164.69469,-2.8801887,396.4803,0.001119338,0.24130425,0.103320524,315.1202,315.12036,310.02356,310.05264,375.0,376.0,442.0,445.0,93.0,93.0,93.0,93.0,0.0,0.0,0.0,0.0,0.04902961,0.04916173,0.053822715,0.053833835,-7.718503,-3.9318945,3.2714007,5.1458178,-763.1957,-517.7199,-105.42421,-52.98703,0.0,0.0,0.0,2.0,1.0,-1.3457134,0.020981014,0.0010244846,93.0,93.0,93.0,93.0,21.775778,21.775778,24.740557,24.740557,0.0160009,0.015916964,-4.4557278E-4,-4.4324377E-4,1147.4741,0.0,0.0,0.0,0.0,0.0,0.0,0.0,0.0,0.0,0.0,0.0,0.0,0.0,-83.990616,-0.06423758,19.213041,-0.0051164823,0.0049107056,0.0060250163,549746.6,119984.89,0.00806089,0.008627735,8268.352,8347.263,6918.4795,6929.6655,0.30091476,0.0,0.0,0.0
277.20074,277.20074,3.383,0.0,0.0,310.45648,11096.0,100.0,0.0,-0.055598304,0.0,8.0,1.0,0.0,4000000.0,110.0,1.0,0.0,0.0,10.0,0.0,0.0,-167.49573,-2.882103,397.12103,0.011329588,0.23761459,0.005241761,315.46942,315.46268,310.3078,310.32922,374.0,375.0,441.0,443.0,93.0,93.0,93.0,93.0,0.0,0.0,0.0,0.0,0.048635222,0.048735805,0.05374657,0.053792417,0.0,0.0,0.0,0.0,281.63193,125.00432,-23.737549,-193.06538,0.0,0.0,0.0,2.0,1.0,-1.3455788,0.021109283,0.0011866093,93.0,93.0,93.0,93.0,21.775778,21.775778,24.740557,24.740557,0.016198311,0.016120724,-4.4113825E-4,-4.4182906E-4,1148.847,0.0,0.0,0.0,0.0,0.0,0.0,0.0,0.0,0.0,0.0,0.0,0.0,0.0,-84.06594,-0.055607162,19.232576,-0.0033110436,0.003661735,0.005038265,549759.56,119984.9,0.008472514,0.009399213,8074.636,8144.3066,6797.8237,6814.902,0.30140972,0.0,0.0,0.0
282.95752,282.95752,3.433,0.0,0.0,311.01462,11116.0,100.0,0.0,-0.09986036,0.0,8.0,1.0,0.0,4000000.0,110.0,1.0,0.0,0.0,10.0,0.0,0.0,-173.10524,-2.8866022,398.4049,0.030031722,0.23727381,-0.040812276,316.05133,316.03696,310.85977,310.8921,372.0,372.0,439.0,441.0,93.0,93.0,93.0,93.0,0.0,0.0,0.0,0.0,0.048488963,0.048656113,0.0535637,0.05367146,4.6312804,4.4623013,0.062361352,-0.2286583,288.99457,305.6645,278.54736,171.92958,0.0,0.0,0.0,2.0,1.0,-1.3452753,0.02145711,0.001193285,93.0,93.0,93.0,93.0,21.775778,21.775778,24.740557,24.740557,0.016283533,0.016150024,-4.3975358E-4,-4.4284275E-4,1150.9631,0.0,0.0,0.0,0.0,0.0,0.0,0.0,0.0,0.0,0.0,0.0,0.0,0.0,-84.21338,-0.081155844,19.283197,-0.00539688,0.005470481,-2.9818038E-5,549781.2,119984.91,0.008705943,0.009754849,7986.525,8103.0977,6711.816,6757.2686,0.3017645,0.0,0.0,0.0
287.28186,287.28186,3.483,0.0,0.0,311.43167,11129.0,100.0,0.0,-0.2008205,0.0,8.0,1.0,0.0,4000000.0,110.0,1.0,0.0,0.0,10.0,0.0,0.0,-177.31879,-2.8907044,399.3702,0.052633867,0.23592666,0.023532216,316.40845,316.4016,311.26584,311.31848,370.0,371.0,437.0,440.0,93.0,93.0,93.0,93.0,0.0,0.0,0.0,0.0,0.04880204,0.049004637,0.05366958,0.05382704,8.939579,8.615254,1.4012306,2.2646782,186.93657,215.27405,-39.02614,-72.35259,0.0,0.0,0.0,2.0,1.0,-1.3449354,0.021739034,0.0010275841,93.0,93.0,93.0,93.0,21.775778,21.775778,24.740557,24.740557,0.016102448,0.015929675,-4.3658307E-4,-4.4849512E-4,1152.3376,0.0,0.0,0.0,0.0,0.0,0.0,0.0,0.0,0.0,0.0,0.0,0.0,0.0,-84.32165,-0.078654066,19.329401,-0.008370737,0.0092519615,-6.372648E-4,549794.8,119984.914,0.008039291,0.008840762,8137.5327,8282.469,6808.284,6879.947,0.30090618,0.0,0.0,0.0
