LapDistance [m],TotalDistance [m],LapTime [s],Sector1Time [s],Sector2Time [s],Speed [km/h],EngineRevs [rpm],ThrottlePercentage [%],BrakePercentage [%],Steer [%],Clutch [%],Gear [int],DRS [0/1],CanUseDRS [0/1],KERSLevel [J],EngineTemperature [C],RacePosition [int],Sector [int],InPits [int],FuelRemaining [kg],CurrentFlag [int],CurrentLapInvalid [int],X [m],Y [m],Z [m],GForceLatitudinal [G],GForceLongitudinal [G],GForceVertical [G],WheelSpeedRearLeft [km/h],WheelSpeedRearRight [km/h],WheelSpeedFrontLeft [km/h],WheelSpeedFrontRight [km/h],BrakeTemperatureRearLeft [C],BrakeTemperatureRearRight [C],BrakeTemperatureFrontLeft [C],BrakeTemperatureFrontRight [C],TyreTemperatureRearLeft [C],TyreTemperatureRearRight [C],TyreTemperatureFrontLeft [C],TyreTemperatureFrontRight [C],TyreWearRearLeft [%],TyreWearRearRight [%],TyreWearFrontLeft [%],TyreWearFrontRight [%],SuspensionPositionRearLeft [m],SuspensionPositionRearRight [m],SuspensionPositionFrontLeft [m],SuspensionPositionFrontRight [m],SuspensionVelocityRearLeft [m/s],SuspensionVelocityRearRight [m/s],SuspensionVelocityFrontLeft [m/s],SuspensionVelocityFrontRight [m/s],SuspensionAccelerationRearLeft [m/s^2],SuspensionAccelerationRearRight [m/s^2],SuspensionAccelerationFrontLeft [m/s^2],SuspensionAccelerationFrontRight [m/s^2],MGUKHarvested [J],MGUHHarvested [J],ERSSpent [J],ERSMode [int],FuelMixMode [int],Yaw [rad],Roll [rad],Pitch [rad],TyreCarcassTemperatureRearLeft [C],TyreCarcassTemperatureRearRight [C],TyreCarcassTemperatureFrontLeft [C],TyreCarcassTemperatureFrontRight [C],TyrePressureRearLeft [PSI],TyrePressureRearRight [PSI],TyrePressureFrontLeft [PSI],TyrePressureFrontRight [PSI],WheelSlipRearLeft [%],WheelSlipRearRight [%],WheelSlipFrontLeft [%],WheelSlipFrontRight [%],Torque [Nm],Handbrake [%],RearLeftInside [C],RearLeftMiddle [C],RearLeftOutside [C],RearRightInside [C],RearRightMiddle [C],RearRightOutside [C],FrontLeftInside [C],FrontLeftMiddle [C],FrontLeftOutside [C],FrontRightInside [C],FrontRightMiddle [C],FrontRightOutside [C],WoldSpeedX [km/h],WoldSpeedY [km/h],WoldSpeedZ [km/h],LocalAngularVelocityX [rad/s],LocalAngularVelocityY [rad/s],LocalAngularVelocityZ [rad/s],IcePower [W],MgukPower [W],FrontRideHeight [m],RearRideHeight [m],LoadRearLeft [N],LoadRearRight [N],LoadFrontLeft [N],LoadFrontRight [N],Extra1 [m],Extra2 [],Extra3 [],Extra4 []
0.6827481,0.6827481,0.016,0.0,0.0,272.5496,11197.0,100.0,0.0,0.06598585,0.0,7.0,1.0,0.0,4000000.0,110.0,1.0,0.0,0.0,10.0,0.0,0.0,101.043335,-2.861214,331.46268,-0.03777247,0.50764424,0.06211306,278.20685,278.2163,272.4066,272.39645,490.0,490.0,548.0,550.0,93.0,93.0,93.0,93.0,0.0,0.0,0.0,0.0,0.039632995,0.039583236,0.051367477,0.05106382,0.0,0.0,0.0,0.0,-422.5552,-491.59525,-115.925064,-147.9238,0.0,0.0,0.0,2.0,1.0,-1.3196979,-0.014490815,0.0030300617,93.0,93.0,93.0,93.0,21.775778,21.775778,24.740557,24.740557,0.020789666,0.020852132,-5.377498E-4,-5.326467E-4,1159.5323,0.0,0.0,0.0,0.0,0.0,0.0,0.0,0.0,0.0,0.0,0.0,0.0,0.0,-73.32401,-0.08204096,18.849838,-0.009889668,-0.0017042832,-0.0041420744,549867.7,119984.91,0.016970485,0.022691863,6657.4976,6621.9883,5423.292,5284.132,0.31537533,0.0,0.0,0.0
5.7453628,5.7453628,0.066,0.0,0.0,273.72928,11245.0,100.0,0.0,0.06589323,0.0,7.0,1.0,0.0,4000000.0,110.0,1.0,0.0,0.0,10.0,0.0,0.0,96.14382,-2.865552,332.7214,-0.03220158,0.4975123,0.023327498,279.41824,279.4105,273.59616,273.56885,487.0,487.0,546.0,548.0,93.0,93.0,93.0,93.0,0.0,0.0,0.0,0.0,0.040162906,0.040129956,0.051386245,0.0511034,-2.817437,-0.616461,-1.0907649,0.4470348,-388.65204,-142.84102,-45.584133,99.26854,0.0,0.0,0.0,2.0,1.0,-1.3199251,-0.014027328,0.002863884,93.0,93.0,93.0,93.0,21.775778,21.775778,24.740557,24.740557,0.02077103,0.02082027,-5.299883E-4,-5.3162983E-4,1164.6123,0.0,0.0,0.0,0.0,0.0,0.0,0.0,0.0,0.0,0.0,0.0,0.0,0.0,-73.64701,-0.05486903,18.90964,-0.0064163497,-0.0045232777,0.0024529616,549919.25,119984.9,0.016885672,0.022260353,6604.328,6589.3506,5379.993,5257.1504,0.31533146,0.0,0.0,0.0
9.556625,9.556625,0.116,0.0,0.0,274.60022,11282.0,100.0,0.0,0.054346167,0.0,7.0,1.0,0.0,4000000.0,110.0,1.0,0.0,0.0,10.0,0.0,0.0,92.45517,-2.8682792,333.66806,-0.03149519,0.49172494,-0.009861318,280.31512,280.30988,274.46625,274.44073,485.0,485.0,544.0,546.0,93.0,93.0,93.0,93.0,0.0,0.0,0.0,0.0,0.039876245,0.0398751,0.0513449,0.0510765,-6.020218,-4.1321664,-1.0047107,-0.4289299,22.530554,113.725624,-3.4466348,-33.33985,0.0,0.0,0.0,2.0,1.0,-1.3201444,-0.0136442855,0.0029156208,93.0,93.0,93.0,93.0,21.775778,21.775778,24.740557,24.740557,0.020813005,0.020865064,-5.2747177E-4,-5.3007883E-4,1168.5261,0.0,0.0,0.0,0.0,0.0,0.0,0.0,0.0,0.0,0.0,0.0,0.0,0.0,-73.88527,-0.056253277,18.95447,-0.0063135433,-0.0041743238,0.0024793963,549957.75,119984.9,0.0170319,0.02263505,6549.7725,6532.0303,5353.289,5228.898,0.31552792,0.0,0.0,0.0
13.37999,13.37999,0.166,0.0,0.0,275.4623,11316.0,100.0,0.0,0.020071378,0.0,7.0,1.0,0.0,4000000.0,110.0,1.0,0.0,0.0,10.0,0.0,0.0,88.754684,-2.8712244,334.61703,-0.0262696,0.48616505,-0.0010415406,281.15533,281.1564,275.3231,275.3084,483.0,483.0,542.0,544.0,93.0,93.0,93.0,93.0,0.0,0.0,0.0,0.0,0.039803676,0.039847273,0.051375143,0.0511229,1.175925,2.2928414,1.1014937,1.0894238,197.37032,120.01543,46.952057,-85.937965,0.0,0.0,0.0,2.0,1.0,-1.3202969,-0.013244356,0.002929449,93.0,93.0,93.0,93.0,21.775778,21.775778,24.740557,24.740557,0.02068725,0.02073118,-5.2390964E-4,-5.279305E-4,1172.1248,0.0,0.0,0.0,0.0,0.0,0.0,0.0,0.0,0.0,0.0,0.0,0.0,0.0,-74.12059,-0.05997272,19.000856,-0.007356389,-0.0022651486,0.0014175699,549993.94,119984.9,0.01693103,0.022623302,6590.885,6567.7754,5397.748,5277.361,0.31542492,0.0,0.0,0.0
17.215307,17.215307,0.216,0.0,0.0,276.31348,11349.0,100.0,0.0,0.03531987,0.0,7.0,1.0,0.0,4000000.0,110.0,1.0,0.0,0.0,10.0,0.0,0.0,85.04252,-2.8742385,335.56833,-0.023743905,0.47977024,0.0017598082,281.99088,281.99213,276.17316,276.16107,481.0,481.0,540.0,542.0,93.0,93.0,93.0,93.0,0.0,0.0,0.0,0.0,0.039954938,0.040018562,0.051418632,0.051180556,3.7883964,3.3981352,0.789687,0.37327406,60.8459,-150.79375,11.855363,-147.01186,0.0,0.0,0.0,2.0,1.0,-1.3203967,-0.01284486,0.002882719,93.0,93.0,93.0,93.0,21.775778,21.775778,24.740557,24.740557,0.020568248,0.020608468,-5.234813E-4,-5.2339287E-4,1175.6196,0.0,0.0,0.0,0.0,0.0,0.0,0.0,0.0,0.0,0.0,0.0,0.0,0.0,-74.3526,-0.06001996,19.047964,-0.0074301516,-0.00197527,6.5471465E-4,550029.8,119984.9,0.016769381,0.02238656,6618.322,6597.15,5421.3975,5306.9067,0.31521606,0.0,0.0,0.0
19.778744,19.778744,0.266,0.0,0.0,276.8754,11371.0,100.0,0.0,0.050018534,0.0,7.0,1.0,0.0,4000000.0,110.0,1.0,0.0,0.0,10.0,0.0,0.0,82.561325,-2.876233,336.2038,-0.02312497,0.476407,0.008347264,282.5434,282.5352,276.7374,276.72104,479.0,480.0,539.0,540.0,93.0,93.0,93.0,93.0,0.0,0.0,0.0,0.0,0.04008723,0.040167708,0.051449154,0.051225744,0.0,0.0,0.0,0.0,-29.0215,256.68735,-37.05471,144.08826,0.0,0.0,0.0,2.0,1.0,-1.3204767,-0.012578074,0.0028438568,93.0,93.0,93.0,93.0,21.775778,21.775778,24.740557,24.740557,0.020491987,0.02050053,-5.222607E-4,-5.2110374E-4,1177.9489,0.0,0.0,0.0,0.0,0.0,0.0,0.0,0.0,0.0,0.0,0.0,0.0,0.0,-74.50574,-0.05896166,19.079157,-0.0070443177,-0.0027393205,3.5135483E-4,550053.3,119984.91,0.01658324,0.022141486,6636.0586,6642.495,5446.5156,5353.3936,0.31513023,0.0,0.0,0.0
23.633648,23.633648,0.316,0.0,0.0,277.70908,11404.0,100.0,0.0,0.05020669,0.0,7.0,1.0,0.0,4000000.0,110.0,1.0,0.0,0.0,10.0,0.0,0.0,78.83003,-2.8791466,337.159,-0.02277653,0.4700775,0.010202992,283.36145,283.35226,277.5721,277.55435,477.0,478.0,537.0,538.0,93.0,93.0,93.0,93.0,0.0,0.0,0.0,0.0,0.04026443,0.04036049,0.05148924,0.05127583,0.0,0.0,0.0,0.0,-24.341053,214.88515,-28.565521,110.72158,0.0,0.0,0.0,2.0,1.0,-1.3206091,-0.012194874,0.0027860403,93.0,93.0,93.0,93.0,21.775778,21.775778,24.740557,24.740557,0.020372193,0.020382145,-5.1920296E-4,-5.186145E-4,1180.2511,0.0,0.0,0.0,0.0,0.0,0.0,0.0,0.0,0.0,0.0,0.0,0.0,0.0,-74.73279,-0.05687807,19.126009,-0.006583791,-0.0029773382,3.0566496E-4,549533.56,119984.9,0.016415073,0.021874784,6661.4526,6667.9023,5473.207,5383.7773,0.31491852,0.0,0.0,0.0
28.791452,28.791452,0.366,0.0,0.0,278.80206,11448.0,100.0,0.0,0.10611243,0.0,7.0,1.0,0.0,4000000.0,110.0,1.0,0.0,0.0,10.0,0.0,0.0,73.83744,-2.882858,338.43607,-0.034460425,0.46041927,0.0031274925,284.43854,284.43057,278.6735,278.63998,474.0,475.0,534.0,536.0,93.0,93.0,93.0,93.0,0.0,0.0,0.0,0.0,0.040495567,0.040505856,0.051562127,0.051293105,3.0004976,0.44591722,0.7782876,-0.7986277,-31.609837,-313.8989,-33.514194,-206.11432,0.0,0.0,0.0,2.0,1.0,-1.3208917,-0.011763661,0.002717495,93.0,93.0,93.0,93.0,21.775778,21.775778,24.740557,24.740557,0.020198895,0.020281145,-5.172044E-4,-5.129263E-4,1182.9568,0.0,0.0,0.0,0.0,0.0,0.0,0.0,0.0,0.0,0.0,0.0,0.0,0.0,-75.0317,-0.05409535,19.182579,-0.005827222,-0.0058029667,3.351312E-4,548676.4,119984.9,0.016347788,0.021690791,6695.751,6658.685,5506.1616,5373.796,0.31467342,0.0,0.0,0.0
32.673054,32.673054,0.416,0.0,0.0,279.6082,11479.0,100.0,0.0,0.11136523,0.0,7.0,1.0,0.0,4000000.0,110.0,1.0,0.0,0.0,10.0,0.0,0.0,70.07999,-2.8855255,339.39618,-0.042227656,0.4538365,-5.9838407E-4,285.23282,285.22372,279.48383,279.44266,472.0,473.0,532.0,534.0,93.0,93.0,93.0,93.0,0.0,0.0,0.0,0.0,0.040624823,0.04059589,0.051605016,0.051306438,1.5460699,-0.03017485,0.3737211,-0.60953194,-39.348003,-278.2255,-27.197596,-157.59315,0.0,0.0,0.0,2.0,1.0,-1.321216,-0.011429763,0.0026746988,93.0,93.0,93.0,93.0,21.775778,21.775778,24.740557,24.740557,0.020087339,0.020186761,-5.132528E-4,-5.1114376E-4,1184.7953,0.0,0.0,0.0,0.0,0.0,0.0,0.0,0.0,0.0,0.0,0.0,0.0,0.0,-75.25336,-0.052893445,19.219624,-0.0059621893,-0.0070067476,7.144003E-4,548045.06,119984.9,0.016268395,0.021554401,6714.941,6667.656,5529.1084,5384.609,0.31457996,0.0,0.0,0.0
36.565838,36.565838,0.466,0.0,0.0,280.4028,11511.0,100.0,0.0,0.11662104,0.0,7.0,1.0,0.0,4000000.0,110.0,1.0,0.0,0.0,10.0,0.0,0.0,66.311516,-2.8881562,340.35803,-0.050809283,0.44719386,-0.005844704,286.01614,286.00797,280.28207,280.2344,470.0,471.0,530.0,532.0,93.0,93.0,93.0,93.0,0.0,0.0,0.0,0.0,0.040743534,0.040662516,0.051655326,0.05131404,0.7704645,-1.182854,0.19758938,-1.2275575,-110.89592,-345.91104,-70.44821,-199.58315,0.0,0.0,0.0,2.0,1.0,-1.3215939,-0.011106333,0.0026404858,93.0,93.0,93.0,93.0,21.775778,21.775778,24.740557,24.740557,0.01997989,0.020103268,-5.0953997E-4,-5.093173E-4,1186.7466,0.0,0.0,0.0,0.0,0.0,0.0,0.0,0.0,0.0,0.0,0.0,0.0,0.0,-75.47305,-0.052881267,19.25139,-0.00608616,-0.008035838,8.5000874E-4,547421.6,119984.9,0.016148254,0.021400549,6731.3213,6667.9585,5553.202,5387.381,0.31445503,0.0,0.0,0.0
40.469677,40.469677,0.516,0.0,0.0,281.18665,11542.0,100.0,0.0,0.15281875,0.0,7.0,1.0,0.0,4000000.0,110.0,1.0,0.0,0.0,10.0,0.0,0.0,62.532085,-2.890785,341.3213,-0.0636328,0.4411646,0.00396298,286.77884,286.76733,281.0728,281.0119,468.0,469.0,528.0,530.0,93.0,93.0,93.0,93.0,0.0,0.0,0.0,0.0,0.04093983,0.04078871,0.051735643,0.051343117,3.7966666,1.8900632,1.0804831,-0.049397346,-8.851289,-193.575,-62.696636,-128.45097,0.0,0.0,0.0,2.0,1.0,-1.3220621,-0.0108012855,0.0025980473,93.0,93.0,93.0,93.0,21.775778,21.775778,24.740557,24.740557,0.019827943,0.01998175,-5.071772E-4,-5.0616194E-4,1188.6262,0.0,0.0,0.0,0.0,0.0,0.0,0.0,0.0,0.0,0.0,0.0,0.0,0.0,-75.691414,-0.051508773,19.276247,-0.005314513,-0.010304071,6.391457E-5,546816.06,119984.9,0.015968947,0.021167966,6780.4404,6703.0464,5611.8315,5425.558,0.3142624,0.0,0.0,0.0
44.384407,44.384407,0.566,0.0,0.0,281.95898,11572.0,100.0,0.0,0.15703574,0.0,7.0,1.0,0.0,4000000.0,110.0,1.0,0.0,0.0,10.0,0.0,0.0,58.74179,-2.8932972,342.28564,-0.072871566,0.4346568,9.877525E-4,287.53772,287.5272,281.84763,281.7824,466.0,467.0,526.0,528.0,93.0,93.0,93.0,93.0,0.0,0.0,0.0,0.0,0.041121047,0.04092151,0.051790714,0.05135766,1.3513862,0.9667128,-0.059008595,-0.15735625,-154.97803,-260.20108,-102.96999,-105.34374,0.0,0.0,0.0,2.0,1.0,-1.3226,-0.010472776,0.0025458336,93.0,93.0,93.0,93.0,21.775778,21.775778,24.740557,24.740557,0.019719439,0.019886758,-5.0422514E-4,-5.042049E-4,1190.3993,0.0,0.0,0.0,0.0,0.0,0.0,0.0,0.0,0.0,0.0,0.0,0.0,0.0,-75.90782,-0.049307667,19.295757,-0.006185037,-0.010967144,5.6481396E-4,546212.0,119984.9,0.015847806,0.020966,6799.9097,6712.7305,5634.4404,5433.3643,0.31411362,0.0,0.0,0.0
47.00021,47.00021,0.616,0.0,0.0,282.46826,11592.0,100.0,0.0,0.16738814,0.0,7.0,1.0,0.0,4000000.0,110.0,1.0,0.0,0.0,10.0,0.0,0.0,56.20894,-2.894932,342.92905,-0.07767041,0.43135953,0.008670068,288.0345,288.01398,282.35748,282.29144,465.0,465.0,525.0,527.0,93.0,93.0,93.0,93.0,0.0,0.0,0.0,0.0,0.041236922,0.04101116,0.051837794,0.051377725,0.0,0.0,0.0,0.0,-46.952057,220.14227,17.514824,126.84165,0.0,0.0,0.0,2.0,1.0,-1.3229666,-0.010226954,0.0025236607,93.0,93.0,93.0,93.0,21.775778,21.775778,24.740557,24.740557,0.019643035,0.019776495,-5.034325E-4,-5.017786E-4,1191.6024,0.0,0.0,0.0,0.0,0.0,0.0,0.0,0.0,0.0,0.0,0.0,0.0,0.0,-76.0511,-0.047995277,19.306301,-0.0072188107,-0.011162659,9.073013E-4,545820.7,119984.9,0.015642945,0.020725248,6821.8516,6757.1465,5678.1367,5471.392,0.31401253,0.0,0.0,0.0
52.24597,52.24597,0.666,0.0,0.0,283.47128,11632.0,100.0,0.0,0.09348055,0.0,7.0,1.0,0.0,4000000.0,110.0,1.0,0.0,0.0,10.0,0.0,0.0,51.12901,-2.8981001,344.2168,-0.07534305,0.4225876,-0.0012083591,289.02008,289.01553,283.35614,283.29977,462.0,463.0,523.0,524.0,93.0,93.0,93.0,93.0,0.0,0.0,0.0,0.0,0.041377775,0.041144934,0.051873967,0.051412888,0.21010636,1.4197825,-0.76599413,0.31895933,-191.12079,-216.1726,-130.77109,-89.23708,0.0,0.0,0.0,2.0,1.0,-1.323676,-0.009737139,0.0024650097,93.0,93.0,93.0,93.0,21.775778,21.775778,24.740557,24.740557,0.019525826,0.019679058,-4.956228E-4,-5.030512E-4,1193.9832,0.0,0.0,0.0,0.0,0.0,0.0,0.0,0.0,0.0,0.0,0.0,0.0,0.0,-76.33388,-0.046881285,19.324678,-0.008152725,-0.009149438,0.0011523191,545030.5,119984.9,0.015600703,0.020611146,6838.502,6747.5327,5681.982,5472.5244,0.31378555,0.0,0.0,0.0
56.192482,56.192482,0.716,0.0,0.0,284.2117,11661.0,100.0,0.0,-0.07637,0.0,7.0,1.0,0.0,4000000.0,110.0,1.0,0.0,0.0,10.0,0.0,0.0,47.306854,-2.900392,345.18362,-0.043495193,0.4165567,1.6638078E-4,289.73672,289.7479,284.07025,284.0673,460.0,461.0,521.0,522.0,93.0,93.0,93.0,93.0,0.0,0.0,0.0,0.0,0.04143182,0.041389342,0.05184482,0.05152399,-1.6477703,4.224926,-2.5966017,2.0686536,-206.03386,-211.59944,-171.43336,-100.341415,0.0,0.0,0.0,2.0,1.0,-1.3238912,-0.009131758,0.0024160147,93.0,93.0,93.0,93.0,21.775778,21.775778,24.740557,24.740557,0.019483732,0.019511152,-4.8879196E-4,-5.0464395E-4,1195.694,0.0,0.0,0.0,0.0,0.0,0.0,0.0,0.0,0.0,0.0,0.0,0.0,0.0,-76.53968,-0.045024388,19.34976,-0.011877812,2.8363388E-4,0.0018740315,544454.06,119984.91,0.015492103,0.020408945,6834.1934,6798.5854,5670.2397,5535.425,0.3136196,0.0,0.0,0.0
60.139656,60.139656,0.766,0.0,0.0,283.4427,11211.0,100.0,0.0,-0.19658397,0.0,7.0,1.0,0.0,4000000.0,110.0,1.0,0.0,0.0,10.0,0.0,0.0,43.483917,-2.901787,346.1498,0.001836434,-0.579494,0.07771068,283.41574,283.44522,283.41876,283.47293,458.0,459.0,519.0,520.0,93.0,93.0,93.0,93.0,0.0,0.0,0.0,0.0,0.0388148,0.038980167,0.052371524,0.05223196,-71.90823,-66.87417,14.812051,19.441767,-694.0752,-724.4375,24.783552,67.6855,0.0,0.0,0.0,2.0,1.0,-1.3236195,-0.008481404,0.0038821697,93.0,93.0,93.0,93.0,21.775778,21.775778,24.740557,24.740557,2.309028E-5,-6.135263E-5,1.0026136E-5,-7.9624164E-7,1161.0125,0.0,0.0,0.0,0.0,0.0,0.0,0.0,0.0,0.0,0.0,0.0,0.0,0.0,-76.33408,-0.00877405,19.291527,-0.002641934,0.009371712,0.039840005,549882.06,0.0,0.014544511,0.023249464,6560.648,6595.34,6242.4756,6189.0693,0.3142891,0.0,0.0,0.0
62.762787,62.762787,0.816,0.0,0.0,283.2291,10930.0,100.0,0.0,-0.12432606,0.0,8.0,1.0,0.0,4000000.0,110.0,1.0,0.0,0.0,10.0,0.0,0.0,40.94129,-2.9019072,346.79254,0.02125,0.042832166,-0.027153086,288.3649,288.38513,283.07855,283.1467,457.0,457.0,517.0,519.0,93.0,93.0,93.0,93.0,0.0,0.0,0.0,0.0,0.03737564,0.037678376,0.052443735,0.05240562,0.0,0.0,0.0,0.0,2019.113,2174.4263,-861.5791,-822.5932,0.0,0.0,0.0,2.0,1.0,-1.3232412,-0.008040566,0.0043632984,93.0,93.0,93.0,93.0,21.775778,21.775778,24.740557,24.740557,0.016011884,0.015873246,-3.4217304E-4,-3.3781925E-4,1128.9609,0.0,0.0,0.0,0.0,0.0,0.0,0.0,0.0,0.0,0.0,0.0,0.0,0.0,-76.275024,-0.0062392624,19.283064,-0.014515962,0.011558666,-0.008594842,548448.4,119984.89,0.015109918,0.025077287,6349.496,6439.6924,6062.6826,6057.249,0.31546688,0.0,0.0,0.0
66.70048,66.70048,0.866,0.0,0.0,284.05023,10584.0,100.0,0.0,-0.08806124,0.0,8.0,1.0,0.0,4000000.0,110.0,1.0,0.0,0.0,10.0,0.0,0.0,37.122086,-2.9038475,347.75858,0.045714594,0.49042577,-0.113858506,290.09396,290.08936,283.8599,283.92572,455.0,455.0,516.0,517.0,93.0,93.0,93.0,93.0,0.0,0.0,0.0,0.0,0.039027628,0.03950989,0.051435024,0.05152083,0.0,0.0,0.0,0.0,474.72424,551.8778,483.4681,459.5428,0.0,0.0,0.0,2.0,1.0,-1.3226298,-0.00747642,0.0028636456,93.0,93.0,93.0,93.0,21.775778,21.775778,24.740557,24.740557,0.021452002,0.02123021,-5.442529E-4,-5.325271E-4,1081.1954,0.0,0.0,0.0,0.0,0.0,0.0,0.0,0.0,0.0,0.0,0.0,0.0,0.0,-76.49106,-0.0679114,19.359041,-0.016246127,0.010876987,-0.021295583,542414.6,119984.89,0.016795816,0.022940068,6625.716,6740.015,5265.7783,5310.7734,0.3154831,0.0,0.0,0.0
71.96929,71.96929,0.916,0.0,0.0,285.1753,10271.0,100.0,0.0,0.06597246,0.0,8.0,1.0,0.0,4000000.0,110.0,1.0,0.0,0.0,10.0,0.0,0.0,32.01218,-2.9090207,349.05276,0.029180676,0.44638628,0.059720386,290.55734,290.5311,285.03232,285.0329,452.0,453.0,513.0,515.0,93.0,93.0,93.0,93.0,0.0,0.0,0.0,0.0,0.041772958,0.04217936,0.05169492,0.05173576,29.556152,30.61473,7.100701,7.611885,-776.47266,-485.77487,-190.57092,29.437235,0.0,0.0,0.0,2.0,1.0,-1.3223118,-0.0070823785,0.0021650791,93.0,93.0,93.0,93.0,21.775778,21.775778,24.740557,24.740557,0.019168362,0.01907901,-5.119929E-4,-4.9902656E-4,1024.5588,0.0,0.0,0.0,0.0,0.0,0.0,0.0,0.0,0.0,0.0,0.0,0.0,0.0,-76.78815,-0.06787487,19.458921,-0.0057557956,-4.6747163E-4,-0.003745289,529664.9,119984.91,0.015045161,0.019460613,6942.853,7026.126,5696.215,5721.1826,0.31291103,0.0,0.0,0.0
75.93327,75.93327,0.966,0.0,0.0,285.85666,10293.0,100.0,0.0,0.4192834,0.0,8.0,1.0,0.0,4000000.0,110.0,1.0,0.0,0.0,10.0,0.0,0.0,28.16784,-2.9114714,350.02676,-0.05068805,0.38099313,0.058737203,291.2022,291.14096,285.7746,285.66095,450.0,451.0,511.0,513.0,93.0,93.0,93.0,93.0,0.0,0.0,0.0,0.0,0.042578023,0.0425654,0.05205432,0.051777072,6.450936,-2.0065157,4.9448757,-2.2959707,-726.7981,-557.08136,-242.83377,-175.1214,0.0,0.0,0.0,2.0,1.0,-1.322865,-0.0071678734,0.0020729303,93.0,93.0,93.0,93.0,21.775778,21.775778,24.740557,24.740557,0.018525623,0.018695656,-4.9485004E-4,-4.6551833E-4,1028.8743,0.0,0.0,0.0,0.0,0.0,0.0,0.0,0.0,0.0,0.0,0.0,0.0,0.0,-76.975044,-0.033769306,19.491938,0.0035899323,-0.020586314,-0.0015172965,530758.94,119984.914,0.01452565,0.018776452,7009.779,6974.722,5842.343,5700.171,0.3123083,0.0,0.0,0.0
78.58115,78.58115,1.016,0.0,0.0,286.30438,10310.0,100.0,0.0,0.45505556,0.0,8.0,1.0,0.0,4000000.0,110.0,1.0,0.0,0.0,10.0,0.0,0.0,25.599705,-2.9124248,350.67642,-0.09792917,0.37973142,0.019490873,291.68423,291.61456,286.24863,286.0823,449.0,449.0,510.0,512.0,93.0,93.0,93.0,93.0,0.0,0.0,0.0,0.0,0.04258106,0.042258617,0.052129827,0.051611643,0.0,0.0,0.0,0.0,-152.7652,-138.40198,26.232002,26.72819,0.0,0.0,0.0,2.0,1.0,-1.3237234,-0.0072226697,0.0021049976,93.0,93.0,93.0,93.0,21.775778,21.775778,24.740557,24.740557,0.018534936,0.018847521,-4.8747793E-4,-4.7160775E-4,1032.1904,0.0,0.0,0.0,0.0,0.0,0.0,0.0,0.0,0.0,0.0,0.0,0.0,0.0,-77.10268,-0.025451897,19.494543,-0.0010741435,-0.02898115,0.0022007264,531591.7,119984.9,0.014693761,0.018997975,7006.159,6866.4233,5840.332,5582.698,0.31256676,0.0,0.0,0.0
82.5608,82.5608,1.066,0.0,0.0,286.9712,10335.0,100.0,0.0,0.2610009,0.0,8.0,1.0,0.0,4000000.0,110.0,1.0,0.0,0.0,10.0,0.0,0.0,21.739449,-2.9137716,351.6508,-0.1336824,0.3774207,-0.011038062,292.37344,292.3274,286.91116,286.75278,447.0,448.0,508.0,510.0,93.0,93.0,93.0,93.0,0.0,0.0,0.0,0.0,0.042259395,0.041722346,0.052156337,0.051464207,0.0,0.0,0.0,0.0,213.3429,178.88991,151.58502,104.51227,0.0,0.0,0.0,2.0,1.0,-1.3251671,-0.0070805564,0.0022131205,93.0,93.0,93.0,93.0,21.775778,21.775778,24.740557,24.740557,0.018613731,0.01894655,-4.715656E-4,-4.8652946E-4,1037.0723,0.0,0.0,0.0,0.0,0.0,0.0,0.0,0.0,0.0,0.0,0.0,0.0,0.0,-77.29732,-0.02968977,19.480257,-0.005340011,-0.02623007,0.0034361444,532813.9,119984.9,0.014978567,0.019611413,6973.8184,6783.1445,5850.9995,5522.8003,0.31299973,0.0,0.0,0.0
87.88159,87.88159,1.116,0.0,0.0,287.85254,10366.0,100.0,0.0,0.15459768,0.0,8.0,1.0,0.0,4000000.0,110.0,1.0,0.0,0.0,10.0,0.0,0.0,16.57727,-2.9160478,352.94855,-0.13706174,0.37292248,-0.0032856427,293.23645,293.228,287.75616,287.6697,444.0,445.0,506.0,507.0,93.0,93.0,93.0,93.0,0.0,0.0,0.0,0.0,0.042140633,0.04155669,0.052224085,0.05149177,1.2742727,1.5950202,1.8268077,1.2926011,-17.742811,202.47993,-12.177228,58.230747,0.0,0.0,0.0,2.0,1.0,-1.3264452,-0.0065866434,0.0022457838,93.0,93.0,93.0,93.0,21.775778,21.775778,24.740557,24.740557,0.01861184,0.018838873,-4.740168E-4,-4.8171723E-4,1043.187,0.0,0.0,0.0,0.0,0.0,0.0,0.0,0.0,0.0,0.0,0.0,0.0,0.0,-77.55688,-0.03667271,19.451933,-0.009651294,-0.014138658,0.0014266651,534352.7,119984.91,0.014874326,0.019712588,6984.8857,6829.8066,5902.622,5568.138,0.3128357,0.0,0.0,0.0
91.88299,91.88299,1.166,0.0,0.0,288.50784,10389.0,100.0,0.0,0.2035199,0.0,8.0,1.0,0.0,4000000.0,110.0,1.0,0.0,0.0,10.0,0.0,0.0,12.694335,-2.917909,353.9206,-0.1304208,0.3700778,0.004085459,293.87875,293.87762,288.4058,288.33026,442.0,443.0,504.0,505.0,93.0,93.0,93.0,93.0,0.0,0.0,0.0,0.0,0.042351834,0.041768067,0.052259237,0.05155563,5.4113564,4.474595,1.5905498,0.8232146,-52.906548,19.714249,10.125339,-18.104906,0.0,0.0,0.0,2.0,1.0,-1.3270886,-0.0061636707,0.0021768808,93.0,93.0,93.0,93.0,21.775778,21.775778,24.740557,24.740557,0.01853386,0.018764498,-4.7925045E-4,-4.752729E-4,1047.7079,0.0,0.0,0.0,0.0,0.0,0.0,0.0,0.0,0.0,0.0,0.0,0.0,0.0,-77.749374,-0.036633883,19.432537,-0.010184395,-0.012769658,7.036418E-4,535480.25,119984.91,0.014662453,0.01935835,7025.64,6873.722,5924.1357,5601.425,0.3125496,0.0,0.0,0.0
95.89357,95.89357,1.216,0.0,0.0,289.15833,10412.0,100.0,0.0,0.20183308,0.0,8.0,1.0,0.0,4000000.0,110.0,1.0,0.0,0.0,10.0,0.0,0.0,8.801838,-2.9196851,354.89178,-0.12158639,0.36748114,0.01158786,294.5206,294.51822,289.0586,288.9785,441.0,441.0,502.0,504.0,93.0,93.0,93.0,93.0,0.0,0.0,0.0,0.0,0.04259613,0.04205123,0.052283708,0.051621363,6.7732477,5.194768,1.7199664,0.93184406,45.95964,-0.10728835,58.405094,-13.813372,0.0,0.0,0.0,2.0,1.0,-1.327751,-0.0057354164,0.002095461,93.0,93.0,93.0,93.0,21.775778,21.775778,24.740557,24.740557,0.01845229,0.018695043,-4.7791278E-4,-4.7568834E-4,1052.2219,0.0,0.0,0.0,0.0,0.0,0.0,0.0,0.0,0.0,0.0,0.0,0.0,0.0,-77.93957,-0.03346395,19.416685,-0.010015509,-0.013505833,8.939499E-4,536599.44,119984.9,0.014490301,0.018995345,7067.224,6919.8447,5945.9507,5641.659,0.3123312,0.0,0.0,0.0
98.572365,98.572365,1.266,0.0,0.0,289.58902,10427.0,100.0,0.0,0.15023592,0.0,8.0,1.0,0.0,4000000.0,110.0,1.0,0.0,0.0,10.0,0.0,0.0,6.201591,-2.9207654,355.53888,-0.111495584,0.36576515,0.005655595,294.95142,294.95416,289.4853,289.41315,439.0,440.0,501.0,502.0,93.0,93.0,93.0,93.0,0.0,0.0,0.0,0.0,0.042649034,0.04222281,0.05225929,0.051668618,0.0,0.0,0.0,0.0,123.09997,-106.69824,12.861192,21.015106,0.0,0.0,0.0,2.0,1.0,-1.3281754,-0.005418285,0.0020524263,93.0,93.0,93.0,93.0,21.775778,21.775778,24.740557,24.740557,0.018446906,0.018670714,-4.7449538E-4,-4.7824203E-4,1055.2229,0.0,0.0,0.0,0.0,0.0,0.0,0.0,0.0,0.0,0.0,0.0,0.0,0.0,-78.06465,-0.03161689,19.409454,-0.008695708,-0.011925707,0.0012069312,537355.7,119984.9,0.014450981,0.018857552,7068.536,6930.996,5923.718,5658.259,0.3123827,0.0,0.0,0.0
103.94197,103.94197,1.316,0.0,0.0,290.4436,10458.0,100.0,0.0,0.1525634,0.0,8.0,1.0,0.0,4000000.0,110.0,1.0,0.0,0.0,10.0,0.0,0.0,0.9887059,-2.9227982,356.8325,-0.09888642,0.36173183,0.0023516312,295.80942,295.81744,290.33218,290.2754,437.0,437.0,498.0,500.0,93.0,93.0,93.0,93.0,0.0,0.0,0.0,0.0,0.04276323,0.04239643,0.05226206,0.05172964,3.8181243,0.7107853,1.2635438,0.028163193,182.43042,-155.67538,133.68127,-104.87436,0.0,0.0,0.0,2.0,1.0,-1.3288401,-0.0048126015,0.0020077229,93.0,93.0,93.0,93.0,21.775778,21.775778,24.740557,24.740557,0.018425122,0.018624324,-4.7655636E-4,-4.7362133E-4,1061.3177,0.0,0.0,0.0,0.0,0.0,0.0,0.0,0.0,0.0,0.0,0.0,0.0,0.0,-78.31106,-0.02991694,19.402117,-0.007785455,-0.009607807,0.0013795259,538857.3,119984.91,0.014324035,0.018663341,7076.494,6955.1016,5938.172,5688.972,0.31215286,0.0,0.0,0.0
107.97964,107.97964,1.366,0.0,0.0,291.07886,10480.0,100.0,0.0,0.19264859,0.0,8.0,1.0,0.0,4000000.0,110.0,1.0,0.0,0.0,10.0,0.0,0.0,-2.931675,-2.9242964,357.80258,-0.09807004,0.35900643,0.0022200942,296.4487,296.45038,290.9727,290.90518,435.0,435.0,496.0,498.0,93.0,93.0,93.0,93.0,0.0,0.0,0.0,0.0,0.04286892,0.042510904,0.052287128,0.051762853,4.485547,1.5883147,1.2959539,0.18171965,193.06537,-139.6626,119.84108,-89.102974,0.0,0.0,0.0,2.0,1.0,-1.3293673,-0.004429167,0.001970768,93.0,93.0,93.0,93.0,21.775778,21.775778,24.740557,24.740557,0.018380815,0.018594753,-4.775927E-4,-4.716639E-4,1065.7412,0.0,0.0,0.0,0.0,0.0,0.0,0.0,0.0,0.0,0.0,0.0,0.0,0.0,-78.493866,-0.029736733,19.397978,-0.007079705,-0.01156543,8.735734E-4,539967.3,119984.9,0.014210141,0.018490558,7094.6772,6975.3477,5956.424,5710.435,0.31203365,0.0,0.0,0.0
112.02615,112.02615,1.416,0.0,0.0,291.70914,10502.0,100.0,0.0,0.19848871,0.0,8.0,1.0,0.0,4000000.0,110.0,1.0,0.0,0.0,10.0,0.0,0.0,-6.861176,-2.925759,358.77225,-0.10248366,0.35605332,0.0042925053,297.0804,297.0762,291.60995,291.52814,433.0,433.0,495.0,496.0,93.0,93.0,93.0,93.0,0.0,0.0,0.0,0.0,0.043038443,0.04265909,0.052331332,0.051786546,4.8780437,2.1598487,1.2677907,0.16629694,153.6369,-180.27124,75.07502,-70.917595,0.0,0.0,0.0,2.0,1.0,-1.3300233,-0.0040757847,0.0019208193,93.0,93.0,93.0,93.0,21.775778,21.775778,24.740557,24.740557,0.01832377,0.018561805,-4.748029E-4,-4.7283733E-4,1069.9971,0.0,0.0,0.0,0.0,0.0,0.0,0.0,0.0,0.0,0.0,0.0,0.0,0.0,-78.675865,-0.028491776,19.391214,-0.0068006106,-0.013859758,5.393069E-4,540987.94,119984.9,0.0140922265,0.018280456,7122.4443,6994.712,5983.366,5727.0166,0.31190014,0.0,0.0,0.0
114.72874,114.72874,1.466,0.0,0.0,292.12634,10517.0,100.0,0.0,0.21950297,0.0,8.0,1.0,0.0,4000000.0,110.0,1.0,0.0,0.0,10.0,0.0,0.0,-9.485889,-2.9266984,359.41858,-0.10786577,0.35416815,0.0010752633,297.49832,297.48438,292.0296,291.943,432.0,432.0,493.0,495.0,93.0,93.0,93.0,93.0,0.0,0.0,0.0,0.0,0.04312217,0.042762753,0.05235036,0.05179176,0.0,0.0,0.0,0.0,-173.09634,199.83795,-78.9374,63.139194,0.0,0.0,0.0,2.0,1.0,-1.3305019,-0.0038142588,0.0018885136,93.0,93.0,93.0,93.0,21.775778,21.775778,24.740557,24.740557,0.018302092,0.018506365,-4.7508185E-4,-4.7187257E-4,1072.03,0.0,0.0,0.0,0.0,0.0,0.0,0.0,0.0,0.0,0.0,0.0,0.0,0.0,-78.79679,-0.028023256,19.384848,-0.006895537,-0.014706489,9.4885536E-4,541242.75,119984.9,0.014033534,0.018147236,7120.8374,7024.784,5981.8555,5733.138,0.31172943,0.0,0.0,0.0
118.7899,118.7899,1.516,0.0,0.0,292.74673,10539.0,100.0,0.0,0.16743608,0.0,8.0,1.0,0.0,4000000.0,110.0,1.0,0.0,0.0,10.0,0.0,0.0,-13.430492,-2.9280708,360.38754,-0.10660038,0.3504103,1.3901156E-4,298.11316,298.0972,292.64703,292.5663,430.0,430.0,492.0,493.0,93.0,93.0,93.0,93.0,0.0,0.0,0.0,0.0,0.043265328,0.042875897,0.05238855,0.051805634,0.0,0.0,0.0,0.0,-225.10437,222.67697,-79.178795,57.828415,0.0,0.0,0.0,2.0,1.0,-1.3312147,-0.0034382632,0.001850009,93.0,93.0,93.0,93.0,21.775778,21.775778,24.740557,24.740557,0.018255517,0.01843653,-4.7123106E-4,-4.7369898E-4,1075.0239,0.0,0.0,0.0,0.0,0.0,0.0,0.0,0.0,0.0,0.0,0.0,0.0,0.0,-78.976906,-0.02728875,19.374023,-0.008979251,-0.013451897,0.0016366434,541621.3,119984.91,0.013939256,0.01796061,7135.2925,7042.8,6005.2983,5744.0835,0.3115549,0.0,0.0,0.0
124.218185,124.218185,1.566,0.0,0.0,293.56393,10567.0,100.0,0.0,0.04229265,0.0,8.0,1.0,0.0,4000000.0,110.0,1.0,0.0,0.0,10.0,0.0,0.0,-18.70382,-2.929847,361.6788,-0.08270715,0.34548074,0.004883677,298.90854,298.91824,293.44348,293.4049,427.0,428.0,489.0,491.0,93.0,93.0,93.0,93.0,0.0,0.0,0.0,0.0,0.043368407,0.043144327,0.052365236,0.05192326,1.0002403,6.32666,-1.4244764,3.6828961,29.209251,117.81603,-71.73567,181.51846,0.0,0.0,0.0,2.0,1.0,-1.3318585,-0.0027821157,0.0017974377,93.0,93.0,93.0,93.0,21.775778,21.775778,24.740557,24.740557,0.018194418,0.018324547,-4.6598588E-4,-4.7518063E-4,1078.8723,0.0,0.0,0.0,0.0,0.0,0.0,0.0,0.0,0.0,0.0,0.0,0.0,0.0,-79.21194,-0.025958609,19.368612,-0.009152189,-0.0060105314,0.0014041215,542119.9,119984.91,0.013732279,0.017697083,7160.6816,7079.818,6005.63,5823.0576,0.31147766,0.0,0.0,0.0
128.29936,128.29936,1.616,0.0,0.0,294.16956,10588.0,100.0,0.0,-0.08101762,0.0,8.0,1.0,0.0,4000000.0,110.0,1.0,0.0,0.0,10.0,0.0,0.0,-22.668938,-2.9311364,362.64746,-0.04478191,0.34203804,0.002740137,299.50607,299.5215,294.0271,294.0328,425.0,426.0,487.0,489.0,93.0,93.0,93.0,93.0,0.0,0.0,0.0,0.0,0.04340791,0.043360945,0.05231911,0.052021347,-0.80220395,7.4583287,-1.9240378,3.8865206,-80.60037,254.07222,-76.885506,176.26135,0.0,0.0,0.0,2.0,1.0,-1.3319628,-0.0022078329,0.0017652512,93.0,93.0,93.0,93.0,21.775778,21.775778,24.740557,24.740557,0.018200366,0.018207429,-4.6304337E-4,-4.763595E-4,1081.7548,0.0,0.0,0.0,0.0,0.0,0.0,0.0,0.0,0.0,0.0,0.0,0.0,0.0,-79.382195,-0.025584185,19.380568,-0.011579944,0.0016692353,0.002241788,542490.2,119984.92,0.01359157,0.017499568,7146.675,7129.371,5985.0117,5870.9805,0.3112831,0.0,0.0,0.0
131.02484,131.02484,1.666,0.0,0.0,294.5698,10603.0,100.0,0.0,-0.11532023,0.0,8.0,1.0,0.0,4000000.0,110.0,1.0,0.0,0.0,10.0,0.0,0.0,-25.317005,-2.931987,363.2938,-0.019134358,0.33946133,-0.0021854918,299.90506,299.9231,294.4136,294.44687,424.0,424.0,486.0,488.0,93.0,93.0,93.0,93.0,0.0,0.0,0.0,0.0,0.04342311,0.04347048,0.052279484,0.052085076,0.0,0.0,0.0,0.0,-20.30432,-46.053524,4.921853,-57.385857,0.0,0.0,0.0,2.0,1.0,-1.3318185,-0.0018061021,0.0017421246,93.0,93.0,93.0,93.0,21.775778,21.775778,24.740557,24.740557,0.018203786,0.018157478,-4.64831E-4,-4.7266867E-4,1083.7803,0.0,0.0,0.0,0.0,0.0,0.0,0.0,0.0,0.0,0.0,0.0,0.0,0.0,-79.49217,-0.025860943,19.398859,-0.012863387,0.0060736667,0.0025129379,542737.06,119984.9,0.013559942,0.017419359,7138.132,7141.289,5968.613,5886.806,0.31104088,0.0,0.0,0.0
135.11995,135.11995,1.716,0.0,0.0,295.16528,10623.0,100.0,0.0,-0.14356892,0.0,8.0,1.0,0.0,4000000.0,110.0,1.0,0.0,0.0,10.0,0.0,0.0,-29.295868,-2.9332254,364.26474,0.017167702,0.33560917,0.0037790823,300.49115,300.50552,294.9998,295.0515,422.0,423.0,484.0,486.0,93.0,93.0,93.0,93.0,0.0,0.0,0.0,0.0,0.043513607,0.04374112,0.052253548,0.052202236,0.0,0.0,0.0,0.0,-125.52735,-61.71761,-148.68825,-85.388115,0.0,0.0,0.0,2.0,1.0,-1.3314251,-0.0011622901,0.0016909838,93.0,93.0,93.0,93.0,21.775778,21.775778,24.740557,24.740557,0.018162642,0.018046517,-4.6497412E-4,-4.704115E-4,1086.5457,0.0,0.0,0.0,0.0,0.0,0.0,0.0,0.0,0.0,0.0,0.0,0.0,0.0,-79.65233,-0.023517262,19.440283,-0.015076881,0.009040518,0.0022067367,543097.5,119984.9,0.013433346,0.017189384,7143.7324,7194.958,5963.374,5949.3076,0.31090927,0.0,0.0,0.0
140.5929,140.5929,1.766,0.0,0.0,295.94968,10651.0,100.0,0.0,-0.10634524,0.0,8.0,1.0,0.0,4000000.0,110.0,1.0,0.0,0.0,10.0,0.0,0.0,-34.6132,-2.934794,365.56335,0.04642521,0.33194223,-0.0037505708,301.2783,301.27237,295.7813,295.8388,420.0,420.0,482.0,483.0,93.0,93.0,93.0,93.0,0.0,0.0,0.0,0.0,0.043490622,0.04401652,0.052181613,0.052297305,1.605749,2.0898876,0.8133798,-0.725761,158.46489,72.929245,96.224236,-89.06274,0.0,0.0,0.0,2.0,1.0,-1.3307577,-4.836668E-4,0.0016417503,93.0,93.0,93.0,93.0,21.775778,21.775778,24.740557,24.740557,0.018131793,0.017944248,-4.6940605E-4,-4.6411002E-4,1090.3708,0.0,0.0,0.0,0.0,0.0,0.0,0.0,0.0,0.0,0.0,0.0,0.0,0.0,-79.85792,-0.02439094,19.516851,-0.007333886,0.009489786,0.0014121339,543576.75,119984.89,0.013311678,0.016906789,7137.3447,7247.039,5940.6523,5986.0674,0.31066036,0.0,0.0,0.0
144.70703,144.70703,1.816,0.0,0.0,296.53098,10671.0,100.0,0.0,-0.112079725,0.0,8.0,1.0,0.0,4000000.0,110.0,1.0,0.0,0.0,10.0,0.0,0.0,-38.610073,-2.9359753,366.54086,0.056847535,0.32830238,-0.0011181235,301.85614,301.84076,296.36813,296.41452,418.0,418.0,480.0,482.0,93.0,93.0,93.0,93.0,0.0,0.0,0.0,0.0,0.043641947,0.04416046,0.052202944,0.05234527,3.3715365,2.2210925,-0.14148651,-0.17255543,-6.4238973,38.14101,-34.72119,-51.645927,0.0,0.0,0.0,2.0,1.0,-1.3303318,-9.015511E-5,0.0015933514,93.0,93.0,93.0,93.0,21.775778,21.775778,24.740557,24.740557,0.01806504,0.01788447,-4.6647352E-4,-4.652276E-4,1093.1289,0.0,0.0,0.0,0.0,0.0,0.0,0.0,0.0,0.0,0.0,0.0,0.0,0.0,-80.00845,-0.023585657,19.581036,-0.009907832,0.0077257976,0.0016230115,543930.3,119984.9,0.013197041,0.016689008,7158.793,7270.7417,5951.37,6016.361,0.3105135,0.0,0.0,0.0
148.82921,148.82921,1.866,0.0,0.0,297.10504,10692.0,100.0,0.0,-0.092906184,0.0,8.0,1.0,0.0,4000000.0,110.0,1.0,0.0,0.0,10.0,0.0,0.0,-42.614433,-2.937293,367.52167,0.05540593,0.32335502,-0.01082057,302.4432,302.44983,296.94522,296.9873,416.0,416.0,478.0,480.0,93.0,93.0,93.0,93.0,0.0,0.0,0.0,0.0,0.04386715,0.044005655,0.052107997,0.052440993,4.308298,-8.692144,3.785267,-1.021698,-145.68417,-173.6864,173.69983,-182.25607,0.0,0.0,0.0,2.0,1.0,-1.3299612,-2.1587037E-4,0.0017428398,93.0,93.0,93.0,93.0,21.775778,21.775778,24.740557,24.740557,0.018033508,0.017970467,-4.6395385E-4,-4.6280227E-4,1096.0221,0.0,0.0,0.0,0.0,0.0,0.0,0.0,0.0,0.0,0.0,0.0,0.0,0.0,-80.15679,-0.028734878,19.645704,0.0035943475,0.006976242,0.0017874595,544298.8,119984.9,0.013247681,0.016856523,7167.8467,7185.7007,5931.175,6069.09,0.3101921,0.0,0.0,0.0
151.58171,151.58171,1.916,0.0,0.0,297.48508,10705.0,100.0,0.0,-0.1203147,0.0,8.0,1.0,0.0,4000000.0,110.0,1.0,0.0,0.0,10.0,0.0,0.0,-45.288094,-2.938369,368.17737,0.058067895,0.32255587,-0.0128933275,302.79153,302.83295,297.32333,297.36874,415.0,415.0,477.0,479.0,93.0,93.0,93.0,93.0,0.0,0.0,0.0,0.0,0.043854628,0.04395194,0.052047346,0.052516248,0.0,0.0,0.0,0.0,708.6798,-180.8211,201.17906,62.803917,0.0,0.0,0.0,2.0,1.0,-1.3297186,-5.4738286E-4,0.001804471,93.0,93.0,93.0,93.0,21.775778,21.775778,24.740557,24.740557,0.017949529,0.01794612,-4.6089073E-4,-4.6548227E-4,1097.81,0.0,0.0,0.0,0.0,0.0,0.0,0.0,0.0,0.0,0.0,0.0,0.0,0.0,-80.25469,-0.034622498,19.689678,0.0152285565,0.00784098,-0.0019880298,544524.6,119984.9,0.013276036,0.016830541,7219.753,7196.732,5902.3413,6104.5483,0.3098507,0.0,0.0,0.0
157.09718,157.09718,1.966,0.0,0.0,298.23593,10731.0,100.0,0.0,0.1153003,0.0,8.0,1.0,0.0,4000000.0,110.0,1.0,0.0,0.0,10.0,0.0,0.0,-50.645218,-2.9404519,369.4928,0.02518735,0.31580484,0.015198585,303.5013,303.5633,298.09482,298.10013,412.0,413.0,475.0,476.0,93.0,93.0,93.0,93.0,0.0,0.0,0.0,0.0,0.04487336,0.044006705,0.05209753,0.052609354,19.322632,-5.873143,2.239868,0.8594244,-47.94456,-690.4139,717.53107,-312.86624,0.0,0.0,0.0,2.0,1.0,-1.3293926,-9.257942E-4,0.0018470287,93.0,93.0,93.0,93.0,21.775778,21.775778,24.740557,24.740557,0.017680505,0.01788877,-4.689736E-4,-4.5312525E-4,1101.3744,0.0,0.0,0.0,0.0,0.0,0.0,0.0,0.0,0.0,0.0,0.0,0.0,0.0,-80.45079,-0.027833533,19.765732,0.009460124,1.8254545E-4,0.001599164,544969.0,119984.9,0.0132964095,0.016377226,7370.4883,7201.2725,5945.0107,6161.458,0.3089037,0.0,0.0,0.0
161.24278,161.24278,2.016,0.0,0.0,298.7896,10750.0,100.0,0.0,0.22626615,0.0,8.0,1.0,0.0,4000000.0,110.0,1.0,0.0,0.0,10.0,0.0,0.0,-54.671658,-2.9419847,370.48215,-0.012260206,0.314507,0.009660923,304.09546,304.06235,298.6795,298.6189,410.0,411.0,473.0,475.0,93.0,93.0,93.0,93.0,0.0,0.0,0.0,0.0,0.044380758,0.044171054,0.052577563,0.052307185,6.7061925,9.974017,4.7481804,-6.0425696,975.6131,380.53833,-805.95,190.65138,0.0,0.0,0.0,2.0,1.0,-1.3297057,-0.0015722123,0.0015622377,93.0,93.0,93.0,93.0,21.775778,21.775778,24.740557,24.740557,0.017699812,0.017808743,-4.696237E-4,-4.5269332E-4,1104.0073,0.0,0.0,0.0,0.0,0.0,0.0,0.0,0.0,0.0,0.0,0.0,0.0,0.0,-80.59991,-0.02988532,19.803406,-0.0011495936,-0.011093938,-0.010829319,545306.25,119984.9,0.013028096,0.016529977,7320.2314,7286.709,6154.861,6019.01,0.3082409,0.0,0.0,0.0
165.39613,165.39613,2.066,0.0,0.0,299.3415,10769.0,100.0,0.0,0.23436645,0.0,8.0,1.0,0.0,4000000.0,110.0,1.0,0.0,0.0,10.0,0.0,0.0,-58.705696,-2.9433281,371.47287,-0.05184015,0.30987185,0.038173016,304.64023,304.57074,299.2503,299.1537,409.0,409.0,471.0,473.0,93.0,93.0,93.0,93.0,0.0,0.0,0.0,0.0,0.044908173,0.04485195,0.0526779,0.052275706,2.3087113,15.150456,1.8391012,3.3990293,-1166.184,90.98052,-402.66656,298.46277,0.0,0.0,0.0,2.0,1.0,-1.3304349,-0.0011709481,0.0012995005,93.0,93.0,93.0,93.0,21.775778,21.775778,24.740557,24.740557,0.017587662,0.017648635,-4.62084E-4,-4.570753E-4,1106.6178,0.0,0.0,0.0,0.0,0.0,0.0,0.0,0.0,0.0,0.0,0.0,0.0,0.0,-80.753456,-0.01925428,19.820965,-0.015848834,-0.016644523,-3.1600357E-4,545631.3,119984.9,0.012537823,0.015519261,7352.275,7374.2944,6223.8594,6072.5054,0.30772305,0.0,0.0,0.0
169.55711,169.55711,2.116,0.0,0.0,299.88635,10788.0,100.0,0.0,0.15614673,0.0,8.0,1.0,0.0,4000000.0,110.0,1.0,0.0,0.0,10.0,0.0,0.0,-62.747475,-2.9439864,372.46384,-0.07756427,0.30563295,0.037179567,305.18887,305.12375,299.79156,299.70282,407.0,407.0,470.0,471.0,93.0,93.0,93.0,93.0,0.0,0.0,0.0,0.0,0.045159142,0.04508852,0.052804913,0.0522489,-1.6915797,3.945529,6.473958,0.16652046,-1255.7968,85.83068,156.48006,137.20837,0.0,0.0,0.0,2.0,1.0,-1.3312321,-5.054442E-4,0.0012179613,93.0,93.0,93.0,93.0,21.775778,21.775778,24.740557,24.740557,0.017577838,0.017619556,-4.5541764E-4,-4.6019827E-4,1109.2601,0.0,0.0,0.0,0.0,0.0,0.0,0.0,0.0,0.0,0.0,0.0,0.0,0.0,-80.90891,-0.0056353207,19.822493,-0.01901376,-0.014800294,0.0022822886,545970.9,119984.9,0.012330617,0.015274525,7349.6035,7367.6807,6321.396,6060.5303,0.30784893,0.0,0.0,0.0
173.7257,173.7257,2.166,0.0,0.0,300.42508,10807.0,100.0,0.0,0.112976946,0.0,8.0,1.0,0.0,4000000.0,110.0,1.0,0.0,0.0,10.0,0.0,0.0,-66.79703,-2.9442153,373.4548,-0.086843,0.3025665,0.025774453,305.73145,305.675,300.32016,300.25208,405.0,405.0,468.0,469.0,93.0,93.0,93.0,93.0,0.0,0.0,0.0,0.0,0.045135066,0.045044407,0.052877046,0.05215862,-1.8502771,0.45239922,10.022297,-1.06059,-726.9992,218.23792,689.95795,140.65503,0.0,0.0,0.0,2.0,1.0,-1.3318752,3.5032924E-4,0.0011802912,93.0,93.0,93.0,93.0,21.775778,21.775778,24.740557,24.740557,0.017588228,0.017603362,-4.5450937E-4,-4.5835163E-4,1111.9,0.0,0.0,0.0,0.0,0.0,0.0,0.0,0.0,0.0,0.0,0.0,0.0,0.0,-81.0645,-0.0011900413,19.816267,-0.026645992,-0.011256924,0.0050209537,546308.06,119984.9,0.012352636,0.01532751,7337.322,7354.6523,6381.308,6013.865,0.30836582,0.0,0.0,0.0
177.90178,177.90178,2.216,0.0,0.0,300.95822,10826.0,100.0,0.0,0.09493426,0.0,8.0,1.0,0.0,4000000.0,110.0,1.0,0.0,0.0,10.0,0.0,0.0,-70.85432,-2.9443831,374.44543,-0.08310958,0.29980472,0.006984882,306.269,306.2171,300.84415,300.79477,403.0,404.0,466.0,468.0,93.0,93.0,93.0,93.0,0.0,0.0,0.0,0.0,0.044973783,0.04503556,0.052831274,0.05215096,-0.49307936,-0.87551767,8.413642,-0.73648983,-246.34744,37.229053,839.45087,45.6646,0.0,0.0,0.0,2.0,1.0,-1.3323396,0.0014406625,0.0011637211,93.0,93.0,93.0,93.0,21.775778,21.775778,24.740557,24.740557,0.017598426,0.017581437,-4.5665965E-4,-4.552919E-4,1114.5336,0.0,0.0,0.0,0.0,0.0,0.0,0.0,0.0,0.0,0.0,0.0,0.0,0.0,-81.21836,-0.003811517,19.810486,-0.025809994,-0.0082904585,0.006449219,546640.94,119984.9,0.0122754965,0.015303475,7311.785,7348.724,6343.1714,5989.749,0.3088932,0.0,0.0,0.0
182.0853,182.0853,2.266,0.0,0.0,301.4874,10843.0,100.0,0.0,0.07046704,0.0,8.0,1.0,0.0,4000000.0,110.0,1.0,0.0,0.0,10.0,0.0,0.0,-74.91925,-2.9446464,375.43585,-0.07556929,0.2991022,0.058207896,306.73056,306.7103,301.3683,301.32858,401.0,402.0,464.0,466.0,93.0,93.0,93.0,93.0,0.0,0.0,0.0,0.0,0.045254998,0.04522376,0.05282467,0.05236041,28.21192,7.862224,5.906,10.670274,1665.209,430.76273,615.1511,681.75037,0.0,0.0,0.0,2.0,1.0,-1.3327152,0.002450632,0.0010882616,93.0,93.0,93.0,93.0,21.775778,21.775778,24.740557,24.740557,0.0173552,0.017425425,-4.5470832E-4,-4.5634634E-4,1116.8865,0.0,0.0,0.0,0.0,0.0,0.0,0.0,0.0,0.0,0.0,0.0,0.0,0.0,-81.37043,7.271471E-4,19.8073,-0.020255385,-0.0066307723,0.0016614883,546936.06,119984.9,0.012469481,0.015060534,7521.8276,7443.9976,6382.5938,6187.4565,0.30926704,0.0,0.0,0.0
186.2768,186.2768,2.316,0.0,0.0,302.0035,10863.0,100.0,0.0,0.094940335,0.0,8.0,1.0,0.0,4000000.0,110.0,1.0,0.0,0.0,10.0,0.0,0.0,-78.99168,-2.9441102,376.42627,-0.068692006,0.2907459,0.056477156,307.30328,307.2338,301.8815,301.84665,400.0,400.0,463.0,464.0,93.0,93.0,93.0,93.0,0.0,0.0,0.0,0.0,0.04544585,0.04550319,0.05299936,0.052357156,9.996368,3.7611272,15.072896,-5.3997335,805.3197,33.098442,1139.9521,-373.24277,0.0,0.0,0.0,2.0,1.0,-1.3330066,0.003185619,7.675886E-4,93.0,93.0,93.0,93.0,21.775778,21.775778,24.740557,24.740557,0.0175024,0.01742485,-4.572514E-4,-4.4859134E-4,1119.6373,0.0,0.0,0.0,0.0,0.0,0.0,0.0,0.0,0.0,0.0,0.0,0.0,0.0,-81.517746,0.02057328,19.808212,-0.023810232,-0.006290064,-0.005199729,547273.75,119984.89,0.013021247,0.015445617,7495.324,7443.1826,6491.378,6107.7827,0.31051064,0.0,0.0,0.0
189.07538,189.07538,2.366,0.0,0.0,302.34607,10873.0,100.0,0.0,0.08172817,0.0,8.0,1.0,0.0,4000000.0,110.0,1.0,0.0,0.0,10.0,0.0,0.0,-81.710686,-2.943242,377.08655,-0.06355834,0.29099563,0.016294666,307.5661,307.56125,302.22644,302.18808,398.0,399.0,461.0,463.0,93.0,93.0,93.0,93.0,0.0,0.0,0.0,0.0,0.04542236,0.045922987,0.052779976,0.052233983,0.0,0.0,0.0,0.0,327.00146,97.57873,-420.51663,-83.73856,0.0,0.0,0.0,2.0,1.0,-1.3332238,0.004023951,4.7564507E-4,93.0,93.0,93.0,93.0,21.775778,21.775778,24.740557,24.740557,0.01728732,0.017346783,-4.5383582E-4,-4.548269E-4,1121.042,0.0,0.0,0.0,0.0,0.0,0.0,0.0,0.0,0.0,0.0,0.0,0.0,0.0,-81.61509,0.028865697,19.810604,-0.022731192,-0.0063514076,0.0030517385,547456.4,119984.89,0.014677045,0.015774565,7487.167,7505.9736,6164.2354,5931.9995,0.31174088,0.0,0.0,0.0
193.27911,193.27911,2.416,0.0,0.0,302.84833,10898.0,100.0,0.0,0.10980111,0.0,8.0,1.0,0.0,4000000.0,110.0,1.0,0.0,0.0,10.0,0.0,0.0,-85.79519,-2.94283,378.07697,-0.055959374,0.29284033,-0.1476582,308.3496,308.2162,302.7365,302.68692,397.0,397.0,460.0,461.0,93.0,93.0,93.0,93.0,0.0,0.0,0.0,0.0,0.043997273,0.04447038,0.05251224,0.051715508,0.0,0.0,0.0,0.0,-543.3082,3233.8718,-323.3805,4429.9893,0.0,0.0,0.0,2.0,1.0,-1.3335966,0.007160882,0.0010994673,93.0,93.0,93.0,93.0,21.775778,21.775778,24.740557,24.740557,0.018191926,0.01786277,-4.5269576E-4,-4.534359E-4,1124.5247,0.0,0.0,0.0,0.0,0.0,0.0,0.0,0.0,0.0,0.0,0.0,0.0,0.0,-81.758026,-0.028867185,19.813179,-0.07879031,-0.008223798,0.03423521,547897.3,119984.9,0.0146027785,0.01741997,6884.191,7190.3877,6036.7417,5839.2637,0.31276512,0.0,0.0,0.0
198.89522,198.89522,2.466,0.0,0.0,303.52573,10913.0,100.0,0.0,0.1292133,0.0,8.0,1.0,0.0,4000000.0,110.0,1.0,0.0,0.0,10.0,0.0,0.0,-91.25247,-2.9437764,379.39792,-0.07719323,0.28530705,0.080003284,308.69046,308.68262,303.41135,303.3605,394.0,395.0,457.0,459.0,93.0,93.0,93.0,93.0,0.0,0.0,0.0,0.0,0.046061814,0.04601246,0.052897923,0.05260314,58.763397,19.477083,9.799227,-7.801875,58.552776,-643.0595,711.89844,-89.26391,0.0,0.0,0.0,2.0,1.0,-1.3341439,0.009034296,4.5192242E-4,93.0,93.0,93.0,93.0,21.775778,21.775778,24.740557,24.740557,0.016964555,0.01712075,-4.5633325E-4,-4.5050544E-4,1126.5908,0.0,0.0,0.0,0.0,0.0,0.0,0.0,0.0,0.0,0.0,0.0,0.0,0.0,-81.95194,0.008980207,19.811892,-0.010568553,-0.008910797,-0.007191401,548149.56,119984.89,0.011844519,0.014385298,7722.4194,7600.3184,6400.535,6186.365,0.31258392,0.0,0.0,0.0
203.11551,203.11551,2.516,0.0,0.0,304.02536,10930.0,100.0,0.0,0.09211515,0.0,8.0,1.0,0.0,4000000.0,110.0,1.0,0.0,0.0,10.0,0.0,0.0,-95.35383,-2.9420567,380.38834,-0.07002328,0.28469348,0.16179152,309.15213,309.1848,303.9011,303.86252,393.0,393.0,456.0,457.0,93.0,93.0,93.0,93.0,0.0,0.0,0.0,0.0,0.047114607,0.04653112,0.053115692,0.05338474,35.31575,-1.3243406,7.878541,29.257757,1886.2633,-556.83997,131.09296,1128.9015,0.0,0.0,0.0,2.0,1.0,-1.3345348,0.008745419,-2.695322E-4,93.0,93.0,93.0,93.0,21.775778,21.775778,24.740557,24.740557,0.016860554,0.017100003,-4.4993174E-4,-4.6097877E-4,1128.9585,0.0,0.0,0.0,0.0,0.0,0.0,0.0,0.0,0.0,0.0,0.0,0.0,0.0,-82.09495,0.06538667,19.810835,0.017294105,-0.0064169876,-0.039102223,548447.2,119984.89,0.008040124,0.012124263,7835.968,7588.1387,6707.37,6925.9736,0.31485462,0.0,0.0,0.0
207.33441,207.33441,2.566,0.0,0.0,302.88638,10923.0,100.0,0.0,0.076180495,0.0,8.0,1.0,0.0,4000000.0,110.0,1.0,0.0,0.0,10.0,0.0,0.0,-99.45527,-2.9256513,381.37204,-0.5166273,-0.6559254,0.8313652,308.98907,308.96033,303.21832,303.2963,391.0,391.0,454.0,455.0,93.0,93.0,93.0,93.0,0.0,0.0,0.0,0.0,0.047618534,0.045459285,0.05088576,0.04669143,-73.57388,-77.02834,-72.87964,-203.38028,-8472.614,-4056.2778,1085.9591,-205.2429,0.0,0.0,0.0,2.0,1.0,-1.3347507,0.00881638,-0.0047650337,93.0,93.0,93.0,93.0,21.775778,21.775778,24.740557,24.740557,0.018354522,0.018784294,-3.2235638E-4,1.9301653E-4,1127.976,0.0,0.0,0.0,0.0,0.0,0.0,0.0,0.0,0.0,0.0,0.0,0.0,0.0,-81.8524,0.68587816,19.453276,-0.12714742,0.0011193868,0.10377538,548321.06,119984.89,0.020464458,0.013650261,7165.357,6781.381,3366.3425,1172.0942,0.29692554,0.0,0.0,0.0
210.14131,210.14131,2.616,0.0,0.0,303.19034,10984.0,100.0,0.0,0.37150815,0.0,8.0,1.0,0.0,4000000.0,110.0,1.0,0.0,0.0,10.0,0.0,0.0,-102.18504,-2.9108117,382.0217,0.1280846,0.2448338,-1.4196899,311.11694,310.3718,303.11786,303.04742,390.0,390.0,453.0,454.0,93.0,93.0,93.0,93.0,0.0,0.0,0.0,0.0,0.035869185,0.03737563,0.04746156,0.048401143,0.0,0.0,0.0,0.0,-4099.5684,-1307.4425,3421.8684,8858.853,0.0,0.0,0.0,2.0,1.0,-1.3349518,0.016208937,8.493662E-4,93.0,93.0,93.0,93.0,21.775778,21.775778,24.740557,24.740557,0.025662296,0.023532905,-4.339073E-4,-3.9054765E-4,1136.5022,0.0,0.0,0.0,0.0,0.0,0.0,0.0,0.0,0.0,0.0,0.0,0.0,0.0,-81.92539,0.23386501,19.521925,-0.14133392,-0.01137432,0.23103093,549397.6,119984.9,0.025751896,0.030899057,3760.9663,4622.2,2963.5398,3359.8433,0.31679916,0.0,0.0,0.0
215.76456,215.76456,2.666,0.0,0.0,303.90063,10943.0,100.0,0.0,0.38970724,0.0,8.0,1.0,0.0,4000000.0,110.0,1.0,0.0,0.0,10.0,0.0,0.0,-107.65305,-2.9126577,383.32642,-0.029359259,0.29113844,-0.16878283,309.60944,309.484,303.8317,303.67825,387.0,388.0,451.0,452.0,93.0,93.0,93.0,93.0,0.0,0.0,0.0,0.0,0.035693005,0.035608683,0.05272192,0.052251205,227.99043,96.810974,81.86906,39.053856,7990.6143,5548.779,-571.7665,1771.5317,0.0,0.0,0.0,2.0,1.0,-1.3362608,0.015804088,0.0043150187,93.0,93.0,93.0,93.0,21.775778,21.775778,24.740557,24.740557,0.01881629,0.01888189,-4.63473E-4,-4.4053365E-4,1130.7704,0.0,0.0,0.0,0.0,0.0,0.0,0.0,0.0,0.0,0.0,0.0,0.0,0.0,-82.11071,-0.15664008,19.596165,0.06680544,-0.028035741,-0.077648945,548674.8,119984.89,0.014362825,0.028301882,6609.8545,6656.7744,6529.48,6653.7144,0.31650734,0.0,0.0,0.0
219.99045,219.99045,2.716,0.0,0.0,302.71124,10931.0,100.0,0.0,0.4060864,0.0,8.0,1.0,0.0,4000000.0,110.0,1.0,0.0,0.0,10.0,0.0,0.0,-111.76255,-2.9184,384.3057,-0.13475637,0.3051087,0.504027,309.205,309.19608,304.35193,304.15305,386.0,386.0,449.0,450.0,93.0,93.0,93.0,93.0,0.0,0.0,0.0,0.0,0.049921766,0.046941087,0.053908464,0.05444669,305.20474,308.99472,3.6254523,46.896408,659.7967,4264.471,-1026.0521,444.72357,0.0,0.0,0.0,2.0,1.0,-1.3380274,0.012707007,-0.002097845,93.0,93.0,93.0,93.0,21.775778,21.775778,24.740557,24.740557,0.015659053,0.016161747,-4.6427376E-4,-4.8659075E-4,1129.1158,0.0,0.0,0.0,0.0,0.0,0.0,0.0,0.0,0.0,0.0,0.0,0.0,0.0,-81.86575,0.7663241,19.181833,0.25659114,-0.0040488914,-0.2772773,548473.44,119984.89,0.0,0.0052209096,8895.704,8452.16,7265.328,7631.617,0.29760456,0.0,0.0,0.0
224.1971,224.1971,2.766,0.0,0.0,302.73642,10936.0,100.0,0.0,1.2359481,0.0,8.0,1.0,0.0,4000000.0,110.0,1.0,0.0,0.0,10.0,0.0,0.0,-115.857254,-2.877868,385.26282,-0.21750179,-0.20837021,-0.64704585,309.36014,309.3899,302.6791,302.59094,384.0,384.0,447.0,449.0,93.0,93.0,93.0,93.0,0.0,0.0,0.0,0.0,0.042330444,0.0398462,0.048215557,0.047946136,-287.25226,-229.76091,-148.29843,-115.56498,-3284.1895,-1770.6729,-277.24637,2051.7153,0.0,0.0,0.0,2.0,1.0,-1.3386186,0.0076033217,-0.0043133497,93.0,93.0,93.0,93.0,21.775778,21.775778,24.740557,24.740557,0.021316903,0.02200752,-2.8443005E-4,-1.5022529E-4,1129.806,0.0,0.0,0.0,0.0,0.0,0.0,0.0,0.0,0.0,0.0,0.0,0.0,0.0,-81.8908,0.6806705,19.108671,0.010714453,-0.02380489,0.13558045,548557.8,119984.89,0.023842808,0.02279637,5221.5938,5130.8525,1923.5316,1847.342,0.30205822,0.0,0.0,0.0
228.40668,228.40668,2.816,0.0,0.0,303.2213,10966.0,100.0,0.0,0.98694974,0.0,8.0,1.0,0.0,4000000.0,110.0,1.0,0.0,0.0,10.0,0.0,0.0,-119.955055,-2.8610182,386.21942,-0.06662286,0.3187897,-1.0139816,310.2247,310.2272,303.25046,302.91776,382.0,383.0,446.0,447.0,93.0,93.0,93.0,93.0,0.0,0.0,0.0,0.0,0.03206743,0.029541781,0.04907274,0.05023139,-94.08742,-129.7229,64.23108,33.863556,7634.4106,6939.283,1219.5466,-2473.7744,0.0,0.0,0.0,2.0,1.0,-1.3408371,0.0060095703,0.0027190447,93.0,93.0,93.0,93.0,21.775778,21.775778,24.740557,24.740557,0.023017826,0.024505459,-4.892896E-4,-4.390988E-4,1133.9926,0.0,0.0,0.0,0.0,0.0,0.0,0.0,0.0,0.0,0.0,0.0,0.0,0.0,-82.0241,0.079656765,19.142109,0.08517193,-0.05868061,0.060687803,549084.25,119984.9,0.021457046,0.03423485,5068.2695,4599.048,4507.5664,4970.123,0.31753254,0.0,0.0,0.0
231.21733,231.21733,2.866,0.0,0.0,303.59515,10940.0,100.0,0.0,0.7212874,0.0,8.0,1.0,0.0,4000000.0,110.0,1.0,0.0,0.0,10.0,0.0,0.0,-122.691284,-2.8614135,386.85718,-0.17757337,0.29411873,-0.271796,309.43054,309.49094,303.6329,303.27103,381.0,382.0,444.0,446.0,93.0,93.0,93.0,93.0,0.0,0.0,0.0,0.0,0.03537445,0.032565866,0.05277478,0.05162633,0.0,0.0,0.0,0.0,6977.605,2499.0337,931.16907,-444.29465,0.0,0.0,0.0,2.0,1.0,-1.3429022,0.0023097948,0.0034753084,93.0,93.0,93.0,93.0,21.775778,21.775778,24.740557,24.740557,0.018853288,0.020222206,-4.4474716E-4,-4.5154948E-4,1130.3458,0.0,0.0,0.0,0.0,0.0,0.0,0.0,0.0,0.0,0.0,0.0,0.0,0.0,-82.13619,-0.058641687,19.118734,0.10229875,-0.061274555,-0.059940062,548619.25,119984.89,0.012523588,0.02766584,6604.2266,5898.8237,6601.0576,6445.982,0.31494045,0.0,0.0,0.0
236.84653,236.84653,2.916,0.0,0.0,303.88385,10918.0,100.0,0.0,-0.023099797,0.0,8.0,1.0,0.0,4000000.0,110.0,1.0,0.0,0.0,10.0,0.0,0.0,-128.17293,-2.86049,388.12775,-0.61624914,-0.4205842,1.767133,308.79498,308.831,303.71063,303.70087,379.0,379.0,442.0,444.0,93.0,93.0,93.0,93.0,0.0,0.0,0.0,0.0,0.05115143,0.04935167,0.055571742,0.051328685,307.51166,179.93018,69.78705,-59.561802,5596.093,-10093.165,4841.9097,-5622.164,0.0,0.0,0.0,2.0,1.0,-1.3451799,0.0048195524,-0.0027786493,93.0,93.0,93.0,93.0,21.775778,21.775778,24.740557,24.740557,0.016198222,0.016741525,-5.895128E-4,-5.014275E-4,1127.2767,0.0,0.0,0.0,0.0,0.0,0.0,0.0,0.0,0.0,0.0,0.0,0.0,0.0,-82.256454,0.26796186,18.953087,-0.18873459,-0.0028282285,-0.048652954,548232.1,119984.9,0.0058741495,0.0057717287,9025.03,8131.986,7929.4795,5649.7764,0.29744148,0.0,0.0,0.0
241.07268,241.07268,2.966,0.0,0.0,304.27316,10956.0,100.0,0.0,-0.39539066,0.0,8.0,1.0,0.0,4000000.0,110.0,1.0,0.0,0.0,10.0,0.0,0.0,-132.28952,-2.8451831,389.07617,0.026558619,0.25832537,-0.34267166,310.08865,309.7483,304.20694,304.31036,377.0,378.0,441.0,442.0,93.0,93.0,93.0,93.0,0.0,0.0,0.0,0.0,0.04404983,0.04763085,0.05192418,0.05164185,-185.09186,-152.12393,-35.781113,0.114887945,-1311.2383,-6888.6626,3584.839,-1043.044,0.0,0.0,0.0,2.0,1.0,-1.3447244,0.015138408,-0.0013108253,93.0,93.0,93.0,93.0,21.775778,21.775778,24.740557,24.740557,0.018798612,0.01733584,-4.2644102E-4,-4.417631E-4,1132.5867,0.0,0.0,0.0,0.0,0.0,0.0,0.0,0.0,0.0,0.0,0.0,0.0,0.0,-82.365234,0.3192611,18.961836,-0.056015864,5.499178E-4,0.053444177,548904.06,119984.89,0.011815808,0.012445639,6141.81,7381.749,5529.547,5403.8613,0.29886436,0.0,0.0,0.0
245.30403,245.30403,3.016,0.0,0.0,304.7706,10982.0,100.0,0.0,-0.44267896,0.0,8.0,1.0,0.0,4000000.0,110.0,1.0,0.0,0.0,10.0,0.0,0.0,-136.41127,-2.8367863,390.02554,0.051840104,0.27954933,-0.5484305,310.73462,310.57162,304.60568,304.68192,376.0,376.0,439.0,440.0,93.0,93.0,93.0,93.0,0.0,0.0,0.0,0.0,0.038473267,0.04260832,0.051349346,0.050420765,-94.02662,-86.3517,-12.055859,31.028015,1324.3271,1143.1306,322.37466,3858.3438,0.0,0.0,0.0,2.0,1.0,-1.3443077,0.020305889,0.0023446083,93.0,93.0,93.0,93.0,21.775778,21.775778,24.740557,24.740557,0.01977184,0.01892108,-4.2043312E-4,-4.5727094E-4,1136.2043,0.0,0.0,0.0,0.0,0.0,0.0,0.0,0.0,0.0,0.0,0.0,0.0,0.0,-82.49551,0.034277957,19.014519,-0.09872474,0.016030954,0.10854124,549353.6,119984.9,0.01769508,0.021529773,5894.215,6445.9844,5308.834,5049.623,0.31570816,0.0,0.0,0.0
248.1287,248.1287,3.066,0.0,0.0,305.09122,10991.0,100.0,0.0,-0.29100168,0.0,8.0,1.0,0.0,4000000.0,110.0,1.0,0.0,0.0,10.0,0.0,0.0,-139.16257,-2.8383067,390.66013,0.06382875,0.28278244,-0.3768245,310.9564,310.84882,304.8932,305.01508,374.0,375.0,438.0,439.0,93.0,93.0,93.0,93.0,0.0,0.0,0.0,0.0,0.03701521,0.04013146,0.051396158,0.052019455,0.0,0.0,0.0,0.0,1941.8925,3842.9478,40.95733,-314.6633,0.0,0.0,0.0,2.0,1.0,-1.343621,0.023616193,0.0038820505,93.0,93.0,93.0,93.0,21.775778,21.775778,24.740557,24.740557,0.01966026,0.01884243,-4.4461456E-4,-4.4837766E-4,1137.4568,0.0,0.0,0.0,0.0,0.0,0.0,0.0,0.0,0.0,0.0,0.0,0.0,0.0,-82.57689,-0.10419714,19.057688,-0.05852793,0.020987976,0.025018053,549508.9,119984.89,0.017386071,0.024961995,6066.2227,6570.328,5688.8145,6087.38,0.3205967,0.0,0.0,0.0
252.37129,252.37129,3.116,0.0,0.0,305.5804,10995.0,100.0,0.0,-0.10524686,0.0,8.0,1.0,0.0,4000000.0,110.0,1.0,0.0,0.0,10.0,0.0,0.0,-143.2947,-2.8469136,391.61465,0.05604052,0.27899113,-0.15757233,310.9787,311.0403,305.39874,305.48282,373.0,373.0,436.0,438.0,93.0,93.0,93.0,93.0,0.0,0.0,0.0,0.0,0.040354647,0.041256327,0.051568918,0.05265721,0.0,0.0,0.0,0.0,4444.5674,307.5018,3730.5498,-205.34991,0.0,0.0,0.0,2.0,1.0,-1.3427497,0.022254793,0.003554821,93.0,93.0,93.0,93.0,21.775778,21.775778,24.740557,24.740557,0.017883308,0.01787736,-4.5594102E-4,-4.4214402E-4,1138.0159,0.0,0.0,0.0,0.0,0.0,0.0,0.0,0.0,0.0,0.0,0.0,0.0,0.0,-82.70192,-0.22190179,19.119165,0.08231216,0.013507685,-0.03225885,549578.94,119984.9,0.014601424,0.020397788,7105.8823,7071.077,5890.8296,6256.282,0.31528282,0.0,0.0,0.0
258.0387,258.0387,3.166,0.0,0.0,306.23074,11004.0,100.0,0.0,-0.119252086,0.0,8.0,1.0,0.0,4000000.0,110.0,1.0,0.0,0.0,10.0,0.0,0.0,-148.814,-2.859643,392.89197,0.06810588,0.27626926,0.19970125,311.2444,311.25998,306.06915,306.1026,371.0,371.0,434.0,435.0,93.0,93.0,93.0,93.0,0.0,0.0,0.0,0.0,0.047821403,0.04813762,0.05305679,0.05324751,61.26478,125.22808,-5.135983,11.331215,-2266.9626,-938.2768,-535.24817,60.376507,0.0,0.0,0.0,2.0,1.0,-1.3423492,0.020622555,0.0011373758,93.0,93.0,93.0,93.0,21.775778,21.775778,24.740557,24.740557,0.016483407,0.016461609,-4.4968264E-4,-4.58427E-4,1139.1189,0.0,0.0,0.0,0.0,0.0,0.0,0.0,0.0,0.0,0.0,0.0,0.0,0.0,-82.86923,-0.13679826,19.19823,-0.030647736,0.005109329,-0.029754803,549661.7,119984.89,0.009781283,0.0107998075,8037.04,8039.422,6517.3027,6655.9375,0.30683422,0.0,0.0,0.0
262.29712,262.29712,3.216,0.0,0.0,306.7139,11021.0,100.0,0.0,-0.055031125,0.0,8.0,1.0,0.0,4000000.0,110.0,1.0,0.0,0.0,10.0,0.0,0.0,-152.96078,-2.8635173,393.85333,0.052185293,0.26652396,0.18554823,311.75415,311.7193,306.567,306.58664,369.0,369.0,432.0,434.0,93.0,93.0,93.0,93.0,0.0,0.0,0.0,0.0,0.048564892,0.04876366,0.052969597,0.05321225,-19.464119,-30.416471,1.4622508,-6.0763206,-1903.9122,-1391.6102,103.801476,-262.64188,0.0,0.0,0.0,2.0,1.0,-1.3421329,0.020745784,7.046461E-4,93.0,93.0,93.0,93.0,21.775778,21.775778,24.740557,24.740557,0.016437935,0.016274355,-4.5004903E-4,-4.4699697E-4,1140.9165,0.0,0.0,0.0,0.0,0.0,0.0,0.0,0.0,0.0,0.0,0.0,0.0,0.0,-82.994354,-0.028933888,19.253231,0.0096098725,0.0032914553,0.012211743,549679.94,119984.89,0.009709698,0.0096396385,7992.6445,8176.017,6444.535,6526.1436,0.3062563,0.0,0.0,0.0
266.562,266.562,3.266,0.0,0.0,307.17206,11047.0,100.0,0.0,-0.1197041,0.0,8.0,1.0,0.0,4000000.0,110.0,1.0,0.0,0.0,10.0,0.0,0.0,-157.11362,-2.8644574,394.81744,0.0527306,0.2604265,-0.069199756,312.48077,312.45624,307.018,307.0526,367.0,368.0,431.0,432.0,93.0,93.0,93.0,93.0,0.0,0.0,0.0,0.0,0.046771005,0.047122262,0.05269039,0.052898876,-40.540024,-32.08883,-9.5115595,-6.1337647,-318.63303,-69.670364,-217.13821,-31.180685,0.0,0.0,0.0,2.0,1.0,-1.3418887,0.02094531,0.0014164448,93.0,93.0,93.0,93.0,21.775778,21.775778,24.740557,24.740557,0.017342295,0.017165523,-4.405282E-4,-4.4514355E-4,1143.665,0.0,0.0,0.0,0.0,0.0,0.0,0.0,0.0,0.0,0.0,0.0,0.0,0.0,-83.11228,-0.027009703,19.308043,-0.005716319,0.006097427,0.010945276,549707.3,119984.9,0.01134481,0.013121371,7311.2393,7442.7783,6175.0283,6282.0117,0.30866337,0.0,0.0,0.0
269.40884,269.40884,3.316,0.0,0.0,307.4815,11058.0,100.0,0.0,-0.16178568,0.0,8.0,1.0,0.0,4000000.0,110.0,1.0,0.0,0.0,10.0,0.0,0.0,-159.88547,-2.8658965,395.46173,0.059728965,0.2628926,-0.0867049,312.7953,312.76904,307.31976,307.36813,366.0,367.0,430.0,431.0,93.0,93.0,93.0,93.0,0.0,0.0,0.0,0.0,0.045778472,0.046333335,0.05250136,0.05279083,0.0,0.0,0.0,0.0,522.2662,552.9105,248.69438,236.53056,0.0,0.0,0.0,2.0,1.0,-1.3416411,0.021226386,0.001639843,93.0,93.0,93.0,93.0,21.775778,21.775778,24.740557,24.740557,0.017395748,0.01717341,-4.4104786E-4,-4.4731528E-4,1144.8285,0.0,0.0,0.0,0.0,0.0,0.0,0.0,0.0,0.0,0.0,0.0,0.0,0.0,-83.19154,-0.05622786,19.346674,-0.0064451955,0.008424093,0.0060226144,549719.1,119984.89,0.011810855,0.0141663775,7290.0957,7443.167,6125.1187,6264.2207,0.30944252,0.0,0.0,0.0
273.68442,273.68442,3.366,0.0,0.0,307.9423,11071.0,100.0,0.0,-0.2243954,0.0,8.0,1.0,0.0,4000000.0,110.0,1.0,0.0,0.0,10.0,0.0,0.0,-164.04814,-2.8694143,396.4307,0.07666402,0.25963163,-0.021256698,313.1775,313.1665,307.76877,307.8389,365.0,365.0,428.0,430.0,93.0,93.0,93.0,93.0,0.0,0.0,0.0,0.0,0.045560844,0.046239313,0.052558336,0.05292383,0.0,0.0,0.0,0.0,448.85422,543.2143,131.2673,129.8055,0.0,0.0,0.0,2.0,1.0,-1.3411231,0.021539485,0.0016855001,93.0,93.0,93.0,93.0,21.775778,21.775778,24.740557,24.740557,0.017150136,0.016914234,-4.396816E-4,-4.4855152E-4,1146.2051,0.0,0.0,0.0,0.0,0.0,0.0,0.0,0.0,0.0,0.0,0.0,0.0,0.0,-83.308304,-0.077729,19.409555,-0.0075165685,0.012087114,1.5387044E-4,549733.9,119984.9,0.011512335,0.014007564,7450.4097,7605.825,6242.0444,6410.542,0.30920887,0.0,0.0,0.0
279.39502,279.39502,3.416,0.0,0.0,308.54663,11091.0,100.0,0.0,-0.22882947,0.0,8.0,1.0,0.0,4000000.0,110.0,1.0,0.0,0.0,10.0,0.0,0.0,-169.60727,-2.8744912,397.72787,0.09892532,0.2551188,0.020427799,313.72812,313.7209,308.36398,308.45154,362.0,363.0,426.0,427.0,93.0,93.0,93.0,93.0,0.0,0.0,0.0,0.0,0.046290256,0.047131546,0.052648835,0.053124957,10.04599,13.895853,1.1231749,2.279654,-261.7433,-37.47047,-1.6897916,34.520027,0.0,0.0,0.0,2.0,1.0,-1.3402035,0.021966355,0.001429081,93.0,93.0,93.0,93.0,21.775778,21.775778,24.740557,24.740557,0.016959282,0.016685085,-4.4186082E-4,-4.453634E-4,1148.3192,0.0,0.0,0.0,0.0,0.0,0.0,0.0,0.0,0.0,0.0,0.0,0.0,0.0,-83.45836,-0.0711792,19.505259,-0.0071385987,0.014724976,-0.002165075,549754.7,119984.92,0.010955672,0.012870312,7555.049,7751.5146,6289.7593,6510.0776,0.30841923,0.0,0.0,0.0
283.68524,283.68524,3.466,0.0,0.0,308.9936,11107.0,100.0,0.0,-0.22589771,0.0,8.0,1.0,0.0,4000000.0,110.0,1.0,0.0,0.0,10.0,0.0,0.0,-173.78307,-2.877847,398.70523,0.111399695,0.252188,0.01989522,314.17346,314.16083,308.80988,308.8999,361.0,361.0,424.0,426.0,93.0,93.0,93.0,93.0,0.0,0.0,0.0,0.0,0.04655441,0.04746165,0.052657757,0.053180844,3.6574154,5.4330378,2.21394,1.9620357,-173.41821,-38.945644,164.35234,128.30345,0.0,0.0,0.0,2.0,1.0,-1.3394482,0.022241496,0.0013105869,93.0,93.0,93.0,93.0,21.775778,21.775778,24.740557,24.740557,0.01692638,0.01663663,-4.4183494E-4,-4.4330079E-4,1150.0107,0.0,0.0,0.0,0.0,0.0,0.0,0.0,0.0,0.0,0.0,0.0,0.0,0.0,-83.56723,-0.062807396,19.584915,-0.0066868016,0.015048294,-4.6857097E-4,549771.4,119984.9,0.01071066,0.012476616,7560.638,7771.6675,6305.8203,6542.6514,0.3082266,0.0,0.0,0.0
