LapDistance [m],TotalDistance [m],LapTime [s],Sector1Time [s],Sector2Time [s],Speed [km/h],EngineRevs [rpm],ThrottlePercentage [%],BrakePercentage [%],Steer [%],Clutch [%],Gear [int],DRS [0/1],CanUseDRS [0/1],KERSLevel [J],EngineTemperature [C],RacePosition [int],Sector [int],InPits [int],FuelRemaining [kg],CurrentFlag [int],CurrentLapInvalid [int],X [m],Y [m],Z [m],GForceLatitudinal [G],GForceLongitudinal [G],GForceVertical [G],WheelSpeedRearLeft [km/h],WheelSpeedRearRight [km/h],WheelSpeedFrontLeft [km/h],WheelSpeedFrontRight [km/h],BrakeTemperatureRearLeft [C],BrakeTemperatureRearRight [C],BrakeTemperatureFrontLeft [C],BrakeTemperatureFrontRight [C],TyreTemperatureRearLeft [C],TyreTemperatureRearRight [C],TyreTemperatureFrontLeft [C],TyreTemperatureFrontRight [C],TyreWearRearLeft [%],TyreWearRearRight [%],TyreWearFrontLeft [%],TyreWearFrontRight [%],SuspensionPositionRearLeft [m],SuspensionPositionRearRight [m],SuspensionPositionFrontLeft [m],SuspensionPositionFrontRight [m],SuspensionVelocityRearLeft [m/s],SuspensionVelocityRearRight [m/s],SuspensionVelocityFrontLeft [m/s],SuspensionVelocityFrontRight [m/s],SuspensionAccelerationRearLeft [m/s^2],SuspensionAccelerationRearRight [m/s^2],SuspensionAccelerationFrontLeft [m/s^2],SuspensionAccelerationFrontRight [m/s^2],MGUKHarvested [J],MGUHHarvested [J],ERSSpent [J],ERSMode [int],FuelMixMode [int],Yaw [rad],Roll [rad],Pitch [rad],TyreCarcassTemperatureRearLeft [C],TyreCarcassTemperatureRearRight [C],TyreCarcassTemperatureFrontLeft [C],TyreCarcassTemperatureFrontRight [C],TyrePressureRearLeft [PSI],TyrePressureRearRight [PSI],TyrePressureFrontLeft [PSI],TyrePressureFrontRight [PSI],WheelSlipRearLeft [%],WheelSlipRearRight [%],WheelSlipFrontLeft [%],WheelSlipFrontRight [%],Torque [Nm],Handbrake [%],RearLeftInside [C],RearLeftMiddle [C],RearLeftOutside [C],RearRightInside [C],RearRightMiddle [C],RearRightOutside [C],FrontLeftInside [C],FrontLeftMiddle [C],FrontLeftOutside [C],FrontRightInside [C],FrontRightMiddle [C],FrontRightOutside [C],WoldSpeedX [km/h],WoldSpeedY [km/h],WoldSpeedZ [km/h],LocalAngularVelocityX [rad/s],LocalAngularVelocityY [rad/s],LocalAngularVelocityZ [rad/s],IcePower [W],MgukPower [W],FrontRideHeight [m],RearRideHeight [m],LoadRearLeft [N],LoadRearRight [N],LoadFrontLeft [N],LoadFrontRight [N],Extra1 [m],Extra2 [],Extra3 [],Extra4 []
2.2773438,35346.37,0.033,0.0,0.0,251.60655,10482.0,100.0,0.0,1.0339632,0.0,7.0,0.0,0.0,4000000.0,110.0,1.0,0.0,0.0,10.0,0.0,0.0,-459.13022,-3.362162,340.63174,-0.4429545,0.58348584,-0.17128813,256.82965,257.11945,251.62634,251.30261,533.0,534.0,600.0,605.0,97.0,97.0,97.0,97.0,0.0,0.0,0.0,0.0,0.04452411,0.04131946,0.051582698,0.049944688,0.0,0.0,0.0,0.0,7221.0156,3755.454,2110.2812,157.33836,0.0,0.0,0.0,2.0,1.0,2.50277,0.02010066,-0.0019267797,97.0,97.0,97.0,97.0,21.710573,21.710573,24.666473,24.666473,0.020808663,0.022620048,-5.4340414E-4,-5.664259E-4,1066.1504,0.0,0.0,0.0,0.0,0.0,0.0,0.0,0.0,0.0,0.0,0.0,0.0,0.0,41.538742,0.15445945,-56.206944,-0.02102559,-0.053492256,0.032844737,540071.56,119984.9,0.016447797,0.01789178,7444.211,6519.3047,5307.7793,4540.2935,0.31777477,0.0,0.0,0.0
5.78125,35349.875,0.083,0.0,0.0,252.5881,10515.0,100.0,0.0,0.767535,0.0,7.0,0.0,0.0,4000000.0,110.0,1.0,0.0,0.0,10.0,0.0,0.0,-457.04477,-3.354216,337.8187,-0.37184456,0.56226456,0.1262419,257.7442,257.79477,252.57812,252.31535,531.0,532.0,598.0,603.0,97.0,97.0,97.0,97.0,0.0,0.0,0.0,0.0,0.046659783,0.04288234,0.052136786,0.050851613,0.0,0.0,0.0,0.0,1522.9983,3157.1208,-279.37888,-1110.0455,0.0,0.0,0.0,2.0,1.0,2.5003586,0.019324517,-0.0028176308,97.0,97.0,97.0,97.0,21.710573,21.710573,24.666473,24.666473,0.02023268,0.021150945,-5.0892227E-4,-5.380421E-4,1071.7499,0.0,0.0,0.0,0.0,0.0,0.0,0.0,0.0,0.0,0.0,0.0,0.0,0.0,41.857075,0.17859258,-56.31031,0.026201885,-0.043864723,0.028369812,541204.25,119984.9,0.014623037,0.01568792,7842.9795,7149.5566,5886.9585,5327.993,0.31330013,0.0,0.0,0.0
9.296875,35353.39,0.133,0.0,0.0,253.56113,10550.0,100.0,0.0,0.5296493,0.0,7.0,0.0,0.0,4000000.0,110.0,1.0,0.0,0.0,10.0,0.0,0.0,-454.9442,-3.3433335,335.0,-0.299928,0.5462144,0.24635401,258.6452,258.6102,253.52464,253.32687,528.0,530.0,596.0,601.0,97.0,97.0,97.0,97.0,0.0,0.0,0.0,0.0,0.048751973,0.046771225,0.05317058,0.05057291,0.0,0.0,0.0,0.0,520.46924,-4947.2666,6008.6035,-1029.9011,0.0,0.0,0.0,2.0,1.0,2.4984674,0.020302031,-0.004344821,97.0,97.0,97.0,97.0,21.710573,21.710573,24.666473,24.666473,0.019671822,0.020379106,-5.215747E-4,-5.1933614E-4,1076.5328,0.0,0.0,0.0,0.0,0.0,0.0,0.0,0.0,0.0,0.0,0.0,0.0,0.0,42.145103,0.26321015,-56.432434,0.054830037,-0.033559836,-0.03355013,541816.0,119984.9,0.011870261,0.011917663,7930.3843,7444.5615,6622.6914,5150.253,0.31301403,0.0,0.0,0.0
12.828125,35356.92,0.183,0.0,0.0,254.49933,10603.0,100.0,0.0,-0.03454967,0.0,7.0,0.0,0.0,4000000.0,110.0,1.0,0.0,0.0,10.0,0.0,0.0,-452.83078,-3.3304935,332.1744,-0.1473903,0.5310875,-0.27461427,259.7801,260.10718,254.37991,254.34532,526.0,528.0,594.0,599.0,97.0,97.0,97.0,97.0,0.0,0.0,0.0,0.0,0.045528565,0.045673274,0.049734544,0.05121659,0.0,0.0,0.0,0.0,-2080.2405,-2435.593,2232.5366,-1776.0245,0.0,0.0,0.0,2.0,1.0,2.4976203,0.018984422,-0.0032881498,97.0,97.0,97.0,97.0,21.710573,21.710573,24.666473,24.666473,0.021153862,0.021967115,-5.260099E-4,-5.7323737E-4,1083.8016,0.0,0.0,0.0,0.0,0.0,0.0,0.0,0.0,0.0,0.0,0.0,0.0,0.0,42.373158,0.2108651,-56.587536,-0.135787,-0.003455944,0.108744465,542747.75,119984.91,0.017876357,0.0169435,6784.6084,6675.6484,4298.505,5002.685,0.312438,0.0,0.0,0.0
16.371094,35360.465,0.233,0.0,0.0,255.44356,10641.0,100.0,0.0,-0.07592582,0.0,7.0,0.0,0.0,4000000.0,110.0,1.0,0.0,0.0,10.0,0.0,0.0,-450.70685,-3.3218224,329.34045,-0.066248134,0.52821285,0.021806842,260.80872,260.94305,255.29196,255.33797,524.0,526.0,592.0,597.0,97.0,97.0,97.0,97.0,0.0,0.0,0.0,0.0,0.046582,0.041882236,0.051231284,0.051554807,0.0,0.0,0.0,0.0,-1783.5748,3755.9905,332.66086,600.6136,0.0,0.0,0.0,2.0,1.0,2.4978266,0.013064981,-0.0021071434,97.0,97.0,97.0,97.0,21.710573,21.710573,24.666473,24.666473,0.02083846,0.021412438,-4.9761374E-4,-5.072648E-4,1089.0144,0.0,0.0,0.0,0.0,0.0,0.0,0.0,0.0,0.0,0.0,0.0,0.0,0.0,42.571487,0.16614054,-56.76682,-0.025489181,0.007840029,0.052592456,543410.7,119984.89,0.015066048,0.017063482,7316.3857,6728.355,5661.9307,5747.0815,0.31181526,0.0,0.0,0.0
19.925781,35364.02,0.283,0.0,0.0,256.38757,10666.0,100.0,0.0,-0.03706694,0.0,7.0,0.0,0.0,4000000.0,110.0,1.0,0.0,0.0,10.0,0.0,0.0,-448.57394,-3.3127596,326.4967,-1.4254451E-4,0.5313105,0.072665006,261.36945,261.56683,256.22168,256.2816,522.0,524.0,590.0,595.0,97.0,97.0,97.0,97.0,0.0,0.0,0.0,0.0,0.047490187,0.045228213,0.050933342,0.05190271,0.0,0.0,0.0,0.0,3040.9272,-1240.3202,-400.06482,149.94887,0.0,0.0,0.0,2.0,1.0,2.4982975,0.01039588,-0.0033848286,97.0,97.0,97.0,97.0,21.710573,21.710573,24.666473,24.666473,0.01961899,0.020163901,-5.2424823E-4,-5.1542395E-4,1092.4286,0.0,0.0,0.0,0.0,0.0,0.0,0.0,0.0,0.0,0.0,0.0,0.0,0.0,42.7328,0.19637349,-56.973522,-0.030873286,0.009494419,0.07000596,543836.7,119984.91,0.015040993,0.0140906675,7866.0933,7450.5195,5093.8794,5631.652,0.30997944,0.0,0.0,0.0
23.496094,35367.59,0.333,0.0,0.0,257.3082,10705.0,100.0,0.0,0.08426125,0.0,7.0,0.0,0.0,4000000.0,110.0,1.0,0.0,0.0,10.0,0.0,0.0,-446.4334,-3.3020406,323.64255,0.020691276,0.51964515,0.099086195,262.38654,262.46857,257.16995,257.18094,520.0,521.0,588.0,593.0,97.0,97.0,97.0,97.0,0.0,0.0,0.0,0.0,0.04821189,0.045953423,0.051263023,0.05183435,0.0,0.0,0.0,0.0,-2334.809,1348.4402,-606.1792,960.0965,0.0,0.0,0.0,2.0,1.0,2.4985814,0.007233229,-0.0036904812,97.0,97.0,97.0,97.0,21.710573,21.710573,24.666473,24.666473,0.019790495,0.02007353,-5.1852333E-4,-5.0236384E-4,1097.7983,0.0,0.0,0.0,0.0,0.0,0.0,0.0,0.0,0.0,0.0,0.0,0.0,0.0,42.88111,0.23453744,-57.18181,-0.01921002,0.0010967437,0.035583045,544518.8,119984.9,0.014007035,0.013394713,7670.6655,7479.835,5449.9507,5739.4043,0.3092041,0.0,0.0,0.0
27.078125,35371.17,0.383,0.0,0.0,258.219,10741.0,100.0,0.0,0.059309486,0.0,7.0,0.0,0.0,4000000.0,110.0,1.0,0.0,0.0,10.0,0.0,0.0,-444.28543,-3.2893994,320.77808,0.0129574835,0.5184,0.045157768,263.298,263.32834,258.0913,258.0766,518.0,519.0,586.0,591.0,97.0,97.0,97.0,97.0,0.0,0.0,0.0,0.0,0.048075333,0.046564315,0.05135362,0.051703837,0.0,0.0,0.0,0.0,716.61914,999.2836,-750.13336,-162.94414,0.0,0.0,0.0,2.0,1.0,2.4985228,0.005133017,-0.004366994,97.0,97.0,97.0,97.0,21.710573,21.710573,24.666473,24.666473,0.019686138,0.019898258,-5.1594415E-4,-5.122707E-4,1102.7655,0.0,0.0,0.0,0.0,0.0,0.0,0.0,0.0,0.0,0.0,0.0,0.0,0.0,43.028034,0.26520425,-57.38773,-0.0091421055,-0.0029278728,0.031820636,545149.3,119984.9,0.014151242,0.012603392,7726.1035,7559.0835,5339.7876,5503.2046,0.30829906,0.0,0.0,0.0
30.671875,35374.766,0.433,0.0,0.0,259.1186,10779.0,100.0,0.0,0.011030393,0.0,7.0,0.0,0.0,4000000.0,110.0,1.0,0.0,0.0,10.0,0.0,0.0,-442.1302,-3.2754605,317.90323,0.0055041164,0.50592905,0.10640518,264.2478,264.25418,258.99033,258.98282,515.0,517.0,584.0,589.0,97.0,97.0,97.0,97.0,0.0,0.0,0.0,0.0,0.048191648,0.046875887,0.051736176,0.05164076,0.0,0.0,0.0,0.0,-185.6759,254.80986,922.45184,157.13719,0.0,0.0,0.0,2.0,1.0,2.4984286,0.0036424878,-0.0044523478,97.0,97.0,97.0,97.0,21.710573,21.710573,24.666473,24.666473,0.019732788,0.019908657,-5.0150754E-4,-5.0048257E-4,1108.0206,0.0,0.0,0.0,0.0,0.0,0.0,0.0,0.0,0.0,0.0,0.0,0.0,0.0,43.175133,0.297888,-57.589607,0.007705424,-0.0014163507,0.0037824928,545816.1,119984.9,0.013486288,0.012782971,7693.072,7513.956,5824.3486,5700.111,0.30843735,0.0,0.0,0.0
34.277344,35378.37,0.483,0.0,0.0,260.00574,10816.0,100.0,0.0,0.0029284381,0.0,7.0,0.0,0.0,4000000.0,110.0,1.0,0.0,0.0,10.0,0.0,0.0,-439.96765,-3.2606618,315.0185,0.0012041926,0.5005511,0.026113542,265.10443,265.20618,259.87067,259.88068,513.0,515.0,582.0,587.0,97.0,97.0,97.0,97.0,0.0,0.0,0.0,0.0,0.047995325,0.04683686,0.051289067,0.05151937,0.0,0.0,0.0,0.0,1498.2817,-688.1877,1423.7299,90.95369,0.0,0.0,0.0,2.0,1.0,2.4984617,0.0026372569,-0.0043541193,97.0,97.0,97.0,97.0,21.710573,21.710573,24.666473,24.666473,0.019606857,0.020010523,-5.0498574E-4,-5.0062017E-4,1113.1343,0.0,0.0,0.0,0.0,0.0,0.0,0.0,0.0,0.0,0.0,0.0,0.0,0.0,43.319725,0.29780725,-57.789207,-0.01639416,0.0014762628,0.006247841,546459.4,119984.89,0.014484623,0.013001154,7720.54,7415.5015,5436.964,5479.2124,0.31078625,0.0,0.0,0.0
37.89453,35381.99,0.533,0.0,0.0,260.8808,10851.0,100.0,0.0,-0.020884939,0.0,7.0,0.0,0.0,4000000.0,110.0,1.0,0.0,0.0,10.0,0.0,0.0,-437.79803,-3.2460737,312.12387,0.007831544,0.5010483,0.0020652304,265.97638,266.0427,260.7393,260.7546,511.0,513.0,580.0,585.0,97.0,97.0,97.0,97.0,0.0,0.0,0.0,0.0,0.04716879,0.046664827,0.051534805,0.051559083,0.0,0.0,0.0,0.0,2477.355,812.09235,518.47095,-336.5501,0.0,0.0,0.0,2.0,1.0,2.4985719,0.001982195,-0.00463295,97.0,97.0,97.0,97.0,21.710573,21.710573,24.666473,24.666473,0.01965588,0.01986615,-5.0696085E-4,-5.032719E-4,1117.9796,0.0,0.0,0.0,0.0,0.0,0.0,0.0,0.0,0.0,0.0,0.0,0.0,0.0,43.45989,0.2885042,-57.987976,0.004123562,0.0024084807,0.015147591,547067.75,119984.9,0.013984994,0.0133089,7655.1895,7524.685,5546.5225,5508.538,0.30949783,0.0,0.0,0.0
41.527344,35385.62,0.583,0.0,0.0,261.75046,10884.0,100.0,0.0,0.016099168,0.0,7.0,0.0,0.0,4000000.0,110.0,1.0,0.0,0.0,10.0,0.0,0.0,-435.62134,-3.2309282,309.21936,0.005755797,0.49153528,0.07152139,266.78796,266.84326,261.6134,261.6204,509.0,511.0,578.0,583.0,97.0,97.0,97.0,97.0,0.0,0.0,0.0,0.0,0.048172455,0.047777608,0.05161618,0.05180751,0.0,0.0,0.0,0.0,980.3876,-719.7975,305.26215,-230.42854,0.0,0.0,0.0,2.0,1.0,2.4986708,0.0010752602,-0.00529325,97.0,97.0,97.0,97.0,21.710573,21.710573,24.666473,24.666473,0.019312004,0.019513514,-5.031555E-4,-4.980826E-4,1122.5568,0.0,0.0,0.0,0.0,0.0,0.0,0.0,0.0,0.0,0.0,0.0,0.0,0.0,43.59983,0.31831267,-58.184822,-0.002523047,8.4340776E-4,0.02543357,547642.06,119984.89,0.013073629,0.011578649,7820.5254,7676.8667,5615.5713,5687.136,0.30856133,0.0,0.0,0.0
45.16797,35389.26,0.633,0.0,0.0,262.6101,10917.0,100.0,0.0,-0.10148266,0.0,7.0,0.0,0.0,4000000.0,110.0,1.0,0.0,0.0,10.0,0.0,0.0,-433.4378,-3.213555,306.30496,0.02915901,0.48415753,0.10437493,267.63004,267.6237,262.46292,262.4909,507.0,508.0,576.0,581.0,97.0,97.0,97.0,97.0,0.0,0.0,0.0,0.0,0.048374407,0.048623938,0.051728845,0.051862754,0.0,0.0,0.0,0.0,-97.27028,-244.45654,-811.7034,-221.76501,0.0,0.0,0.0,2.0,1.0,2.4988174,8.524762E-4,-0.006027937,97.0,97.0,97.0,97.0,21.710573,21.710573,24.666473,24.666473,0.019189207,0.019086378,-4.9610884E-4,-5.0022436E-4,1127.1484,0.0,0.0,0.0,0.0,0.0,0.0,0.0,0.0,0.0,0.0,0.0,0.0,0.0,43.733482,0.37318885,-58.38274,0.010581199,0.004859828,0.0036749493,548219.94,119984.9,0.013405126,0.010738949,7866.617,7903.164,5586.1973,5664.8896,0.30760288,0.0,0.0,0.0
48.82422,35392.918,0.683,0.0,0.0,263.44803,10957.0,100.0,0.0,-0.10685234,0.0,7.0,0.0,0.0,4000000.0,110.0,1.0,0.0,0.0,10.0,0.0,0.0,-431.24774,-3.1942036,303.38068,0.036329016,0.46650064,-0.013768383,268.6634,268.56168,263.30865,263.332,505.0,506.0,574.0,579.0,97.0,97.0,97.0,97.0,0.0,0.0,0.0,0.0,0.04769971,0.048193894,0.05160483,0.051188774,0.0,0.0,0.0,0.0,-1495.9617,-245.35501,179.41293,487.25003,0.0,0.0,0.0,2.0,1.0,2.499044,0.0014828626,-0.0056734085,97.0,97.0,97.0,97.0,21.710573,21.710573,24.666473,24.666473,0.01978226,0.019330699,-4.895418E-4,-4.8926956E-4,1132.7214,0.0,0.0,0.0,0.0,0.0,0.0,0.0,0.0,0.0,0.0,0.0,0.0,0.0,43.860233,0.3893204,-58.57851,-6.536562E-4,0.004096991,-0.034086682,548919.25,119984.9,0.016104957,0.012921209,7432.3516,7733.8438,5443.888,5233.6733,0.31041336,0.0,0.0,0.0
52.492188,35396.586,0.733,0.0,0.0,264.26895,11000.0,100.0,0.0,-0.2139799,0.0,7.0,0.0,0.0,4000000.0,110.0,1.0,0.0,0.0,10.0,0.0,0.0,-429.05145,-3.1769774,300.44675,0.048646525,0.47703826,-0.23771355,269.67734,269.6702,264.11826,264.16095,503.0,504.0,572.0,577.0,97.0,97.0,97.0,97.0,0.0,0.0,0.0,0.0,0.045575183,0.045694567,0.050822295,0.051135845,0.0,0.0,0.0,0.0,1372.0706,2438.2754,633.8998,3408.0413,0.0,0.0,0.0,2.0,1.0,2.499285,0.0032917743,-0.004480839,97.0,97.0,97.0,97.0,21.710573,21.710573,24.666473,24.666473,0.020643532,0.020484304,-4.8584762E-4,-5.059603E-4,1138.697,0.0,0.0,0.0,0.0,0.0,0.0,0.0,0.0,0.0,0.0,0.0,0.0,0.0,43.983185,0.28622758,-58.771915,0.009240614,0.00819401,-0.045361973,549657.94,119984.89,0.016673312,0.015958378,7067.3477,7105.578,5048.9375,5334.3057,0.31251907,0.0,0.0,0.0
56.171875,35400.266,0.783,0.0,0.0,265.10226,11018.0,100.0,0.0,-0.20028204,0.0,7.0,0.0,0.0,4000000.0,110.0,1.0,0.0,0.0,10.0,0.0,0.0,-426.84924,-3.1627986,297.5027,0.05798909,0.46923602,0.16109736,270.0811,270.11285,264.9299,265.0052,500.0,502.0,570.0,574.0,97.0,97.0,97.0,97.0,0.0,0.0,0.0,0.0,0.04694618,0.048031546,0.051870815,0.052301902,0.0,0.0,0.0,0.0,3663.2402,2671.909,351.57062,-977.7455,0.0,0.0,0.0,2.0,1.0,2.4998636,0.0038806533,-0.005271554,97.0,97.0,97.0,97.0,21.710573,21.710573,24.666473,24.666473,0.019021345,0.018839046,-4.8879697E-4,-4.8588347E-4,1140.5991,0.0,0.0,0.0,0.0,0.0,0.0,0.0,0.0,0.0,0.0,0.0,0.0,0.0,44.098137,0.3078973,-58.974895,0.023061294,0.01251778,0.03458333,549676.6,119984.9,0.013430493,0.013067362,7941.111,8081.525,5996.8413,6119.3765,0.30966473,0.0,0.0,0.0
59.86328,35403.957,0.833,0.0,0.0,265.9173,11046.0,100.0,0.0,-0.27154335,0.0,7.0,0.0,0.0,4000000.0,110.0,1.0,0.0,0.0,10.0,0.0,0.0,-424.64157,-3.1447413,294.54865,0.08718683,0.4589872,0.248187,270.70404,270.84583,265.73944,265.83133,498.0,500.0,568.0,572.0,97.0,97.0,97.0,97.0,0.0,0.0,0.0,0.0,0.04962972,0.04905136,0.051712673,0.05271825,0.0,0.0,0.0,0.0,-3391.4783,-183.79834,67.57823,360.23407,0.0,0.0,0.0,2.0,1.0,2.500562,0.0027327614,-0.0066856146,97.0,97.0,97.0,97.0,21.710573,21.710573,24.666473,24.666473,0.018223802,0.018408628,-4.8259136E-4,-4.9199327E-4,1143.5593,0.0,0.0,0.0,0.0,0.0,0.0,0.0,0.0,0.0,0.0,0.0,0.0,0.0,44.202602,0.4157499,-59.1788,-0.0025109593,0.015812147,0.025533885,549706.25,119984.9,0.012115364,0.009859624,8436.516,8235.339,5731.0327,6239.7188,0.30809212,0.0,0.0,0.0
63.5625,35407.656,0.883,0.0,0.0,266.70706,11082.0,100.0,0.0,-0.26310518,0.0,7.0,0.0,0.0,4000000.0,110.0,1.0,0.0,0.0,10.0,0.0,0.0,-422.429,-3.1214838,291.58426,0.10535033,0.44731703,0.08808406,271.6225,271.7219,266.52536,266.62582,496.0,498.0,566.0,570.0,97.0,97.0,97.0,97.0,0.0,0.0,0.0,0.0,0.048868008,0.048613068,0.05171479,0.05256194,0.0,0.0,0.0,0.0,254.95735,436.36853,-251.22908,-709.5917,0.0,0.0,0.0,2.0,1.0,2.501412,9.827976E-4,-0.007417321,97.0,97.0,97.0,97.0,21.710573,21.710573,24.666473,24.666473,0.018618274,0.018645668,-4.8495195E-4,-4.8252684E-4,1147.3674,0.0,0.0,0.0,0.0,0.0,0.0,0.0,0.0,0.0,0.0,0.0,0.0,0.0,44.29442,0.49395403,-59.383427,-0.011926965,0.016657915,0.03157082,549745.1,119984.9,0.01188173,0.010110307,8094.8687,8014.7295,5601.46,5930.6934,0.30663586,0.0,0.0,0.0
67.27734,35411.37,0.933,0.0,0.0,267.4901,11118.0,100.0,0.0,-0.27194688,0.0,7.0,0.0,0.0,4000000.0,110.0,1.0,0.0,0.0,10.0,0.0,0.0,-420.212,-3.0953887,288.60956,0.117477015,0.43861517,0.007515941,272.5272,272.56073,267.31604,267.4053,494.0,496.0,564.0,568.0,97.0,97.0,97.0,97.0,0.0,0.0,0.0,0.0,0.0483793,0.048351076,0.051853552,0.052025728,0.0,0.0,0.0,0.0,-965.83655,-471.78705,-104.33792,-102.09823,0.0,0.0,0.0,2.0,1.0,2.5022144,-6.727113E-4,-0.007611513,97.0,97.0,97.0,97.0,21.710573,21.710573,24.666473,24.666473,0.018972596,0.018826898,-4.809938E-4,-4.77338E-4,1151.1738,0.0,0.0,0.0,0.0,0.0,0.0,0.0,0.0,0.0,0.0,0.0,0.0,0.0,44.378582,0.53317004,-59.59165,-0.004942163,0.014840595,0.003980203,549782.94,119984.91,0.012643085,0.010963902,7793.5522,7871.8555,5666.6875,5676.453,0.30854416,0.0,0.0,0.0
71.0,35415.094,0.983,0.0,0.0,268.26215,11149.0,100.0,0.0,-0.3505168,0.0,7.0,0.0,0.0,4000000.0,110.0,1.0,0.0,0.0,10.0,0.0,0.0,-417.991,-3.0682137,285.62445,0.13021296,0.43637976,0.0023395487,273.33365,273.27893,268.0833,268.17725,492.0,494.0,562.0,566.0,97.0,97.0,97.0,97.0,0.0,0.0,0.0,0.0,0.04805261,0.04860933,0.051896792,0.05198415,0.0,0.0,0.0,0.0,141.40605,324.7216,-1147.2745,-124.41426,0.0,0.0,0.0,2.0,1.0,2.5029702,-2.7675077E-4,-0.0081499815,97.0,97.0,97.0,97.0,21.710573,21.710573,24.666473,24.666473,0.01912499,0.018608415,-4.7589358E-4,-4.818844E-4,1154.4534,0.0,0.0,0.0,0.0,0.0,0.0,0.0,0.0,0.0,0.0,0.0,0.0,0.0,44.457077,0.548417,-59.80042,0.024083568,0.016189016,-0.008017068,549816.1,119984.91,0.013643185,0.011370371,7676.0674,8014.31,5641.0674,5714.249,0.308527,0.0,0.0,0.0
74.734375,35418.83,1.033,0.0,0.0,269.02307,11181.0,100.0,0.0,-0.36342767,0.0,7.0,0.0,0.0,4000000.0,110.0,1.0,0.0,0.0,10.0,0.0,0.0,-415.76614,-3.0408423,282.6289,0.1322799,0.42364427,0.018006759,274.09283,274.11868,268.83755,268.9561,490.0,492.0,560.0,564.0,97.0,97.0,97.0,97.0,0.0,0.0,0.0,0.0,0.04825229,0.048399292,0.051385485,0.052041933,0.0,0.0,0.0,0.0,-1820.0396,-683.93634,899.5189,425.9079,0.0,0.0,0.0,2.0,1.0,2.503883,1.353487E-5,-0.00792706,97.0,97.0,97.0,97.0,21.710573,21.710573,24.666473,24.666473,0.019051727,0.018711625,-4.6881908E-4,-4.7169384E-4,1157.8398,0.0,0.0,0.0,0.0,0.0,0.0,0.0,0.0,0.0,0.0,0.0,0.0,0.0,44.53118,0.5504029,-60.008663,-0.012976062,0.020187743,-0.0037887197,549850.8,119984.9,0.01509547,0.012456462,7677.185,7889.972,5516.9077,5823.744,0.31083965,0.0,0.0,0.0
78.47656,35422.57,1.083,0.0,0.0,269.76797,11215.0,100.0,0.0,-0.384428,0.0,7.0,0.0,0.0,4000000.0,110.0,1.0,0.0,0.0,10.0,0.0,0.0,-413.5378,-3.014855,279.6231,0.13848782,0.4346294,-0.12678999,274.8722,274.99033,269.5725,269.70505,488.0,490.0,558.0,562.0,97.0,97.0,97.0,97.0,0.0,0.0,0.0,0.0,0.04712246,0.04729176,0.05100083,0.05205404,0.0,0.0,0.0,0.0,3577.1277,1196.6539,3161.9084,93.82366,0.0,0.0,0.0,2.0,1.0,2.5049546,-0.0014060519,-0.0075712204,97.0,97.0,97.0,97.0,21.710573,21.710573,24.666473,24.666473,0.019254109,0.019250566,-4.7598706E-4,-4.781409E-4,1161.4364,0.0,0.0,0.0,0.0,0.0,0.0,0.0,0.0,0.0,0.0,0.0,0.0,0.0,44.599823,0.48358482,-60.215927,-0.031582035,0.022118466,0.03989541,549886.6,119984.91,0.014710382,0.0132436035,7608.5537,7552.3955,5371.8784,5756.1323,0.3110466,0.0,0.0,0.0
82.234375,35426.33,1.133,0.0,0.0,270.5188,11232.0,100.0,0.0,-0.14152655,0.0,7.0,0.0,0.0,4000000.0,110.0,1.0,0.0,0.0,10.0,0.0,0.0,-411.30603,-2.9897876,276.60675,0.124070495,0.42531136,0.2908469,275.30936,275.39746,270.3346,270.43384,486.0,487.0,556.0,560.0,97.0,97.0,97.0,97.0,0.0,0.0,0.0,0.0,0.049848605,0.049570214,0.052328914,0.053008944,0.0,0.0,0.0,0.0,1880.6976,1442.5186,458.4163,200.61583,0.0,0.0,0.0,2.0,1.0,2.5059795,-0.0030606738,-0.008895636,97.0,97.0,97.0,97.0,21.710573,21.710573,24.666473,24.666473,0.017960245,0.018001538,-4.8294273E-4,-4.5575795E-4,1163.2365,0.0,0.0,0.0,0.0,0.0,0.0,0.0,0.0,0.0,0.0,0.0,0.0,0.0,44.668648,0.54963094,-60.423897,0.030273309,0.015718412,0.045391515,549905.3,119984.914,0.010888773,0.009369284,8471.827,8386.573,6402.659,6678.961,0.30718517,0.0,0.0,0.0
86.0,35430.094,1.183,0.0,0.0,271.251,11260.0,100.0,0.0,-0.06397463,0.0,7.0,0.0,0.0,4000000.0,110.0,1.0,0.0,0.0,10.0,0.0,0.0,-409.0706,-2.9582188,273.5803,0.09417547,0.40577835,0.29894343,275.9937,276.0451,271.10352,271.14594,484.0,485.0,554.0,558.0,97.0,97.0,97.0,97.0,0.0,0.0,0.0,0.0,0.049808383,0.049927395,0.052182414,0.05281981,0.0,0.0,0.0,0.0,991.34436,-1309.2532,980.0522,233.40579,0.0,0.0,0.0,2.0,1.0,2.506486,-0.0037482071,-0.009811044,97.0,97.0,97.0,97.0,21.710573,21.710573,24.666473,24.666473,0.017539918,0.017562449,-4.7332255E-4,-4.589071E-4,1166.1978,0.0,0.0,0.0,0.0,0.0,0.0,0.0,0.0,0.0,0.0,0.0,0.0,0.0,44.745003,0.70048237,-60.618813,-0.024310261,0.0062119747,0.018721431,549934.3,119984.91,0.012023298,0.008321799,8654.68,8688.398,6016.312,6285.7573,0.30797577,0.0,0.0,0.0
89.77344,35433.867,1.233,0.0,0.0,271.9446,11299.0,100.0,0.0,0.038870674,0.0,7.0,0.0,0.0,4000000.0,110.0,1.0,0.0,0.0,10.0,0.0,0.0,-406.83112,-2.9221506,270.5447,0.0489583,0.39623505,-0.039196257,277.04532,276.9449,271.81955,271.81546,482.0,483.0,552.0,556.0,97.0,97.0,97.0,97.0,0.0,0.0,0.0,0.0,0.048098676,0.04856687,0.05222468,0.051968466,0.0,0.0,0.0,0.0,1703.5376,2174.2922,214.61693,-525.1363,0.0,0.0,0.0,2.0,1.0,2.506609,-0.0039710724,-0.009835124,97.0,97.0,97.0,97.0,21.710573,21.710573,24.666473,24.666473,0.01870995,0.018440379,-4.694984E-4,-4.5021455E-4,1170.3267,0.0,0.0,0.0,0.0,0.0,0.0,0.0,0.0,0.0,0.0,0.0,0.0,0.0,44.833008,0.71937704,-60.7931,0.014303612,-0.0013758125,-0.009915563,549976.44,119984.914,0.014885308,0.012515999,7766.9897,7980.914,5825.202,5597.238,0.3095503,0.0,0.0,0.0
93.55469,35437.65,1.283,0.0,0.0,272.65182,11329.0,100.0,0.0,-0.15616566,0.0,7.0,0.0,0.0,4000000.0,110.0,1.0,0.0,0.0,10.0,0.0,0.0,-404.58688,-2.888613,267.5005,0.044557706,0.40342557,-0.0018350222,277.7079,277.7362,272.50778,272.53598,480.0,481.0,550.0,554.0,97.0,97.0,97.0,97.0,0.0,0.0,0.0,0.0,0.048003826,0.04777213,0.051981635,0.052214026,0.0,0.0,0.0,0.0,2927.966,763.31635,1453.6902,1115.1818,0.0,0.0,0.0,2.0,1.0,2.5066886,-0.004234698,-0.0099051,97.0,97.0,97.0,97.0,21.710573,21.710573,24.666473,24.666473,0.01866493,0.018753398,-4.5635592E-4,-4.6794253E-4,1173.5015,0.0,0.0,0.0,0.0,0.0,0.0,0.0,0.0,0.0,0.0,0.0,0.0,0.0,44.929718,0.6552263,-60.966606,0.018932372,0.0051967907,0.013773178,550008.06,119984.9,0.012419289,0.0119389715,7865.2085,7713.558,6091.4976,6205.918,0.3099146,0.0,0.0,0.0
97.34766,35441.44,1.333,0.0,0.0,273.3641,11345.0,100.0,0.0,-0.1594258,0.0,7.0,0.0,0.0,4000000.0,110.0,1.0,0.0,0.0,10.0,0.0,0.0,-402.3377,-2.8539028,264.4476,0.050075173,0.4028458,0.24226142,278.09943,278.114,273.20972,273.262,478.0,479.0,548.0,552.0,97.0,97.0,97.0,97.0,0.0,0.0,0.0,0.0,0.049951777,0.050229292,0.0520886,0.052693132,0.0,0.0,0.0,0.0,-77.87795,-1736.14,-338.56177,525.7129,0.0,0.0,0.0,2.0,1.0,2.507054,-0.0036744417,-0.011165857,97.0,97.0,97.0,97.0,21.710573,21.710573,24.666473,24.666473,0.017462341,0.017327327,-4.6314625E-4,-4.720609E-4,1175.1952,0.0,0.0,0.0,0.0,0.0,0.0,0.0,0.0,0.0,0.0,0.0,0.0,0.0,45.028206,0.74320537,-61.138798,-0.0014143852,0.009044421,0.005596007,550025.1,119984.914,0.011112638,0.007867011,8698.436,8739.807,5877.2065,6224.617,0.30615425,0.0,0.0,0.0
101.14844,35445.242,1.383,0.0,0.0,274.04196,11379.0,100.0,0.0,-0.07201085,0.0,7.0,0.0,0.0,4000000.0,110.0,1.0,0.0,0.0,10.0,0.0,0.0,-400.0839,-2.8138902,261.3863,0.048752517,0.38551962,0.04372623,278.98492,278.8985,273.89795,273.92712,476.0,477.0,546.0,550.0,97.0,97.0,97.0,97.0,0.0,0.0,0.0,0.0,0.0487281,0.049177237,0.05289638,0.05235807,0.0,0.0,0.0,0.0,-339.67493,2683.0938,-1174.9548,-803.2813,0.0,0.0,0.0,2.0,1.0,2.5074308,-0.0037570423,-0.011462808,97.0,97.0,97.0,97.0,21.710573,21.710573,24.666473,24.666473,0.018140187,0.017740106,-4.6468666E-4,-4.574186E-4,1178.7427,0.0,0.0,0.0,0.0,0.0,0.0,0.0,0.0,0.0,0.0,0.0,0.0,0.0,45.120506,0.8256348,-61.303616,0.029695317,0.0050100936,-0.015890542,550037.0,119984.91,0.009740797,0.008872573,8066.255,8390.312,6261.095,5922.525,0.30441952,0.0,0.0,0.0
104.96094,35449.055,1.433,0.0,0.0,274.7242,11403.0,100.0,0.0,-0.0026813163,0.0,7.0,0.0,0.0,4000000.0,110.0,1.0,0.0,0.0,10.0,0.0,0.0,-397.82535,-2.7705185,258.31677,0.0413263,0.38327238,0.16562034,279.68002,279.40182,274.59863,274.58865,474.0,475.0,544.0,548.0,97.0,97.0,97.0,97.0,0.0,0.0,0.0,0.0,0.04883945,0.050327808,0.054056704,0.051784813,0.0,0.0,0.0,0.0,-5369.0034,768.7076,-7293.2607,1712.6573,0.0,0.0,0.0,2.0,1.0,2.50749,7.506954E-4,-0.012598515,97.0,97.0,97.0,97.0,21.710573,21.710573,24.666473,24.666473,0.018062247,0.017134618,-4.6609997E-4,-4.5426638E-4,1180.188,0.0,0.0,0.0,0.0,0.0,0.0,0.0,0.0,0.0,0.0,0.0,0.0,0.0,45.217197,0.91374236,-61.46653,0.12084167,-1.5116273E-4,-0.118417084,549552.4,119984.9,0.009076979,0.007592723,8011.376,8882.215,6668.5537,5825.5015,0.30488586,0.0,0.0,0.0
108.78125,35452.875,1.483,0.0,0.0,275.38898,11439.0,100.0,0.0,-0.062014315,0.0,7.0,0.0,0.0,4000000.0,110.0,1.0,0.0,0.0,10.0,0.0,0.0,-395.56186,-2.7241852,255.23936,0.010546207,0.37071782,-0.1415025,280.56787,280.27747,275.27722,275.25443,472.0,473.0,542.0,547.0,97.0,97.0,97.0,97.0,0.0,0.0,0.0,0.0,0.047688145,0.049278803,0.052576233,0.051239904,0.0,0.0,0.0,0.0,-4325.6113,-1071.6497,63.43425,-229.47635,0.0,0.0,0.0,2.0,1.0,2.507336,0.006372367,-0.012349725,97.0,97.0,97.0,97.0,21.710573,21.710573,24.666473,24.666473,0.018771205,0.017768592,-4.5383954E-4,-4.5776903E-4,1182.3916,0.0,0.0,0.0,0.0,0.0,0.0,0.0,0.0,0.0,0.0,0.0,0.0,0.0,45.31998,0.9129975,-61.620182,0.023649769,-0.002505403,-0.08522925,548845.75,119984.9,0.011935574,0.009049334,7382.05,8344.326,5796.617,5189.9863,0.3081026,0.0,0.0,0.0
112.609375,35456.703,1.533,0.0,0.0,276.04263,11472.0,100.0,0.0,-0.16499701,0.0,7.0,0.0,0.0,4000000.0,110.0,1.0,0.0,0.0,10.0,0.0,0.0,-393.29303,-2.6812758,252.1544,0.003907487,0.36695427,-0.19564912,281.2576,281.20197,275.90976,275.92828,470.0,471.0,540.0,545.0,97.0,97.0,97.0,97.0,0.0,0.0,0.0,0.0,0.046711963,0.047792815,0.05203944,0.051716063,0.0,0.0,0.0,0.0,513.24066,145.73787,751.7292,-213.8927,0.0,0.0,0.0,2.0,1.0,2.5073314,0.009539076,-0.010834098,97.0,97.0,97.0,97.0,21.710573,21.710573,24.666473,24.666473,0.0189441,0.018705513,-4.3860174E-4,-4.5669117E-4,1184.4023,0.0,0.0,0.0,0.0,0.0,0.0,0.0,0.0,0.0,0.0,0.0,0.0,0.0,45.426846,0.81287956,-61.76839,0.022678655,0.0045875944,-0.050310284,548197.6,119984.9,0.012490978,0.012049586,7428.7686,7580.0156,5908.507,5740.2847,0.31152153,0.0,0.0,0.0
116.44922,35460.543,1.583,0.0,0.0,276.70273,11488.0,100.0,0.0,-0.123814866,0.0,7.0,0.0,0.0,4000000.0,110.0,1.0,0.0,0.0,10.0,0.0,0.0,-391.01898,-2.6424496,249.06195,0.017196596,0.37387836,-0.013796214,281.68457,281.56772,276.5556,276.5927,468.0,469.0,538.0,543.0,97.0,97.0,97.0,97.0,0.0,0.0,0.0,0.0,0.047854085,0.04948549,0.052535005,0.05178354,0.0,0.0,0.0,0.0,1883.9431,-879.3756,-287.11703,-305.3024,0.0,0.0,0.0,2.0,1.0,2.5076258,0.011830402,-0.01137042,97.0,97.0,97.0,97.0,21.710573,21.710573,24.666473,24.666473,0.018112877,0.017660752,-4.575587E-4,-4.5090375E-4,1185.3534,0.0,0.0,0.0,0.0,0.0,0.0,0.0,0.0,0.0,0.0,0.0,0.0,0.0,45.528908,0.76470155,-61.921574,0.04028973,0.006166699,-0.026676815,547873.7,119984.9,0.011725579,0.0095260395,7934.357,8306.15,6146.5137,5729.586,0.30853748,0.0,0.0,0.0
120.296875,35464.39,1.633,0.0,0.0,277.35046,11514.0,100.0,0.0,-0.1289162,0.0,7.0,0.0,0.0,4000000.0,110.0,1.0,0.0,0.0,10.0,0.0,0.0,-388.73996,-2.6047175,245.96184,0.025853857,0.36108747,-0.0031557344,282.28174,282.24948,277.2138,277.24652,466.0,467.0,536.0,541.0,97.0,97.0,97.0,97.0,0.0,0.0,0.0,0.0,0.04872364,0.04919044,0.052120116,0.051705644,0.0,0.0,0.0,0.0,-1487.2579,-1240.3472,1896.3348,1003.25336,0.0,0.0,0.0,2.0,1.0,2.5078785,0.014741797,-0.010487676,97.0,97.0,97.0,97.0,21.710573,21.710573,24.666473,24.666473,0.017831897,0.017614828,-4.4655462E-4,-4.5168886E-4,1186.9187,0.0,0.0,0.0,0.0,0.0,0.0,0.0,0.0,0.0,0.0,0.0,0.0,0.0,45.62513,0.7503335,-62.074333,0.002655737,0.0069398168,-0.070511706,547358.4,119984.91,0.01248193,0.009253994,8034.7324,8289.93,5929.095,5765.203,0.30898857,0.0,0.0,0.0
124.15234,35468.246,1.683,0.0,0.0,277.965,11540.0,100.0,0.0,-0.11624716,0.0,7.0,0.0,0.0,4000000.0,110.0,1.0,0.0,0.0,10.0,0.0,0.0,-386.45636,-2.566461,242.8543,0.02567634,0.35195416,-0.066193774,282.93695,282.87518,277.8201,277.85254,464.0,465.0,534.0,539.0,97.0,97.0,97.0,97.0,0.0,0.0,0.0,0.0,0.048203398,0.04892991,0.052549243,0.052481066,0.0,0.0,0.0,0.0,3986.3926,615.1914,-976.6726,-1773.0472,0.0,0.0,0.0,2.0,1.0,2.5081434,0.016489826,-0.010719895,97.0,97.0,97.0,97.0,21.710573,21.710573,24.666473,24.666473,0.018026467,0.017702563,-4.4613006E-4,-4.441096E-4,1188.4778,0.0,0.0,0.0,0.0,0.0,0.0,0.0,0.0,0.0,0.0,0.0,0.0,0.0,45.714447,0.7595797,-62.220436,0.022863584,0.00484102,0.017124943,546842.5,119984.9,0.01229655,0.010972488,7915.2183,8217.703,6025.3945,5978.123,0.30929756,0.0,0.0,0.0
128.01953,35472.113,1.733,0.0,0.0,278.5869,11561.0,100.0,0.0,-0.2659098,0.0,7.0,0.0,0.0,4000000.0,110.0,1.0,0.0,0.0,10.0,0.0,0.0,-384.1683,-2.5275197,239.73929,0.04880935,0.34547997,0.09290668,283.38043,283.42343,278.42935,278.4914,462.0,463.0,532.0,537.0,97.0,97.0,97.0,97.0,0.0,0.0,0.0,0.0,0.049346834,0.0495273,0.052376777,0.052796967,0.0,0.0,0.0,0.0,-535.8517,-2528.8667,168.13425,-1085.4229,0.0,0.0,0.0,2.0,1.0,2.5084953,0.016812034,-0.011698246,97.0,97.0,97.0,97.0,21.710573,21.710573,24.666473,24.666473,0.0173421,0.017294498,-4.3381448E-4,-4.5141508E-4,1189.7654,0.0,0.0,0.0,0.0,0.0,0.0,0.0,0.0,0.0,0.0,0.0,0.0,0.0,45.800762,0.8032203,-62.370842,0.009031944,0.0108123,0.012366928,546440.56,119984.9,0.011107449,0.00905637,8422.701,8417.228,6099.299,6271.507,0.30678844,0.0,0.0,0.0
131.89453,35475.99,1.783,0.0,0.0,279.19012,11587.0,100.0,0.0,-0.33902097,0.0,7.0,0.0,0.0,4000000.0,110.0,1.0,0.0,0.0,10.0,0.0,0.0,-381.87634,-2.4862428,236.61664,0.08796579,0.33499813,0.07453141,284.0508,284.06967,279.01672,279.11725,460.0,461.0,530.0,535.0,97.0,97.0,97.0,97.0,0.0,0.0,0.0,0.0,0.049208455,0.049180314,0.05241784,0.052872274,0.0,0.0,0.0,0.0,-42.43257,-1172.5677,130.51625,-619.99255,0.0,0.0,0.0,2.0,1.0,2.5092375,0.015705228,-0.011645079,97.0,97.0,97.0,97.0,21.710573,21.710573,24.666473,24.666473,0.01746547,0.017338777,-4.318395E-4,-4.423508E-4,1191.2864,0.0,0.0,0.0,0.0,0.0,0.0,0.0,0.0,0.0,0.0,0.0,0.0,0.0,45.87038,0.8471155,-62.527027,-0.008876086,0.017055774,0.014174216,545911.44,119984.91,0.010666884,0.009060942,8286.246,8304.881,6183.0293,6361.904,0.30575848,0.0,0.0,0.0
135.77344,35479.867,1.833,0.0,0.0,279.78656,11609.0,100.0,0.0,-0.25116348,0.0,7.0,0.0,0.0,4000000.0,110.0,1.0,0.0,0.0,10.0,0.0,0.0,-379.58136,-2.4435966,233.48595,0.10917299,0.33625644,0.12156773,284.55637,284.62796,279.60803,279.71613,458.0,459.0,529.0,533.0,97.0,97.0,97.0,97.0,0.0,0.0,0.0,0.0,0.049685497,0.049390003,0.052296355,0.053057104,0.0,0.0,0.0,0.0,-1009.6503,-464.66586,1017.13385,489.9993,0.0,0.0,0.0,2.0,1.0,2.5101578,0.014720549,-0.011960387,97.0,97.0,97.0,97.0,21.710573,21.710573,24.666473,24.666473,0.017257905,0.01716098,-4.4319057E-4,-4.323311E-4,1192.6072,0.0,0.0,0.0,0.0,0.0,0.0,0.0,0.0,0.0,0.0,0.0,0.0,0.0,45.92595,0.8724724,-62.691387,-0.006268064,0.017531075,0.01953439,545481.0,119984.9,0.01088214,0.008758277,8425.621,8469.618,6185.3027,6508.6616,0.30723286,0.0,0.0,0.0
139.66406,35483.758,1.883,0.0,0.0,280.36526,11634.0,100.0,0.0,-0.20292997,0.0,7.0,0.0,0.0,4000000.0,110.0,1.0,0.0,0.0,10.0,0.0,0.0,-377.2837,-2.3993924,230.34712,0.10257199,0.32688585,0.054528184,285.15775,285.23907,280.2009,280.281,456.0,457.0,527.0,531.0,97.0,97.0,97.0,97.0,0.0,0.0,0.0,0.0,0.04922204,0.049274728,0.052283045,0.053091023,0.0,0.0,0.0,0.0,3020.0461,-1704.6106,1577.8228,-622.04443,0.0,0.0,0.0,2.0,1.0,2.5109026,0.013785038,-0.012185693,97.0,97.0,97.0,97.0,21.710573,21.710573,24.666473,24.666473,0.017257852,0.017294584,-4.3766314E-4,-4.3139223E-4,1194.1061,0.0,0.0,0.0,0.0,0.0,0.0,0.0,0.0,0.0,0.0,0.0,0.0,0.0,45.977848,0.8946983,-62.852306,-0.01735826,0.012431771,0.04230114,544992.94,119984.9,0.010917464,0.009327926,8366.348,8337.818,6186.0366,6461.1445,0.30836487,0.0,0.0,0.0
143.5625,35487.656,1.933,0.0,0.0,280.94144,11654.0,100.0,0.0,-0.07033993,0.0,7.0,0.0,0.0,4000000.0,110.0,1.0,0.0,0.0,10.0,0.0,0.0,-374.98334,-2.3539917,227.20038,0.07635948,0.329775,0.11070425,285.6964,285.65836,280.7975,280.8336,454.0,455.0,525.0,529.0,97.0,97.0,97.0,97.0,0.0,0.0,0.0,0.0,0.049346916,0.0503553,0.05253959,0.05281753,0.0,0.0,0.0,0.0,2777.7625,-2585.2202,210.04376,22.356207,0.0,0.0,0.0,2.0,1.0,2.5113206,0.013980258,-0.01324749,97.0,97.0,97.0,97.0,21.710573,21.710573,24.666473,24.666473,0.01703077,0.016812403,-4.4387658E-4,-4.329941E-4,1195.3069,0.0,0.0,0.0,0.0,0.0,0.0,0.0,0.0,0.0,0.0,0.0,0.0,0.0,46.03607,0.92732394,-63.00755,0.0011688368,0.0049801082,0.021674171,544604.75,119984.91,0.010715627,0.007790888,8491.016,8745.213,6145.183,6270.01,0.30669022,0.0,0.0,0.0
147.46875,35491.562,1.983,0.0,0.0,281.5066,11680.0,100.0,0.0,-0.09115244,0.0,7.0,0.0,0.0,4000000.0,110.0,1.0,0.0,0.0,10.0,0.0,0.0,-372.67972,-2.3068588,224.04617,0.05362474,0.3152247,0.028035743,286.3609,286.31403,281.3815,281.39108,452.0,453.0,523.0,527.0,97.0,97.0,97.0,97.0,0.0,0.0,0.0,0.0,0.04898297,0.049506683,0.052375335,0.052698664,0.0,0.0,0.0,0.0,320.14844,404.1552,-359.83173,1250.6066,0.0,0.0,0.0,2.0,1.0,2.5114248,0.014524654,-0.012789965,97.0,97.0,97.0,97.0,21.710573,21.710573,24.666473,24.666473,0.017266642,0.017048845,-4.2711705E-4,-4.3420313E-4,1196.8081,0.0,0.0,0.0,0.0,0.0,0.0,0.0,0.0,0.0,0.0,0.0,0.0,0.0,46.105362,0.9518684,-63.15098,-0.008710661,0.0020546769,-0.01452961,544074.9,119984.9,0.01094221,0.008683535,8244.882,8462.52,6052.95,6308.827,0.306715,0.0,0.0,0.0
151.38281,35495.477,2.033,0.0,0.0,282.05887,11701.0,100.0,0.0,-0.14846586,0.0,7.0,0.0,0.0,4000000.0,110.0,1.0,0.0,0.0,10.0,0.0,0.0,-370.37256,-2.2587636,220.88503,0.0453917,0.31679785,0.045591008,286.79733,286.8605,281.91376,281.95132,450.0,451.0,521.0,525.0,97.0,97.0,97.0,97.0,0.0,0.0,0.0,0.0,0.049660176,0.04924027,0.0524468,0.053280883,0.0,0.0,0.0,0.0,-867.8152,1855.9542,-575.897,136.9938,0.0,0.0,0.0,2.0,1.0,2.5116339,0.013438289,-0.013375521,97.0,97.0,97.0,97.0,21.710573,21.710573,24.666473,24.666473,0.016969837,0.01706817,-4.2908534E-4,-4.3813646E-4,1198.0834,0.0,0.0,0.0,0.0,0.0,0.0,0.0,0.0,0.0,0.0,0.0,0.0,0.0,46.177944,0.9723062,-63.287643,0.0042139646,0.005959084,0.037341997,543677.1,119984.89,0.01031823,0.008634026,8544.471,8404.828,6149.6562,6554.4,0.30728912,0.0,0.0,0.0
155.30469,35499.4,2.083,0.0,0.0,282.6068,11721.0,100.0,0.0,-0.23071298,0.0,7.0,0.0,0.0,4000000.0,110.0,1.0,0.0,0.0,10.0,0.0,0.0,-368.06186,-2.2090595,217.71696,0.06482415,0.3088382,0.12112155,287.29825,287.3817,282.4487,282.5195,448.0,449.0,519.0,523.0,97.0,97.0,97.0,97.0,0.0,0.0,0.0,0.0,0.04967018,0.049648818,0.052598484,0.053102735,0.0,0.0,0.0,0.0,2048.5771,296.22314,2192.5312,610.055,0.0,0.0,0.0,2.0,1.0,2.512114,0.012156613,-0.013809323,97.0,97.0,97.0,97.0,21.710573,21.710573,24.666473,24.666473,0.016763823,0.016812839,-4.265928E-4,-4.3194156E-4,1199.2207,0.0,0.0,0.0,0.0,0.0,0.0,0.0,0.0,0.0,0.0,0.0,0.0,0.0,46.243664,1.0161842,-63.42742,-0.015778694,0.011627603,0.029829897,543264.7,119984.9,0.009669991,0.0078066364,8657.932,8601.669,6444.093,6576.183,0.30672455,0.0,0.0,0.0
159.23438,35503.33,2.133,0.0,0.0,283.14282,11743.0,100.0,0.0,-0.21645382,0.0,7.0,0.0,0.0,4000000.0,110.0,1.0,0.0,0.0,10.0,0.0,0.0,-365.7482,-2.1575966,214.54187,0.08110291,0.3095594,0.05635624,287.8904,287.85684,282.9859,283.05377,446.0,447.0,517.0,521.0,97.0,97.0,97.0,97.0,0.0,0.0,0.0,0.0,0.049273416,0.05030511,0.05274658,0.05267036,0.0,0.0,0.0,0.0,3942.5515,1775.7161,-668.3125,1113.8005,0.0,0.0,0.0,2.0,1.0,2.5126936,0.013021036,-0.014315128,97.0,97.0,97.0,97.0,21.710573,21.710573,24.666473,24.666473,0.016905122,0.016570125,-4.287859E-4,-4.308842E-4,1200.5206,0.0,0.0,0.0,0.0,0.0,0.0,0.0,0.0,0.0,0.0,0.0,0.0,0.0,46.29982,1.0377069,-63.570404,0.015695862,0.011656976,-0.014862521,542834.7,119984.9,0.010225499,0.0072776973,8496.948,8806.127,6179.8438,6215.3726,0.30587006,0.0,0.0,0.0
163.16797,35507.26,2.183,0.0,0.0,283.29385,11669.0,100.0,0.0,-0.18498877,0.0,7.0,0.0,0.0,4000000.0,110.0,1.0,0.0,0.0,10.0,0.0,0.0,-363.43216,-2.1046808,211.36021,0.08530636,-0.34403986,0.024232177,283.51654,283.57236,283.28024,283.3391,444.0,445.0,515.0,520.0,97.0,97.0,97.0,97.0,0.0,0.0,0.0,0.0,0.04876148,0.04890367,0.052080844,0.053419985,0.0,0.0,0.0,0.0,-1701.781,-839.79956,-1470.1052,855.4234,0.0,0.0,0.0,2.0,1.0,2.5132792,0.0132664945,-0.014091849,97.0,97.0,97.0,97.0,21.710573,21.710573,24.666473,24.666473,5.4684165E-4,4.8041076E-4,1.5079406E-5,-4.2832682E-5,1196.1786,0.0,0.0,0.0,0.0,0.0,0.0,0.0,0.0,0.0,0.0,0.0,0.0,0.0,46.291275,1.0677774,-63.628014,-0.045662135,0.012479565,0.013161048,544301.3,119984.9,0.009918384,0.008524229,8382.913,8489.604,5809.0938,6631.499,0.30652237,0.0,0.0,0.0
167.09766,35511.19,2.233,0.0,0.0,282.1581,11173.0,100.0,0.0,-0.15841235,0.0,8.0,0.0,0.0,4000000.0,110.0,1.0,0.0,0.0,10.0,0.0,0.0,-361.12366,-2.0507622,208.18541,0.08631426,-0.5209785,-0.005412647,284.5187,284.51135,282.09244,282.13895,442.0,444.0,513.0,518.0,97.0,97.0,97.0,97.0,0.0,0.0,0.0,0.0,0.046487845,0.04750237,0.053579785,0.05359424,0.0,0.0,0.0,0.0,-908.22253,3039.5327,-2430.7383,763.0884,0.0,0.0,0.0,2.0,1.0,2.5138078,0.0126213245,-0.012904525,97.0,97.0,97.0,97.0,21.710573,21.710573,24.666473,24.666473,0.0065953443,0.0064541874,-8.402792E-5,-7.929511E-5,1156.9922,0.0,0.0,0.0,0.0,0.0,0.0,0.0,0.0,0.0,0.0,0.0,0.0,0.0,46.073944,1.0808866,-63.395718,-5.241106E-4,0.007598558,0.009841613,549841.6,119984.91,0.008007858,0.010820985,7637.916,8230.377,6894.9883,6937.824,0.30545807,0.0,0.0,0.0
171.01562,35515.11,2.283,0.0,0.0,282.544,10781.0,100.0,0.0,-0.12669417,0.0,8.0,0.0,0.0,4000000.0,110.0,1.0,0.0,0.0,10.0,0.0,0.0,-358.81985,-1.9974278,205.01385,0.0723542,0.38673168,-0.11239193,287.68063,287.6549,282.38715,282.4297,440.0,442.0,512.0,516.0,97.0,97.0,97.0,97.0,0.0,0.0,0.0,0.0,0.049394038,0.0496923,0.052303106,0.052769966,0.0,0.0,0.0,0.0,-3184.2915,840.55066,-671.263,393.90915,0.0,0.0,0.0,2.0,1.0,2.5141697,0.012859729,-0.014488816,97.0,97.0,97.0,97.0,21.710573,21.710573,24.666473,24.666473,0.018355079,0.018102365,-4.6926504E-4,-4.69067E-4,1108.2986,0.0,0.0,0.0,0.0,0.0,0.0,0.0,0.0,0.0,0.0,0.0,0.0,0.0,46.10818,1.0435684,-63.50398,0.022501368,0.0070005413,0.002929097,545851.8,119984.89,0.010029249,0.0073363283,8227.389,8428.293,5615.961,5908.5244,0.304821,0.0,0.0,0.0
174.94531,35519.04,2.333,0.0,0.0,283.203,10459.0,100.0,0.0,-0.23721609,0.0,8.0,0.0,0.0,4000000.0,110.0,1.0,0.0,0.0,10.0,0.0,0.0,-356.5123,-1.9438721,201.83421,0.0773087,0.36886436,-0.04761393,288.36508,288.32935,283.0439,283.09937,438.0,440.0,510.0,514.0,97.0,97.0,97.0,97.0,0.0,0.0,0.0,0.0,0.04911673,0.049532488,0.052476365,0.052605297,0.0,0.0,0.0,0.0,-582.40137,981.20575,-1052.0562,4.693851,0.0,0.0,0.0,2.0,1.0,2.514568,0.012889253,-0.014573216,97.0,97.0,97.0,97.0,21.710573,21.710573,24.666473,24.666473,0.018377021,0.018046668,-4.5817174E-4,-4.664312E-4,1061.5327,0.0,0.0,0.0,0.0,0.0,0.0,0.0,0.0,0.0,0.0,0.0,0.0,0.0,46.187366,1.0754822,-63.672173,-0.004995036,0.009686178,-0.0055117556,538914.94,119984.9,0.010174416,0.007920027,8248.791,8543.146,6013.269,6087.898,0.3053894,0.0,0.0,0.0
178.88281,35522.977,2.383,0.0,0.0,283.84625,10205.0,100.0,0.0,-0.28203315,0.0,8.0,0.0,0.0,4000000.0,110.0,1.0,0.0,0.0,10.0,0.0,0.0,-354.20108,-1.8902657,198.6461,0.09582534,0.3580864,-0.090270355,288.63037,288.70865,283.6728,283.7661,436.0,438.0,508.0,512.0,97.0,97.0,97.0,97.0,0.0,0.0,0.0,0.0,0.04908333,0.049092937,0.05195486,0.0530522,0.0,0.0,0.0,0.0,-170.7494,433.47174,-1123.5504,-17.394102,0.0,0.0,0.0,2.0,1.0,2.515215,0.012483562,-0.014357805,97.0,97.0,97.0,97.0,21.710573,21.710573,24.666473,24.666473,0.01765268,0.01754625,-4.4748437E-4,-4.6423386E-4,1011.7247,0.0,0.0,0.0,0.0,0.0,0.0,0.0,0.0,0.0,0.0,0.0,0.0,0.0,46.257103,1.0601816,-63.842594,-0.021380806,0.015994916,0.026947824,526412.7,119984.91,0.010812904,0.0084702745,8238.148,8289.535,5715.467,6359.077,0.3060894,0.0,0.0,0.0
182.83203,35526.926,2.433,0.0,0.0,284.32748,10218.0,100.0,0.0,-0.35308585,0.0,8.0,0.0,0.0,4000000.0,110.0,1.0,0.0,0.0,10.0,0.0,0.0,-351.88724,-1.8377084,195.45024,0.12990218,0.26627856,-0.1032046,289.06464,288.98572,284.15842,284.2631,435.0,436.0,506.0,510.0,97.0,97.0,97.0,97.0,0.0,0.0,0.0,0.0,0.0483726,0.049771506,0.05228556,0.052488293,0.0,0.0,0.0,0.0,-558.79803,1367.8728,-2005.8226,1430.851,0.0,0.0,0.0,2.0,1.0,2.5160787,0.012321943,-0.013971567,97.0,97.0,97.0,97.0,21.710573,21.710573,24.666473,24.666473,0.016917199,0.016237237,-4.0670673E-4,-4.1329287E-4,1014.20746,0.0,0.0,0.0,0.0,0.0,0.0,0.0,0.0,0.0,0.0,0.0,0.0,0.0,46.290215,1.0346754,-63.98408,-0.011480834,0.018006954,-0.008418942,527033.1,119984.9,0.011733124,0.008930315,7959.746,8581.041,5874.5405,6057.9233,0.30595398,0.0,0.0,0.0
186.78125,35530.875,2.483,0.0,0.0,284.79193,10235.0,100.0,0.0,-0.3792812,0.0,8.0,0.0,0.0,4000000.0,110.0,1.0,0.0,0.0,10.0,0.0,0.0,-349.5721,-1.7864555,192.24725,0.1360794,0.26222342,-0.1051604,289.50244,289.52182,284.61438,284.73004,433.0,434.0,504.0,508.0,97.0,97.0,97.0,97.0,0.0,0.0,0.0,0.0,0.04890089,0.048830744,0.052678753,0.052622106,0.0,0.0,0.0,0.0,-1456.922,1437.5834,284.95786,-2193.5906,0.0,0.0,0.0,2.0,1.0,2.517048,0.012807102,-0.013785958,97.0,97.0,97.0,97.0,21.710573,21.710573,24.666473,24.666473,0.016763495,0.016547833,-4.054073E-4,-4.1314712E-4,1017.531,0.0,0.0,0.0,0.0,0.0,0.0,0.0,0.0,0.0,0.0,0.0,0.0,0.0,46.312626,1.0100222,-64.12748,0.044168934,0.02052783,-0.044815503,527881.94,119984.91,0.0108542275,0.009487274,8151.672,8225.623,6265.1064,6076.7256,0.30614185,0.0,0.0,0.0
190.74219,35534.836,2.533,0.0,0.0,285.26105,10247.0,100.0,0.0,-0.30006772,0.0,8.0,0.0,0.0,4000000.0,110.0,1.0,0.0,0.0,10.0,0.0,0.0,-347.25598,-1.7353622,189.03696,0.1432043,0.26508382,0.10833608,289.849,289.81,285.0862,285.1958,431.0,432.0,502.0,507.0,97.0,97.0,97.0,97.0,0.0,0.0,0.0,0.0,0.04977345,0.05017515,0.052726742,0.053137306,0.0,0.0,0.0,0.0,238.60919,-2308.188,131.30753,-1356.299,0.0,0.0,0.0,2.0,1.0,2.5180385,0.014216716,-0.01448369,97.0,97.0,97.0,97.0,21.710573,21.710573,24.666473,24.666473,0.016300192,0.015844598,-4.170195E-4,-4.0709495E-4,1019.8071,0.0,0.0,0.0,0.0,0.0,0.0,0.0,0.0,0.0,0.0,0.0,0.0,0.0,46.3307,1.0459043,-64.27457,0.007142269,0.017893981,0.0036361176,528443.2,119984.91,0.009526652,0.0069880113,8497.581,8972.664,6341.743,6462.668,0.3044815,0.0,0.0,0.0
194.70703,35538.8,2.583,0.0,0.0,285.7163,10265.0,100.0,0.0,-0.45531428,0.0,8.0,0.0,0.0,4000000.0,110.0,1.0,0.0,0.0,10.0,0.0,0.0,-344.9391,-1.6811283,185.81944,0.15914057,0.25500947,-0.0069082556,290.3585,290.33215,285.5428,285.6548,429.0,430.0,501.0,505.0,97.0,97.0,97.0,97.0,0.0,0.0,0.0,0.0,0.04930069,0.04982827,0.052593812,0.053096917,0.0,0.0,0.0,0.0,-1118.7358,-489.58353,-2096.991,-493.2984,0.0,0.0,0.0,2.0,1.0,2.5188997,0.014511439,-0.014642239,97.0,97.0,97.0,97.0,21.710573,21.710573,24.666473,24.666473,0.016456658,0.015995007,-3.9389386E-4,-4.1871084E-4,1023.33203,0.0,0.0,0.0,0.0,0.0,0.0,0.0,0.0,0.0,0.0,0.0,0.0,0.0,46.34582,1.0996505,-64.41864,-0.0028761828,0.02001343,-0.009541763,529339.9,119984.92,0.010472578,0.0075777,8348.426,8743.805,5971.189,6299.898,0.30490685,0.0,0.0,0.0
198.67969,35542.773,2.633,0.0,0.0,286.16077,10287.0,100.0,0.0,-0.70423084,0.0,8.0,0.0,0.0,4000000.0,110.0,1.0,0.0,0.0,10.0,0.0,0.0,-342.6217,-1.626495,182.59445,0.20883973,0.24810529,-0.14635734,290.93585,291.01266,285.94342,286.14114,427.0,429.0,499.0,503.0,97.0,97.0,97.0,97.0,0.0,0.0,0.0,0.0,0.048580416,0.048739456,0.052360263,0.053158753,0.0,0.0,0.0,0.0,-1903.778,594.5787,671.6921,-1710.3104,0.0,0.0,0.0,2.0,1.0,2.5203047,0.013841355,-0.013967276,97.0,97.0,97.0,97.0,21.710573,21.710573,24.666473,24.666473,0.01705819,0.016677393,-3.8985652E-4,-4.1357055E-4,1027.6375,0.0,0.0,0.0,0.0,0.0,0.0,0.0,0.0,0.0,0.0,0.0,0.0,0.0,46.341686,1.0727581,-64.574104,0.0011394405,0.03435887,0.0016584552,530430.1,119984.91,0.010467015,0.009877075,7917.374,8190.875,6142.4995,6383.5654,0.30667114,0.0,0.0,0.0
202.66016,35546.754,2.683,0.0,0.0,286.6162,10296.0,100.0,0.0,-0.8819924,0.0,8.0,0.0,0.0,4000000.0,110.0,1.0,0.0,0.0,10.0,0.0,0.0,-340.30527,-1.5732147,179.36116,0.28481013,0.25996524,0.041920207,291.19077,291.2575,286.35803,286.6288,425.0,427.0,497.0,501.0,97.0,97.0,97.0,97.0,0.0,0.0,0.0,0.0,0.049675263,0.050036583,0.05240184,0.053365175,0.0,0.0,0.0,0.0,-107.32852,-3705.2031,156.38617,-1045.1227,0.0,0.0,0.0,2.0,1.0,2.522347,0.014345829,-0.014885068,97.0,97.0,97.0,97.0,21.710573,21.710573,24.666473,24.666473,0.016449729,0.015878404,-3.9995502E-4,-4.2100786E-4,1029.4004,0.0,0.0,0.0,0.0,0.0,0.0,0.0,0.0,0.0,0.0,0.0,0.0,0.0,46.31219,1.0733886,-64.75086,0.017743604,0.046444237,-0.001805569,530875.6,119984.9,0.009398561,0.0070557618,8431.77,8857.4,6118.8335,6527.3135,0.30357933,0.0,0.0,0.0
206.64453,35550.74,2.733,0.0,0.0,287.05838,10312.0,100.0,0.0,-0.8249215,0.0,8.0,0.0,0.0,4000000.0,110.0,1.0,0.0,0.0,10.0,0.0,0.0,-337.99106,-1.5175503,176.11865,0.33295262,0.24624304,0.06404073,291.6587,291.68585,286.79688,287.08133,423.0,425.0,495.0,499.0,97.0,97.0,97.0,97.0,0.0,0.0,0.0,0.0,0.049349073,0.050352074,0.052461628,0.053553,0.0,0.0,0.0,0.0,-730.4727,-1505.6713,-2615.073,-379.06314,0.0,0.0,0.0,2.0,1.0,2.5247514,0.015006818,-0.015047073,97.0,97.0,97.0,97.0,21.710573,21.710573,24.666473,24.666473,0.016488213,0.015697524,-3.9999714E-4,-4.0722094E-4,1032.5178,0.0,0.0,0.0,0.0,0.0,0.0,0.0,0.0,0.0,0.0,0.0,0.0,0.0,46.256054,1.1413896,-64.94069,-6.178864E-4,0.048549294,-0.0106644705,531657.1,119984.91,0.0101101305,0.0070193685,8337.844,9068.643,6017.5576,6627.931,0.304183,0.0,0.0,0.0
210.63281,35554.727,2.783,0.0,0.0,287.4853,10332.0,100.0,0.0,-0.65120685,0.0,8.0,0.0,0.0,4000000.0,110.0,1.0,0.0,0.0,10.0,0.0,0.0,-335.67987,-1.4602299,172.86658,0.33027777,0.2406038,-0.13720861,292.25778,292.2582,287.24393,287.48853,422.0,423.0,493.0,497.0,97.0,97.0,97.0,97.0,0.0,0.0,0.0,0.0,0.048637368,0.049349766,0.052084632,0.053438038,0.0,0.0,0.0,0.0,-2308.4695,1357.211,-2029.3054,-168.09401,0.0,0.0,0.0,2.0,1.0,2.5269947,0.014547746,-0.014765501,97.0,97.0,97.0,97.0,21.710573,21.710573,24.666473,24.666473,0.017033754,0.016278341,-4.0227186E-4,-3.9420312E-4,1036.4963,0.0,0.0,0.0,0.0,0.0,0.0,0.0,0.0,0.0,0.0,0.0,0.0,0.0,46.193375,1.1315862,-65.13092,-0.003239146,0.040821794,0.00399211,532672.6,119984.914,0.011602392,0.009472594,7910.226,8572.361,5777.7144,6458.267,0.30520344,0.0,0.0,0.0
214.6289,35558.723,2.833,0.0,0.0,287.91614,10347.0,100.0,0.0,-0.5370079,0.0,8.0,0.0,0.0,4000000.0,110.0,1.0,0.0,0.0,10.0,0.0,0.0,-333.37167,-1.4046613,169.60507,0.30135828,0.2415441,-0.091298796,292.6774,292.6934,287.69952,287.88907,420.0,421.0,492.0,496.0,97.0,97.0,97.0,97.0,0.0,0.0,0.0,0.0,0.04865157,0.049407993,0.052323677,0.0534084,0.0,0.0,0.0,0.0,-4320.7695,86.99747,-77.91818,-765.4621,0.0,0.0,0.0,2.0,1.0,2.528788,0.013355372,-0.014901161,97.0,97.0,97.0,97.0,21.710573,21.710573,24.666473,24.666473,0.016948476,0.016361848,-4.102649E-4,-3.9505714E-4,1039.4552,0.0,0.0,0.0,0.0,0.0,0.0,0.0,0.0,0.0,0.0,0.0,0.0,0.0,46.138863,1.0974569,-65.31672,9.964295E-4,0.030591419,0.028727511,533418.8,119984.9,0.010050992,0.009189524,7886.646,8548.944,6172.961,6614.33,0.30581093,0.0,0.0,0.0
218.63281,35562.727,2.883,0.0,0.0,288.35577,10356.0,100.0,0.0,-0.61435616,0.0,8.0,0.0,0.0,4000000.0,110.0,1.0,0.0,0.0,10.0,0.0,0.0,-331.066,-1.3493575,166.33441,0.2860233,0.24821824,0.17079976,292.9239,292.91452,288.14572,288.32477,418.0,419.0,490.0,494.0,97.0,97.0,97.0,97.0,0.0,0.0,0.0,0.0,0.050223693,0.050658397,0.05290863,0.053295396,0.0,0.0,0.0,0.0,-1400.998,-3131.4116,-1529.315,-397.1278,0.0,0.0,0.0,2.0,1.0,2.5302815,0.012892087,-0.01571691,97.0,97.0,97.0,97.0,21.710573,21.710573,24.666473,24.666473,0.016096158,0.015565966,-4.0727833E-4,-4.0647283E-4,1041.1719,0.0,0.0,0.0,0.0,0.0,0.0,0.0,0.0,0.0,0.0,0.0,0.0,0.0,46.092407,1.1396781,-65.49819,0.01398266,0.030071594,-0.013813263,533835.44,119984.9,0.008618915,0.005782438,8665.484,9189.547,6424.1143,6606.431,0.30411816,0.0,0.0,0.0
222.63672,35566.73,2.933,0.0,0.0,288.77643,10375.0,100.0,0.0,-0.69303286,0.0,8.0,0.0,0.0,4000000.0,110.0,1.0,0.0,0.0,10.0,0.0,0.0,-328.76257,-1.29077,163.0549,0.27893966,0.23259476,0.064044796,293.47336,293.47675,288.55765,288.7594,416.0,418.0,488.0,492.0,97.0,97.0,97.0,97.0,0.0,0.0,0.0,0.0,0.049501464,0.04989111,0.052896313,0.05357125,0.0,0.0,0.0,0.0,-2733.7607,-1474.8259,9.709567,-1343.3842,0.0,0.0,0.0,2.0,1.0,2.5318723,0.013265551,-0.015353918,97.0,97.0,97.0,97.0,21.710573,21.710573,24.666473,24.666473,0.016522244,0.015958222,-3.9068874E-4,-4.0488396E-4,1044.9651,0.0,0.0,0.0,0.0,0.0,0.0,0.0,0.0,0.0,0.0,0.0,0.0,0.0,46.04756,1.1958797,-65.6715,0.0095792785,0.034949742,-0.021218045,534799.1,119984.91,0.008868138,0.0072456547,8311.901,8811.558,6471.56,6730.543,0.30508614,0.0,0.0,0.0
226.64844,35570.742,2.983,0.0,0.0,289.19214,10393.0,100.0,0.0,-0.781729,0.0,8.0,0.0,0.0,4000000.0,110.0,1.0,0.0,0.0,10.0,0.0,0.0,-326.4615,-1.2316638,159.76666,0.30657482,0.23198578,-0.08055135,294.03238,293.92017,288.9578,289.18933,414.0,416.0,486.0,490.0,97.0,97.0,97.0,97.0,0.0,0.0,0.0,0.0,0.048910875,0.049658135,0.052741915,0.053049054,0.0,0.0,0.0,0.0,-2986.2773,119.00962,-1142.1382,-433.80704,0.0,0.0,0.0,2.0,1.0,2.5337577,0.013350102,-0.015268445,97.0,97.0,97.0,97.0,21.710573,21.710573,24.666473,24.666473,0.01702751,0.016036471,-3.925862E-4,-3.9672508E-4,1048.4835,0.0,0.0,0.0,0.0,0.0,0.0,0.0,0.0,0.0,0.0,0.0,0.0,0.0,45.996624,1.1699097,-65.84858,0.024083545,0.039565798,-0.03047798,535670.44,119984.9,0.010644406,0.008806241,7947.763,8726.834,6224.5483,6318.796,0.30568027,0.0,0.0,0.0
230.66797,35574.76,3.033,0.0,0.0,289.61325,10407.0,100.0,0.0,-0.83224905,0.0,8.0,0.0,0.0,4000000.0,110.0,1.0,0.0,0.0,10.0,0.0,0.0,-324.16327,-1.175075,156.46933,0.32539183,0.23638129,-0.02871849,294.3403,294.41122,289.3633,289.62366,413.0,414.0,484.0,488.0,97.0,97.0,97.0,97.0,0.0,0.0,0.0,0.0,0.04925894,0.04936411,0.05223855,0.053497303,0.0,0.0,0.0,0.0,-3528.2441,-921.1241,1868.7753,898.446,0.0,0.0,0.0,2.0,1.0,2.5358605,0.013336053,-0.01484859,97.0,97.0,97.0,97.0,21.710573,21.710573,24.666473,24.666473,0.01676297,0.016221778,-3.9438732E-4,-4.085342E-4,1051.2649,0.0,0.0,0.0,0.0,0.0,0.0,0.0,0.0,0.0,0.0,0.0,0.0,0.0,45.93566,1.1177222,-66.034584,-0.0024883405,0.04437089,0.0014905173,536368.94,119984.91,0.0094264755,0.008381399,8100.1772,8586.586,6312.7144,6868.5874,0.30721855,0.0,0.0,0.0
234.6914,35578.785,3.083,0.0,0.0,290.0312,10416.0,100.0,0.0,-0.7246033,0.0,8.0,0.0,0.0,4000000.0,110.0,1.0,0.0,0.0,10.0,0.0,0.0,-321.86823,-1.1191467,153.16267,0.321386,0.23943448,0.11609451,294.5711,294.6713,289.77908,290.04062,411.0,412.0,483.0,487.0,97.0,97.0,97.0,97.0,0.0,0.0,0.0,0.0,0.050210852,0.050573584,0.052397527,0.053851906,0.0,0.0,0.0,0.0,4215.4395,-2662.8967,2482.9607,-1934.1272,0.0,0.0,0.0,2.0,1.0,2.5380888,0.012746013,-0.015434623,97.0,97.0,97.0,97.0,21.710573,21.710573,24.666473,24.666473,0.01605296,0.015642133,-4.0948254E-4,-3.995225E-4,1053.0289,0.0,0.0,0.0,0.0,0.0,0.0,0.0,0.0,0.0,0.0,0.0,0.0,0.0,45.870056,1.1353289,-66.22116,-0.01828146,0.042714592,0.03721243,536804.75,119984.9,0.008674927,0.0059085316,8728.779,9116.922,6354.1187,6794.5723,0.30616665,0.0,0.0,0.0
238.72266,35582.816,3.133,0.0,0.0,290.4368,10432.0,100.0,0.0,-0.5637609,0.0,8.0,0.0,0.0,4000000.0,110.0,1.0,0.0,0.0,10.0,0.0,0.0,-319.5765,-1.0606738,149.84677,0.296283,0.2289755,0.06580651,294.99808,295.13394,290.2075,290.42667,409.0,410.0,481.0,485.0,97.0,97.0,97.0,97.0,0.0,0.0,0.0,0.0,0.050055463,0.04998145,0.052531093,0.05399641,0.0,0.0,0.0,0.0,5648.289,-3730.3757,2141.5828,-2239.9795,0.0,0.0,0.0,2.0,1.0,2.540046,0.011526083,-0.0155130625,97.0,97.0,97.0,97.0,21.710573,21.710573,24.666473,24.666473,0.016008725,0.015917225,-4.0684835E-4,-3.9340346E-4,1056.1682,0.0,0.0,0.0,0.0,0.0,0.0,0.0,0.0,0.0,0.0,0.0,0.0,0.0,45.80537,1.1897377,-66.40191,-0.023167962,0.035420816,0.034984548,537579.3,119984.9,0.008859308,0.0063822395,8782.668,8829.211,6384.708,6835.841,0.30537796,0.0,0.0,0.0
242.7539,35586.848,3.183,0.0,0.0,290.83484,10451.0,100.0,0.0,-0.5226253,0.0,8.0,0.0,0.0,4000000.0,110.0,1.0,0.0,0.0,10.0,0.0,0.0,-317.28772,-1.0011243,146.52206,0.27428013,0.22537096,-0.13480467,295.58124,295.62854,290.6308,290.8031,407.0,409.0,479.0,483.0,97.0,97.0,97.0,97.0,0.0,0.0,0.0,0.0,0.048966657,0.049598552,0.05234131,0.053407576,0.0,0.0,0.0,0.0,4281.7437,-5025.8555,202.30559,-1793.6735,0.0,0.0,0.0,2.0,1.0,2.5415876,0.011002777,-0.0152846575,97.0,97.0,97.0,97.0,21.710573,21.710573,24.666473,24.666473,0.016554242,0.01626956,-3.9827608E-4,-3.9488415E-4,1059.9293,0.0,0.0,0.0,0.0,0.0,0.0,0.0,0.0,0.0,0.0,0.0,0.0,0.0,45.750183,1.173804,-66.57444,-0.018299274,0.028205339,0.016974943,538512.9,119984.91,0.01021738,0.008135525,8248.646,8505.342,5985.6504,6386.1655,0.3073635,0.0,0.0,0.0
246.79688,35590.89,3.233,0.0,0.0,291.2391,10460.0,100.0,0.0,-0.5813799,0.0,8.0,0.0,0.0,4000000.0,110.0,1.0,0.0,0.0,10.0,0.0,0.0,-315.0015,-0.9435765,143.18884,0.2728472,0.22906366,0.11160813,295.8623,295.87415,291.02954,291.2087,405.0,407.0,477.0,481.0,97.0,97.0,97.0,97.0,0.0,0.0,0.0,0.0,0.05000834,0.050604705,0.052496154,0.053852856,0.0,0.0,0.0,0.0,2353.7722,335.2091,88.36538,1116.8181,0.0,0.0,0.0,2.0,1.0,2.5430262,0.010608341,-0.015366912,97.0,97.0,97.0,97.0,21.710573,21.710573,24.666473,24.666473,0.016171709,0.015685312,-3.9218846E-4,-4.0407656E-4,1061.7612,0.0,0.0,0.0,0.0,0.0,0.0,0.0,0.0,0.0,0.0,0.0,0.0,0.0,45.701912,1.1595991,-66.74399,-0.003390937,0.030121835,0.020108974,538979.44,119984.91,0.009573617,0.007457105,8672.482,9086.956,6412.3374,7111.631,0.3056507,0.0,0.0,0.0
250.83984,35594.934,3.283,0.0,0.0,291.62692,10475.0,100.0,0.0,-0.5136365,0.0,8.0,0.0,0.0,4000000.0,110.0,1.0,0.0,0.0,10.0,0.0,0.0,-312.7176,-0.8846196,139.84737,0.2558442,0.21498126,0.09803091,296.27533,296.33,291.4186,291.59396,404.0,405.0,476.0,480.0,97.0,97.0,97.0,97.0,0.0,0.0,0.0,0.0,0.04973613,0.05000238,0.053086806,0.054059032,0.0,0.0,0.0,0.0,-991.1566,1078.3954,-216.09213,721.2325,0.0,0.0,0.0,2.0,1.0,2.5445518,0.009094653,-0.015294075,97.0,97.0,97.0,97.0,21.710573,21.710573,24.666473,24.666473,0.016223265,0.015881939,-3.9748647E-4,-3.970402E-4,1064.7753,0.0,0.0,0.0,0.0,0.0,0.0,0.0,0.0,0.0,0.0,0.0,0.0,0.0,45.65762,1.2005599,-66.90405,0.0067528086,0.02895239,0.017728548,539735.44,119984.9,0.0073299427,0.0076540015,8561.215,8891.59,6815.4233,7242.6167,0.30497646,0.0,0.0,0.0
254.89062,35598.984,3.333,0.0,0.0,292.02783,10484.0,100.0,0.0,-0.3150553,0.0,8.0,0.0,0.0,4000000.0,110.0,1.0,0.0,0.0,10.0,0.0,0.0,-310.4356,-0.8240136,136.49806,0.21488902,0.23576531,0.22689947,296.50354,296.57535,291.84625,291.96173,402.0,403.0,474.0,478.0,97.0,97.0,97.0,97.0,0.0,0.0,0.0,0.0,0.05071078,0.05115619,0.053184614,0.054157726,0.0,0.0,0.0,0.0,-1352.6781,-2691.2476,284.18002,1224.1869,0.0,0.0,0.0,2.0,1.0,2.545698,0.00898083,-0.016786218,97.0,97.0,97.0,97.0,21.710573,21.710573,24.666473,24.666473,0.01559693,0.0154149085,-4.1162988E-4,-4.1058566E-4,1066.5215,0.0,0.0,0.0,0.0,0.0,0.0,0.0,0.0,0.0,0.0,0.0,0.0,0.0,45.62773,1.24858,-67.05831,1.1207722E-4,0.018499779,0.03218595,540156.5,119984.91,0.0037164723,0.003003252,8999.638,9382.124,6704.2773,7204.871,0.3040142,0.0,0.0,0.0
258.9453,35603.04,3.383,0.0,0.0,292.4135,10498.0,100.0,0.0,0.07226476,0.0,8.0,0.0,0.0,4000000.0,110.0,1.0,0.0,0.0,10.0,0.0,0.0,-308.1543,-0.755423,133.1418,0.112033196,0.21407898,0.20861514,296.9187,296.94257,292.28336,292.31335,400.0,402.0,472.0,476.0,97.0,97.0,97.0,97.0,0.0,0.0,0.0,0.0,0.050102796,0.05158302,0.05262036,0.05507239,0.0,0.0,0.0,0.0,3885.005,-5281.845,1645.441,-1839.888,0.0,0.0,0.0,2.0,1.0,2.5461683,0.013302783,-0.017381787,97.0,97.0,97.0,97.0,21.710573,21.710573,24.666473,24.666473,0.015402292,0.015360443,-4.051432E-4,-3.960354E-4,1069.2932,0.0,0.0,0.0,0.0,0.0,0.0,0.0,0.0,0.0,0.0,0.0,0.0,0.0,45.629124,1.4415338,-67.18307,-0.020769559,0.00472399,-0.011666955,540838.06,119984.91,0.0061207362,0.0037879895,9216.382,9380.148,6166.747,7190.785,0.3096199,0.0,0.0,0.0
263.0078,35607.1,3.433,0.0,0.0,292.7817,10521.0,100.0,0.0,0.23505208,0.0,8.0,0.0,0.0,4000000.0,110.0,1.0,0.0,0.0,10.0,0.0,0.0,-305.872,-0.68440026,129.77995,0.012002602,0.21828933,-0.30719888,297.54492,297.6371,292.69894,292.62958,398.0,400.0,470.0,474.0,97.0,97.0,97.0,97.0,0.0,0.0,0.0,0.0,0.049213547,0.048586596,0.052459635,0.05339104,0.0,0.0,0.0,0.0,6934.864,1041.2467,-1294.8765,-110.600845,0.0,0.0,0.0,2.0,1.0,2.5458643,0.0101785455,-0.017163634,97.0,97.0,97.0,97.0,21.710573,21.710573,24.666473,24.666473,0.016225744,0.016764004,-3.97029E-4,-3.8753604E-4,1072.5717,0.0,0.0,0.0,0.0,0.0,0.0,0.0,0.0,0.0,0.0,0.0,0.0,0.0,45.667233,1.3635474,-67.28246,-0.051191732,-0.014059473,0.087561324,541310.3,119984.89,0.009775,0.007994917,8470.683,8073.708,5879.916,6240.7285,0.30687237,0.0,0.0,0.0
267.07422,35611.168,3.483,0.0,0.0,293.17096,10536.0,100.0,0.0,0.21702883,0.0,8.0,0.0,0.0,4000000.0,110.0,1.0,0.0,0.0,10.0,0.0,0.0,-303.58688,-0.6193476,126.4135,-0.04408516,0.2135171,-0.17348848,297.95822,298.0879,293.09705,293.01233,397.0,398.0,469.0,473.0,97.0,97.0,97.0,97.0,0.0,0.0,0.0,0.0,0.049427107,0.048430465,0.05202385,0.053673953,0.0,0.0,0.0,0.0,2835.0278,-983.1636,1562.9498,492.81564,0.0,0.0,0.0,2.0,1.0,2.5451477,0.006362578,-0.016296625,97.0,97.0,97.0,97.0,21.710573,21.710573,24.666473,24.666473,0.016189216,0.016956976,-3.850636E-4,-3.986539E-4,1074.6285,0.0,0.0,0.0,0.0,0.0,0.0,0.0,0.0,0.0,0.0,0.0,0.0,0.0,45.738094,1.2561411,-67.36714,-0.05641572,-0.015430624,0.07728888,541576.25,119984.9,0.007955108,0.008472614,8629.541,7817.386,6206.4434,6962.2207,0.30831146,0.0,0.0,0.0
271.13672,35615.23,3.533,0.0,0.0,292.30963,10500.0,100.0,0.0,0.2694851,0.0,8.0,0.0,0.0,4000000.0,110.0,1.0,0.0,0.0,10.0,0.0,0.0,-301.30228,-0.5486325,123.047554,0.4058119,-1.905899,2.7759702,297.04474,296.93958,292.22906,292.1162,395.0,396.0,467.0,471.0,97.0,97.0,97.0,97.0,0.0,0.0,0.0,0.0,0.049902577,0.053237528,0.049193393,0.052240994,0.0,0.0,0.0,0.0,-8258.467,10367.837,-19158.494,-7361.1875,0.0,0.0,0.0,2.0,1.0,2.5446534,0.007090589,-0.021291375,97.0,97.0,97.0,97.0,21.710573,21.710573,24.666473,24.666473,0.016995052,0.016302152,3.5095622E-4,-2.4366404E-4,1069.696,0.0,0.0,0.0,0.0,0.0,0.0,0.0,0.0,0.0,0.0,0.0,0.0,0.0,45.561455,1.7031592,-67.18798,0.23139295,-0.001268046,-0.054548666,540938.75,119984.89,0.01338559,0.0039625764,8673.62,9625.343,2262.1084,4070.8677,0.30142117,0.0,0.0,0.0
275.19922,35619.293,3.583,0.0,0.0,292.7033,10537.0,100.0,0.0,0.785064,0.0,8.0,0.0,0.0,4000000.0,110.0,1.0,0.0,0.0,10.0,0.0,0.0,-299.0208,-0.47468114,119.68652,-0.22885446,0.1941346,-0.63293207,297.87796,298.27368,292.6889,292.52625,393.0,395.0,465.0,469.0,97.0,97.0,97.0,97.0,0.0,0.0,0.0,0.0,0.048387036,0.04470517,0.051011782,0.04950889,0.0,0.0,0.0,0.0,1161.2891,681.17334,4915.657,4072.853,0.0,0.0,0.0,2.0,1.0,2.5439684,8.223426E-4,-0.017260432,97.0,97.0,97.0,97.0,21.710573,21.710573,24.666473,24.666473,0.017248562,0.01911505,-3.8756593E-4,-3.4257388E-4,1074.7809,0.0,0.0,0.0,0.0,0.0,0.0,0.0,0.0,0.0,0.0,0.0,0.0,0.0,45.696808,1.3108876,-67.23709,-0.18324754,-0.031379003,0.03323418,541601.6,119984.9,0.016531592,0.014393506,7734.0967,6348.9043,5336.9287,5150.8423,0.30321407,0.0,0.0,0.0
