LapDistance [m],TotalDistance [m],LapTime [s],Sector1Time [s],Sector2Time [s],Speed [km/h],EngineRevs [rpm],ThrottlePercentage [%],BrakePercentage [%],Steer [%],Clutch [%],Gear [int],DRS [0/1],CanUseDRS [0/1],KERSLevel [J],EngineTemperature [C],RacePosition [int],Sector [int],InPits [int],FuelRemaining [kg],CurrentFlag [int],CurrentLapInvalid [int],X [m],Y [m],Z [m],GForceLatitudinal [G],GForceLongitudinal [G],GForceVertical [G],WheelSpeedRearLeft [km/h],WheelSpeedRearRight [km/h],WheelSpeedFrontLeft [km/h],WheelSpeedFrontRight [km/h],BrakeTemperatureRearLeft [C],BrakeTemperatureRearRight [C],BrakeTemperatureFrontLeft [C],BrakeTemperatureFrontRight [C],TyreTemperatureRearLeft [C],TyreTemperatureRearRight [C],TyreTemperatureFrontLeft [C],TyreTemperatureFrontRight [C],TyreWearRearLeft [%],TyreWearRearRight [%],TyreWearFrontLeft [%],TyreWearFrontRight [%],SuspensionPositionRearLeft [m],SuspensionPositionRearRight [m],SuspensionPositionFrontLeft [m],SuspensionPositionFrontRight [m],SuspensionVelocityRearLeft [m/s],SuspensionVelocityRearRight [m/s],SuspensionVelocityFrontLeft [m/s],SuspensionVelocityFrontRight [m/s],SuspensionAccelerationRearLeft [m/s^2],SuspensionAccelerationRearRight [m/s^2],SuspensionAccelerationFrontLeft [m/s^2],SuspensionAccelerationFrontRight [m/s^2],MGUKHarvested [J],MGUHHarvested [J],ERSSpent [J],ERSMode [int],FuelMixMode [int],Yaw [rad],Roll [rad],Pitch [rad],TyreCarcassTemperatureRearLeft [C],TyreCarcassTemperatureRearRight [C],TyreCarcassTemperatureFrontLeft [C],TyreCarcassTemperatureFrontRight [C],TyrePressureRearLeft [PSI],TyrePressureRearRight [PSI],TyrePressureFrontLeft [PSI],TyrePressureFrontRight [PSI],WheelSlipRearLeft [%],WheelSlipRearRight [%],WheelSlipFrontLeft [%],WheelSlipFrontRight [%],Torque [Nm],Handbrake [%],RearLeftInside [C],RearLeftMiddle [C],RearLeftOutside [C],RearRightInside [C],RearRightMiddle [C],RearRightOutside [C],FrontLeftInside [C],FrontLeftMiddle [C],FrontLeftOutside [C],FrontRightInside [C],FrontRightMiddle [C],FrontRightOutside [C],WoldSpeedX [km/h],WoldSpeedY [km/h],WoldSpeedZ [km/h],LocalAngularVelocityX [rad/s],LocalAngularVelocityY [rad/s],LocalAngularVelocityZ [rad/s],IcePower [W],MgukPower [W],FrontRideHeight [m],RearRideHeight [m],LoadRearLeft [N],LoadRearRight [N],LoadFrontLeft [N],LoadFrontRight [N],Extra1 [m],Extra2 [],Extra3 [],Extra4 []
4.0390625,23566.768,0.05,0.0,0.0,252.22035,11318.0,100.0,0.0,0.36421978,0.0,6.0,0.0,0.0,4000000.0,110.0,1.0,0.0,0.0,10.0,0.0,0.0,-458.38684,-3.3527718,338.99213,-0.26577544,-0.5781582,0.10724258,252.24597,252.18575,252.29651,252.16893,528.0,530.0,592.0,597.0,97.0,97.0,97.0,97.0,0.0,0.0,0.0,0.0,0.041588515,0.038020812,0.052895233,0.05141644,-53.633224,-90.04801,36.154835,32.04569,900.0686,2802.5596,-4899.0947,1661.8427,0.0,0.0,0.0,2.0,1.0,2.5018592,0.020594284,-1.5258789E-4,97.0,97.0,97.0,97.0,21.710573,21.710573,24.666473,24.666473,-5.9267135E-5,1.1531499E-4,6.5933134E-5,4.249175E-5,1172.3372,0.0,0.0,0.0,0.0,0.0,0.0,0.0,0.0,0.0,0.0,0.0,0.0,0.0,41.739384,0.18380076,-56.270447,-0.025836116,-0.01954886,0.010234797,549996.4,0.0,0.013047962,0.020050554,7454.1064,6448.1973,6244.663,6038.412,0.31435585,0.0,0.0,0.0
6.373047,23569.102,0.1,0.0,0.0,252.1216,11020.0,100.0,0.0,0.12969665,0.0,7.0,0.0,0.0,4000000.0,110.0,1.0,0.0,0.0,10.0,0.0,0.0,-456.99545,-3.3460164,337.1184,-0.17699029,0.17970209,0.115955286,257.126,257.18784,252.03304,251.96608,527.0,528.0,591.0,596.0,97.0,97.0,97.0,97.0,0.0,0.0,0.0,0.0,0.041526534,0.038751975,0.053702075,0.051660005,0.0,0.0,0.0,0.0,1266.9412,4199.883,2938.5608,-2254.812,0.0,0.0,0.0,2.0,1.0,2.5013738,0.02102508,-7.328987E-4,97.0,97.0,97.0,97.0,21.710573,21.710573,24.666473,24.666473,0.017759187,0.017774872,-4.0752688E-4,-3.630244E-4,1140.8115,0.0,0.0,0.0,0.0,0.0,0.0,0.0,0.0,0.0,0.0,0.0,0.0,0.0,41.775272,0.22006981,-56.209503,0.07836014,-0.012810838,-0.015078232,549679.2,119984.91,0.010659826,0.018756958,7040.7656,6910.3647,6725.2573,5646.3945,0.31301498,0.0,0.0,0.0
11.058594,23573.787,0.15,0.0,0.0,253.61122,10550.0,100.0,0.0,0.040080026,0.0,7.0,0.0,0.0,4000000.0,110.0,1.0,0.0,0.0,10.0,0.0,0.0,-454.19974,-3.3302922,333.36145,-0.051971138,0.6324342,0.06537954,259.591,259.13004,253.48021,253.44553,524.0,526.0,588.0,593.0,97.0,97.0,97.0,97.0,0.0,0.0,0.0,0.0,0.046936218,0.047458988,0.051714405,0.050943132,18.38453,103.76013,-40.95152,2.391189,-11317.875,-169.63622,-2436.8,1934.704,0.0,0.0,0.0,2.0,1.0,2.50087,0.025662314,-0.004967451,97.0,97.0,97.0,97.0,21.710573,21.710573,24.666473,24.666473,0.022745457,0.021639736,-5.9325644E-4,-5.866512E-4,1076.5377,0.0,0.0,0.0,0.0,0.0,0.0,0.0,0.0,0.0,0.0,0.0,0.0,0.0,42.0786,0.2625473,-56.49939,0.08735837,-0.0062399176,-0.06400907,541818.44,119984.9,0.015002392,0.014189986,6896.7554,7877.6343,5222.466,4844.315,0.3111019,0.0,0.0,0.0
14.591797,23577.32,0.2,0.0,0.0,254.74408,10285.0,100.0,0.0,0.03668024,0.0,7.0,0.0,0.0,4000000.0,110.0,1.0,0.0,0.0,10.0,0.0,0.0,-452.09015,-3.317704,330.53027,-0.06655109,0.6447538,-0.08877543,259.97607,260.4986,254.60158,254.60757,522.0,523.0,586.0,591.0,97.0,97.0,97.0,97.0,0.0,0.0,0.0,0.0,0.047585644,0.04588123,0.049985625,0.051486447,-46.0761,-91.166046,13.330801,14.914422,-6369.736,-2092.9277,1894.7256,920.41327,0.0,0.0,0.0,2.0,1.0,2.5009124,0.024074145,-0.0030859709,97.0,97.0,97.0,97.0,21.710573,21.710573,24.666473,24.666473,0.02203588,0.023276191,-5.8285653E-4,-5.7876547E-4,1027.2683,0.0,0.0,0.0,0.0,0.0,0.0,0.0,0.0,0.0,0.0,0.0,0.0,0.0,42.29268,0.23851053,-56.73242,-0.09477767,0.0024691094,0.036109183,530342.7,119984.9,0.016622558,0.014587127,7492.103,6661.6045,4580.736,5416.5474,0.31367683,0.0,0.0,0.0
18.138672,23580.867,0.25,0.0,0.0,255.67236,10311.0,100.0,0.0,-0.0045971028,0.0,7.0,0.0,0.0,4000000.0,110.0,1.0,0.0,0.0,10.0,0.0,0.0,-449.9711,-3.3080966,327.6884,-0.017046645,0.5304539,-0.1940917,260.71527,261.09537,255.52614,255.54794,520.0,521.0,584.0,589.0,97.0,97.0,97.0,97.0,0.0,0.0,0.0,0.0,0.04483481,0.04218996,0.050328027,0.051608596,-13.9311695,-35.543068,-2.2465734,-5.37917,4881.1367,3091.1516,71.601555,-869.71954,0.0,0.0,0.0,2.0,1.0,2.5010583,0.01875349,-0.0020282269,97.0,97.0,97.0,97.0,21.710573,21.710573,24.666473,24.666473,0.02022179,0.021298628,-5.397196E-4,-5.4108805E-4,1032.3936,0.0,0.0,0.0,0.0,0.0,0.0,0.0,0.0,0.0,0.0,0.0,0.0,0.0,42.458084,0.14621754,-56.93105,-0.08013987,0.0036505542,0.10330903,531644.75,119984.91,0.016684791,0.017819585,7161.642,6735.0283,4651.1436,5288.216,0.3145752,0.0,0.0,0.0
20.509766,23583.238,0.3,0.0,0.0,256.2825,10329.0,100.0,0.0,-0.039866783,0.0,7.0,0.0,0.0,4000000.0,110.0,1.0,0.0,0.0,10.0,0.0,0.0,-448.55402,-3.303124,325.7883,0.011670187,0.51340234,0.06128512,261.15802,261.52603,256.1311,256.1565,518.0,520.0,583.0,588.0,97.0,97.0,97.0,97.0,0.0,0.0,0.0,0.0,0.046243683,0.042796392,0.05164971,0.051641393,0.0,0.0,0.0,0.0,-2951.1133,3076.118,-1908.284,-143.069,0.0,0.0,0.0,2.0,1.0,2.5012004,0.015578428,-0.0023953915,97.0,97.0,97.0,97.0,21.710573,21.710573,24.666473,24.666473,0.0196544,0.020442706,-5.1232893E-4,-5.231679E-4,1035.8656,0.0,0.0,0.0,0.0,0.0,0.0,0.0,0.0,0.0,0.0,0.0,0.0,0.0,42.55959,0.15784617,-57.066746,-0.014577145,0.0045464407,0.06256564,532503.1,119984.9,0.014947706,0.015816143,7470.4814,7190.663,5485.951,5665.0703,0.31258965,0.0,0.0,0.0
25.269531,23587.998,0.35,0.0,0.0,257.48254,10375.0,100.0,0.0,-0.32932833,0.0,7.0,0.0,0.0,4000000.0,110.0,1.0,0.0,0.0,10.0,0.0,0.0,-445.71072,-3.291018,321.97388,0.09357111,0.5074516,0.10845538,262.41013,262.58704,257.29312,257.39755,515.0,517.0,580.0,585.0,97.0,97.0,97.0,97.0,0.0,0.0,0.0,0.0,0.04783964,0.045900546,0.05131071,0.052329917,-44.541653,44.484882,-7.260963,8.2717085,-6728.535,790.5141,-2223.94,-146.50221,0.0,0.0,0.0,2.0,1.0,2.5020046,0.012565511,-0.00350976,97.0,97.0,97.0,97.0,21.710573,21.710573,24.666473,24.666473,0.019801434,0.019590534,-4.9569295E-4,-5.116474E-4,1044.8896,0.0,0.0,0.0,0.0,0.0,0.0,0.0,0.0,0.0,0.0,0.0,0.0,0.0,42.72605,0.22016555,-57.358223,-1.1058524E-5,0.01822324,0.03678637,534760.5,119984.91,0.014355161,0.013571615,7582.402,7562.5195,5304.408,5903.5757,0.31074905,0.0,0.0,0.0
28.853516,23591.582,0.4,0.0,0.0,258.3712,10412.0,100.0,0.0,-0.31170636,0.0,7.0,0.0,0.0,4000000.0,110.0,1.0,0.0,0.0,10.0,0.0,0.0,-443.57162,-3.2790186,319.09988,0.1235698,0.49331918,0.09581582,263.4518,263.4256,258.1807,258.30542,513.0,515.0,578.0,583.0,97.0,97.0,97.0,97.0,0.0,0.0,0.0,0.0,0.04822487,0.04718164,0.051240727,0.052043956,-3.3266096,6.311908,-1.8824636,4.284605,-3806.8186,-1928.9103,-224.74226,1357.7206,0.0,0.0,0.0,2.0,1.0,2.503029,0.011005775,-0.0042173862,97.0,97.0,97.0,97.0,21.710573,21.710573,24.666473,24.666473,0.0196075,0.019360764,-5.0660875E-4,-4.905338E-4,1052.2029,0.0,0.0,0.0,0.0,0.0,0.0,0.0,0.0,0.0,0.0,0.0,0.0,0.0,42.82945,0.26325414,-57.58879,-0.007456366,0.02051908,0.0091798855,536589.7,119984.91,0.0137709705,0.0129711805,7548.9414,7591.236,5254.5967,5645.49,0.3109541,0.0,0.0,0.0
32.44922,23595.178,0.45,0.0,0.0,259.25385,10445.0,100.0,0.0,-0.2311792,0.0,7.0,0.0,0.0,4000000.0,110.0,1.0,0.0,0.0,10.0,0.0,0.0,-441.4276,-3.2652287,316.2143,0.12706102,0.5043993,-0.12514871,264.16653,264.42056,259.0597,259.1738,511.0,513.0,576.0,581.0,97.0,97.0,97.0,97.0,0.0,0.0,0.0,0.0,0.047050413,0.04725168,0.04965614,0.05223419,-8.230804,3.120303,-87.30411,6.633773,927.6553,429.24725,-4096.309,416.1983,0.0,0.0,0.0,2.0,1.0,2.5039756,0.009600755,-0.004386902,97.0,97.0,97.0,97.0,21.710573,21.710573,24.666473,24.666473,0.019454515,0.019658199,-5.542264E-4,-5.261411E-4,1058.8224,0.0,0.0,0.0,0.0,0.0,0.0,0.0,0.0,0.0,0.0,0.0,0.0,0.0,42.92558,0.26175755,-57.82283,-0.0885795,0.018145923,0.07451006,538259.5,119984.91,0.01813227,0.013742879,7569.715,7571.871,3934.3716,5310.6665,0.30929756,0.0,0.0,0.0
34.853516,23597.582,0.5,0.0,0.0,259.82846,10476.0,100.0,0.0,-0.12009057,0.0,7.0,0.0,0.0,4000000.0,110.0,1.0,0.0,0.0,10.0,0.0,0.0,-439.9955,-3.2562416,314.28418,0.117265075,0.48043615,0.08663691,265.19324,264.9512,259.66623,259.7357,510.0,511.0,575.0,580.0,97.0,97.0,97.0,97.0,0.0,0.0,0.0,0.0,0.047473356,0.046141677,0.052278623,0.05167025,0.0,0.0,0.0,0.0,-3383.8342,1477.146,-4594.127,2345.055,0.0,0.0,0.0,2.0,1.0,2.5044482,0.0077544665,-0.0037394762,97.0,97.0,97.0,97.0,21.710573,21.710573,24.666473,24.666473,0.020493273,0.019616049,-4.9288664E-4,-4.6715228E-4,1064.9473,0.0,0.0,0.0,0.0,0.0,0.0,0.0,0.0,0.0,0.0,0.0,0.0,0.0,42.993088,0.28122512,-57.97141,0.0069490788,0.010471602,-0.0028116063,539771.06,119984.9,0.013277562,0.014506566,7173.6875,7426.8105,5793.834,5889.2554,0.31207275,0.0,0.0,0.0
38.470703,23601.2,0.55,0.0,0.0,260.69977,10508.0,100.0,0.0,0.07490281,0.0,7.0,0.0,0.0,4000000.0,110.0,1.0,0.0,0.0,10.0,0.0,0.0,-437.84305,-3.2443056,311.37976,0.05590202,0.49433076,-0.10279172,265.85483,265.907,260.56354,260.57156,507.0,509.0,573.0,578.0,97.0,97.0,97.0,97.0,0.0,0.0,0.0,0.0,0.04527338,0.0457107,0.05101616,0.05157775,0.0,0.0,0.0,0.0,-1945.9692,514.31354,4409.6987,-335.78564,0.0,0.0,0.0,2.0,1.0,2.5047238,0.003413755,-0.0041263103,97.0,97.0,97.0,97.0,21.710573,21.710573,24.666473,24.666473,0.019963756,0.020053143,-5.226635E-4,-4.9012725E-4,1070.8093,0.0,0.0,0.0,0.0,0.0,0.0,0.0,0.0,0.0,0.0,0.0,0.0,0.0,43.104603,0.20744745,-58.19033,-0.0716999,-2.8533128E-4,0.096667275,541089.5,119984.91,0.015122354,0.015550514,7243.206,7349.72,5301.8706,5309.8765,0.30808258,0.0,0.0,0.0
43.3125,23606.041,0.6,0.0,0.0,261.8586,10541.0,100.0,0.0,-0.10909862,0.0,7.0,0.0,0.0,4000000.0,110.0,1.0,0.0,0.0,10.0,0.0,0.0,-434.96344,-3.2271957,307.49097,0.040024206,0.49031168,0.28691283,266.6736,266.7293,261.7215,261.72568,505.0,506.0,570.0,575.0,97.0,97.0,97.0,97.0,0.0,0.0,0.0,0.0,0.04939085,0.048819523,0.05238417,0.05227314,4.612505,73.33762,-0.5292892,12.215226,-6100.9253,783.9827,-685.881,-23.992365,0.0,0.0,0.0,2.0,1.0,2.5045743,0.0016111953,-0.005534649,97.0,97.0,97.0,97.0,21.710573,21.710573,24.666473,24.666473,0.01848884,0.018655922,-4.918669E-4,-5.0867413E-4,1075.304,0.0,0.0,0.0,0.0,0.0,0.0,0.0,0.0,0.0,0.0,0.0,0.0,0.0,43.276237,0.33344722,-58.4632,0.05442865,0.0016957484,-0.027955217,541659.56,119984.91,0.01124108,0.009588885,8223.16,8101.6484,5979.4077,5971.8066,0.30323982,0.0,0.0,0.0
45.740234,23608.469,0.65,0.0,0.0,262.42056,10566.0,100.0,0.0,-0.006783961,0.0,7.0,0.0,0.0,4000000.0,110.0,1.0,0.0,0.0,10.0,0.0,0.0,-433.51935,-3.2144017,305.53998,0.027336285,0.47160134,0.19180465,267.45364,267.23996,262.28384,262.2945,503.0,505.0,569.0,573.0,97.0,97.0,97.0,97.0,0.0,0.0,0.0,0.0,0.048355773,0.049301796,0.05210411,0.052291736,0.0,0.0,0.0,0.0,-532.2173,-3092.0098,-99.88546,-1944.4939,0.0,0.0,0.0,2.0,1.0,2.504653,0.0026156355,-0.0062640905,97.0,97.0,97.0,97.0,21.710573,21.710573,24.666473,24.666473,0.019067707,0.01831589,-4.967014E-4,-4.7991044E-4,1078.7365,0.0,0.0,0.0,0.0,0.0,0.0,0.0,0.0,0.0,0.0,0.0,0.0,0.0,43.361885,0.41497087,-58.59349,0.01063981,9.92661E-4,0.0075299023,542102.94,119984.9,0.0125239175,0.009883133,7826.993,8288.524,5671.039,5704.4175,0.30296993,0.0,0.0,0.0
49.39453,23612.123,0.7,0.0,0.0,263.24628,10610.0,100.0,0.0,0.038052447,0.0,7.0,0.0,0.0,4000000.0,110.0,1.0,0.0,0.0,10.0,0.0,0.0,-431.34772,-3.193206,302.60538,0.0063928664,0.4576633,-0.097526476,268.5029,268.4052,263.12985,263.10916,501.0,503.0,567.0,571.0,97.0,97.0,97.0,97.0,0.0,0.0,0.0,0.0,0.04736705,0.04761915,0.051629934,0.051139347,0.0,0.0,0.0,0.0,-3292.84,294.1175,-1163.3008,1687.7126,0.0,0.0,0.0,2.0,1.0,2.5045602,0.0029592554,-0.005518198,97.0,97.0,97.0,97.0,21.710573,21.710573,24.666473,24.666473,0.019874128,0.019549724,-4.852062E-4,-4.8687225E-4,1084.7471,0.0,0.0,0.0,0.0,0.0,0.0,0.0,0.0,0.0,0.0,0.0,0.0,0.0,43.496037,0.41241926,-58.77958,-0.0061379,-0.0031594273,-0.044787772,542862.8,119984.91,0.015912425,0.013548787,7258.4697,7481.6304,5229.8657,5131.701,0.30693817,0.0,0.0,0.0
53.060547,23615.79,0.749,0.0,0.0,264.06113,10647.0,100.0,0.0,0.078973375,0.0,7.0,0.0,0.0,4000000.0,110.0,1.0,0.0,0.0,10.0,0.0,0.0,-429.16913,-3.17469,299.66177,-0.022742197,0.45972767,-0.15646125,269.4348,269.37604,263.9548,263.9092,499.0,501.0,565.0,569.0,97.0,97.0,97.0,97.0,0.0,0.0,0.0,0.0,0.04519053,0.04555958,0.051273596,0.051518336,0.0,0.0,0.0,0.0,-694.692,1083.3708,954.9333,119.827675,0.0,0.0,0.0,2.0,1.0,2.504227,0.0031085182,-0.0044919252,97.0,97.0,97.0,97.0,21.710573,21.710573,24.666473,24.666473,0.020386782,0.020247031,-4.8324684E-4,-4.8764452E-4,1089.8429,0.0,0.0,0.0,0.0,0.0,0.0,0.0,0.0,0.0,0.0,0.0,0.0,0.0,43.640877,0.33358738,-58.954483,-0.016144466,-0.0077313394,0.019356424,543517.6,119984.9,0.01751749,0.01701112,6986.296,7135.7617,5326.5713,5426.327,0.31017685,0.0,0.0,0.0
57.964844,23620.693,0.799,0.0,0.0,265.16095,10674.0,100.0,0.0,0.09736144,0.0,7.0,0.0,0.0,4000000.0,110.0,1.0,0.0,0.0,10.0,0.0,0.0,-426.2528,-3.1554961,295.72336,-0.043376267,0.46309197,0.17878814,270.0376,270.08823,265.03763,265.01688,496.0,498.0,562.0,567.0,97.0,97.0,97.0,97.0,0.0,0.0,0.0,0.0,0.04807941,0.047559027,0.051838376,0.052237347,157.58626,96.35612,13.887807,17.61183,7347.8975,1692.9697,594.9944,-1053.062,0.0,0.0,0.0,2.0,1.0,2.5038629,0.0038655116,-0.005594492,97.0,97.0,97.0,97.0,21.710573,21.710573,24.666473,24.666473,0.018369483,0.018663788,-4.8241648E-4,-4.8357664E-4,1093.5282,0.0,0.0,0.0,0.0,0.0,0.0,0.0,0.0,0.0,0.0,0.0,0.0,0.0,43.84025,0.30562818,-59.18715,0.008838829,-0.0036461337,0.040054705,543976.06,119984.91,0.013774816,0.012258274,8286.118,8016.4463,5825.417,5998.1807,0.30468082,0.0,0.0,0.0
60.42383,23623.152,0.849,0.0,0.0,265.70285,10692.0,100.0,0.0,-0.015933119,0.0,7.0,0.0,0.0,4000000.0,110.0,1.0,0.0,0.0,10.0,0.0,0.0,-424.78976,-3.1439075,293.74832,-0.019662037,0.46329084,0.2866914,270.43646,270.6143,265.5668,265.5756,495.0,496.0,561.0,565.0,97.0,97.0,97.0,97.0,0.0,0.0,0.0,0.0,0.04986714,0.048986778,0.05188411,0.052725654,0.0,0.0,0.0,0.0,-7175.954,-2067.755,-361.0387,299.7771,0.0,0.0,0.0,2.0,1.0,2.5038488,0.0028613643,-0.0063672066,97.0,97.0,97.0,97.0,21.710573,21.710573,24.666473,24.666473,0.017918551,0.01850253,-4.817428E-4,-4.939877E-4,1096.0173,0.0,0.0,0.0,0.0,0.0,0.0,0.0,0.0,0.0,0.0,0.0,0.0,0.0,43.934498,0.38832858,-59.30418,-0.004638687,0.0019489923,0.031495064,544296.44,119984.9,0.012266409,0.010112685,8539.583,8059.693,5753.017,6206.8174,0.30432224,0.0,0.0,0.0
64.12305,23626.852,0.899,0.0,0.0,266.4903,10727.0,100.0,0.0,0.26494825,0.0,7.0,0.0,0.0,4000000.0,110.0,1.0,0.0,0.0,10.0,0.0,0.0,-422.5892,-3.1217577,290.77878,-0.046178266,0.4453098,0.11333912,271.34744,271.46625,266.3798,266.33835,493.0,494.0,559.0,563.0,97.0,97.0,97.0,97.0,0.0,0.0,0.0,0.0,0.049072042,0.04828267,0.052004177,0.052574467,0.0,0.0,0.0,0.0,257.58588,490.17365,258.10895,-700.71356,0.0,0.0,0.0,2.0,1.0,2.503735,3.1319304E-4,-0.0070456266,97.0,97.0,97.0,97.0,21.710573,21.710573,24.666473,24.666473,0.018192554,0.018761262,-4.931778E-4,-4.71731E-4,1100.8298,0.0,0.0,0.0,0.0,0.0,0.0,0.0,0.0,0.0,0.0,0.0,0.0,0.0,44.080307,0.47671685,-59.46774,-0.025439052,-0.008183165,0.05046332,544902.6,119984.9,0.011678546,0.010243553,8279.723,7855.904,5719.787,5902.2773,0.30317116,0.0,0.0,0.0
69.072266,23631.8,0.949,0.0,0.0,267.53305,10770.0,100.0,0.0,0.21195982,0.0,7.0,0.0,0.0,4000000.0,110.0,1.0,0.0,0.0,10.0,0.0,0.0,-419.64352,-3.0874538,286.8069,-0.06138228,0.44073617,0.050406087,272.51074,272.48215,267.4448,267.35922,490.0,492.0,556.0,561.0,97.0,97.0,97.0,97.0,0.0,0.0,0.0,0.0,0.048505016,0.04846908,0.052353866,0.051996727,-6.2207127,-3.610253,-7.417425,-7.676258,547.96185,-692.4658,-235.87343,-199.11377,0.0,0.0,0.0,2.0,1.0,2.5028641,-3.6138593E-4,-0.0078446865,97.0,97.0,97.0,97.0,21.710573,21.710573,24.666473,24.666473,0.018478135,0.018682819,-4.7968733E-4,-4.808549E-4,1106.7648,0.0,0.0,0.0,0.0,0.0,0.0,0.0,0.0,0.0,0.0,0.0,0.0,0.0,44.282143,0.54173684,-59.678127,0.014731384,-0.014461849,-7.462837E-4,545653.1,119984.9,0.011888777,0.010429147,8009.499,7903.769,5806.7715,5633.4854,0.30393505,0.0,0.0,0.0
72.796875,23635.525,0.999,0.0,0.0,268.30548,10800.0,100.0,0.0,0.06875027,0.0,7.0,0.0,0.0,4000000.0,110.0,1.0,0.0,0.0,10.0,0.0,0.0,-417.4254,-3.059328,283.81888,-0.06151843,0.43595654,0.0029879727,273.30487,273.23953,268.20618,268.14667,488.0,489.0,554.0,559.0,97.0,97.0,97.0,97.0,0.0,0.0,0.0,0.0,0.048278607,0.048728853,0.052162744,0.051495854,-3.1962988,-5.3776054,-17.488895,-13.958662,105.97407,-1069.8525,-355.99615,-49.607445,0.0,0.0,0.0,2.0,1.0,2.502243,5.837436E-4,-0.0084062815,97.0,97.0,97.0,97.0,21.710573,21.710573,24.666473,24.666473,0.018579004,0.018490313,-4.7325448E-4,-4.8847153E-4,1110.9355,0.0,0.0,0.0,0.0,0.0,0.0,0.0,0.0,0.0,0.0,0.0,0.0,0.0,44.43414,0.5695484,-59.83226,0.0028589359,-0.009324625,-0.016058791,546187.94,119984.89,0.014440869,0.010846376,7887.5757,8026.08,5540.948,5255.7197,0.30444717,0.0,0.0,0.0
75.28516,23638.014,1.049,0.0,0.0,268.80634,10826.0,100.0,0.0,-0.057682924,0.0,7.0,0.0,0.0,4000000.0,110.0,1.0,0.0,0.0,10.0,0.0,0.0,-415.94257,-3.040383,281.8226,-0.04341729,0.4195577,-0.044317428,273.88815,273.97632,268.68445,268.67896,487.0,488.0,553.0,557.0,97.0,97.0,97.0,97.0,0.0,0.0,0.0,0.0,0.048130006,0.047715187,0.051654086,0.05175755,0.0,0.0,0.0,0.0,-2361.3628,-840.71155,795.8113,156.11797,0.0,0.0,0.0,2.0,1.0,2.5021112,8.08216E-4,-0.0077548027,97.0,97.0,97.0,97.0,21.710573,21.710573,24.666473,24.666473,0.01890135,0.019172149,-4.5714853E-4,-4.7952536E-4,1114.5334,0.0,0.0,0.0,0.0,0.0,0.0,0.0,0.0,0.0,0.0,0.0,0.0,0.0,44.52913,0.56322634,-59.935078,-0.015149826,1.8019268E-4,-0.014839931,546640.9,119984.91,0.015781755,0.013173628,7690.004,7512.2344,5468.4565,5554.5503,0.30725384,0.0,0.0,0.0
79.02734,23641.756,1.099,0.0,0.0,269.54898,10856.0,100.0,0.0,-0.061703216,0.0,7.0,0.0,0.0,4000000.0,110.0,1.0,0.0,0.0,10.0,0.0,0.0,-413.7124,-3.0134296,278.82178,-0.024031863,0.42035252,-0.041794952,274.65405,274.70303,269.4164,269.42575,484.0,486.0,551.0,556.0,97.0,97.0,97.0,97.0,0.0,0.0,0.0,0.0,0.04747395,0.046859417,0.051761407,0.051876266,0.0,0.0,0.0,0.0,1421.7181,617.6322,413.98547,128.66554,0.0,0.0,0.0,2.0,1.0,2.5021734,1.1978745E-4,-0.0074260235,97.0,97.0,97.0,97.0,21.710573,21.710573,24.666473,24.666473,0.019004183,0.019173132,-4.624939E-4,-4.745284E-4,1118.6741,0.0,0.0,0.0,0.0,0.0,0.0,0.0,0.0,0.0,0.0,0.0,0.0,0.0,44.666885,0.5248696,-60.090076,-0.0073140482,0.0018932326,0.021412361,547155.5,119984.89,0.017045142,0.015540344,7674.5117,7527.575,5624.6694,5661.542,0.31005383,0.0,0.0,0.0
84.03125,23646.76,1.149,0.0,0.0,270.5474,10882.0,100.0,0.0,0.14947847,0.0,7.0,0.0,0.0,4000000.0,110.0,1.0,0.0,0.0,10.0,0.0,0.0,-410.72876,-2.980875,274.80823,-0.013992906,0.42348298,0.26459956,275.31366,275.3635,270.41394,270.40714,482.0,483.0,548.0,553.0,97.0,97.0,97.0,97.0,0.0,0.0,0.0,0.0,0.050582822,0.04904826,0.05300789,0.052299116,122.455795,144.60391,12.841522,5.4931636,1635.5703,6723.6265,-3839.6084,274.5643,0.0,0.0,0.0,2.0,1.0,2.5023394,-0.004098962,-0.009336948,97.0,97.0,97.0,97.0,21.710573,21.710573,24.666473,24.666473,0.017690606,0.017894382,-4.840018E-4,-4.5680464E-4,1122.2959,0.0,0.0,0.0,0.0,0.0,0.0,0.0,0.0,0.0,0.0,0.0,0.0,0.0,44.83833,0.5306838,-60.308155,0.047420867,-0.0018219008,0.031385474,547615.44,119984.9,0.012390879,0.009550594,8596.59,8429.009,6371.3037,6112.4287,0.30158234,0.0,0.0,0.0
87.796875,23650.525,1.199,0.0,0.0,271.27917,10911.0,100.0,0.0,0.119931236,0.0,7.0,0.0,0.0,4000000.0,110.0,1.0,0.0,0.0,10.0,0.0,0.0,-408.48322,-2.9485683,271.78873,-0.030366033,0.39208382,0.3279802,276.09064,276.06302,271.18607,271.12213,480.0,481.0,547.0,551.0,97.0,97.0,97.0,97.0,0.0,0.0,0.0,0.0,0.049844988,0.04959767,0.05293581,0.05274058,-46.270336,-80.06572,14.786794,-7.3671336,-2933.907,-3694.836,1537.0531,-1589.8657,0.0,0.0,0.0,2.0,1.0,2.5019155,-0.0035833216,-0.010093927,97.0,97.0,97.0,97.0,21.710573,21.710573,24.666473,24.666473,0.017532287,0.017651323,-4.5636937E-4,-4.595166E-4,1126.3322,0.0,0.0,0.0,0.0,0.0,0.0,0.0,0.0,0.0,0.0,0.0,0.0,0.0,44.97187,0.73771024,-60.460007,-0.0016636025,-0.010780709,-0.004788966,548124.1,119984.9,0.012195535,0.009551686,8572.713,8519.1875,6388.1006,6175.531,0.30331802,0.0,0.0,0.0
90.3125,23653.041,1.249,0.0,0.0,271.7408,10937.0,100.0,0.0,-0.15058504,0.0,7.0,0.0,0.0,4000000.0,110.0,1.0,0.0,0.0,10.0,0.0,0.0,-406.98267,-2.9232907,269.77164,-0.0073500276,0.39109397,0.007581551,276.79483,276.67944,271.62717,271.60242,478.0,480.0,545.0,550.0,97.0,97.0,97.0,97.0,0.0,0.0,0.0,0.0,0.04815241,0.048797417,0.05265105,0.05198494,0.0,0.0,0.0,0.0,-107.28835,1742.0409,-768.14435,-384.32028,0.0,0.0,0.0,2.0,1.0,2.5016663,-0.0028098917,-0.010040045,97.0,97.0,97.0,97.0,21.710573,21.710573,24.666473,24.666473,0.01855416,0.018180456,-4.4500342E-4,-4.742082E-4,1129.9478,0.0,0.0,0.0,0.0,0.0,0.0,0.0,0.0,0.0,0.0,0.0,0.0,0.0,45.052353,0.7638181,-60.559635,0.014448423,-0.0028389394,-0.027731568,548576.44,119984.9,0.015468737,0.012508894,7807.3745,8109.7007,5826.3906,5490.359,0.3053217,0.0,0.0,0.0
94.0918,23656.82,1.299,0.0,0.0,272.4376,10975.0,100.0,0.0,-0.08348634,0.0,7.0,0.0,0.0,4000000.0,110.0,1.0,0.0,0.0,10.0,0.0,0.0,-404.72675,-2.8873022,266.73978,-0.0260154,0.408997,-0.21680129,277.62494,277.75885,272.30508,272.31158,476.0,478.0,543.0,548.0,97.0,97.0,97.0,97.0,0.0,0.0,0.0,0.0,0.046365462,0.046465784,0.051497065,0.05200708,0.0,0.0,0.0,0.0,4695.501,290.49658,4892.8184,566.29474,0.0,0.0,0.0,2.0,1.0,2.5016203,-0.0038265313,-0.009782076,97.0,97.0,97.0,97.0,21.710573,21.710573,24.666473,24.666473,0.019209309,0.0196777,-4.577292E-4,-4.7418693E-4,1135.2284,0.0,0.0,0.0,0.0,0.0,0.0,0.0,0.0,0.0,0.0,0.0,0.0,0.0,45.177643,0.66422176,-60.70885,-0.029531175,0.001197156,0.057316218,549231.9,119984.89,0.014818893,0.014828116,7506.455,7175.902,5577.5967,5748.032,0.30757046,0.0,0.0,0.0
99.146484,23661.875,1.349,0.0,0.0,273.40082,10993.0,100.0,0.0,0.027059868,0.0,7.0,0.0,0.0,4000000.0,110.0,1.0,0.0,0.0,10.0,0.0,0.0,-401.70926,-2.8415623,262.68515,-0.0063640773,0.41122696,0.3362129,278.12576,278.14435,273.25888,273.28278,474.0,475.0,541.0,545.0,97.0,97.0,97.0,97.0,0.0,0.0,0.0,0.0,0.050007153,0.05031959,0.052534726,0.052827224,15.607102,-5.659908,10.781586,26.691555,-2768.9514,-9828.189,1980.6904,-40.38059,0.0,0.0,0.0,2.0,1.0,2.5018742,-0.003964686,-0.011637688,97.0,97.0,97.0,97.0,21.710573,21.710573,24.666473,24.666473,0.017382396,0.017421577,-4.7497908E-4,-4.6360225E-4,1137.7384,0.0,0.0,0.0,0.0,0.0,0.0,0.0,0.0,0.0,0.0,0.0,0.0,0.0,45.338978,0.75583786,-60.921257,0.006175236,0.0034480875,0.014598898,549544.94,119984.9,0.009450287,0.0077413493,8715.401,8596.191,6288.16,6396.1367,0.3021736,0.0,0.0,0.0
102.94922,23665.678,1.399,0.0,0.0,274.09622,11022.0,100.0,0.0,-0.04944948,0.0,7.0,0.0,0.0,4000000.0,110.0,1.0,0.0,0.0,10.0,0.0,0.0,-399.43973,-2.800205,259.6348,0.023230746,0.3956582,0.25314844,278.90338,278.84796,273.94522,273.9872,472.0,473.0,539.0,543.0,97.0,97.0,97.0,97.0,0.0,0.0,0.0,0.0,0.049198955,0.049985673,0.05358588,0.0526448,-10.775774,3.4327803,28.88493,-9.642094,1423.6627,-567.1664,1032.0199,-569.75476,0.0,0.0,0.0,2.0,1.0,2.5021992,-0.0030431324,-0.012178779,97.0,97.0,97.0,97.0,21.710573,21.710573,24.666473,24.666473,0.017601142,0.017322162,-4.7713288E-4,-4.5590693E-4,1141.023,0.0,0.0,0.0,0.0,0.0,0.0,0.0,0.0,0.0,0.0,0.0,0.0,0.0,45.440502,0.88664746,-61.084736,0.033746485,0.0065262783,-0.024226643,549681.3,119984.89,0.0056413463,0.005775191,8432.076,8718.024,6828.7007,6193.6846,0.29959965,0.0,0.0,0.0
105.48828,23668.217,1.449,0.0,0.0,274.55844,11044.0,100.0,0.0,0.045743834,0.0,7.0,0.0,0.0,4000000.0,110.0,1.0,0.0,0.0,10.0,0.0,0.0,-397.9238,-2.7696536,257.59674,0.027465835,0.39693025,0.06401526,279.5965,279.27527,274.4358,274.41766,470.0,472.0,538.0,542.0,97.0,97.0,97.0,97.0,0.0,0.0,0.0,0.0,0.04803702,0.050098117,0.053931832,0.051877283,0.0,0.0,0.0,0.0,-733.46326,1965.7906,-2567.7588,902.2816,0.0,0.0,0.0,2.0,1.0,2.502206,1.3734184E-5,-0.012850046,97.0,97.0,97.0,97.0,21.710573,21.710573,24.666473,24.666473,0.018347042,0.017250538,-4.7344522E-4,-4.574078E-4,1143.3492,0.0,0.0,0.0,0.0,0.0,0.0,0.0,0.0,0.0,0.0,0.0,0.0,0.0,45.510815,0.92947537,-61.191833,0.0807996,-0.0024708626,-0.07681018,549704.8,119984.89,0.0051384475,0.0052267835,7770.668,8842.894,6589.9883,5669.4487,0.29840374,0.0,0.0,0.0
110.58203,23673.31,1.499,0.0,0.0,275.45758,11092.0,100.0,0.0,0.22523077,0.0,7.0,0.0,0.0,4000000.0,110.0,1.0,0.0,0.0,10.0,0.0,0.0,-394.88428,-2.7017868,253.51039,-0.057966903,0.36241978,-0.24740225,280.83215,280.48138,275.37192,275.30908,468.0,469.0,535.0,539.0,97.0,97.0,97.0,97.0,0.0,0.0,0.0,0.0,0.04653707,0.048667297,0.052185334,0.051484447,-72.66059,-101.45812,-14.071091,-17.647146,2925.7532,-4112.0405,5475.0317,-1289.4987,0.0,0.0,0.0,2.0,1.0,2.5016272,0.012121394,-0.011960268,97.0,97.0,97.0,97.0,21.710573,21.710573,24.666473,24.666473,0.019214064,0.018263584,-4.5511156E-4,-4.3370677E-4,1148.4254,0.0,0.0,0.0,0.0,0.0,0.0,0.0,0.0,0.0,0.0,0.0,0.0,0.0,45.670124,0.99937654,-61.383533,0.006839227,-0.009807694,-0.10688421,549755.94,119984.91,0.0127500985,0.010471945,7142.1797,7939.3486,5643.8965,5174.1733,0.3065815,0.0,0.0,0.0
114.41211,23677.14,1.549,0.0,0.0,276.11444,11123.0,100.0,0.0,-0.25136155,0.0,7.0,0.0,0.0,4000000.0,110.0,1.0,0.0,0.0,10.0,0.0,0.0,-392.5979,-2.6570156,250.43736,-0.005889967,0.3855616,-0.34270662,281.41492,281.447,275.95734,276.01868,466.0,467.0,533.0,537.0,97.0,97.0,97.0,97.0,0.0,0.0,0.0,0.0,0.04455415,0.045416202,0.051654123,0.051635034,10.818466,-43.41222,6.689876,2.4222581,3445.914,2017.8658,896.1259,266.22263,0.0,0.0,0.0,2.0,1.0,2.5017033,0.014268926,-0.010460973,97.0,97.0,97.0,97.0,21.710573,21.710573,24.666473,24.666473,0.019411605,0.019424958,-4.4697095E-4,-4.6631234E-4,1151.7032,0.0,0.0,0.0,0.0,0.0,0.0,0.0,0.0,0.0,0.0,0.0,0.0,0.0,45.78046,0.8085058,-61.53169,0.023024123,0.01175779,-0.035805583,549788.5,119984.89,0.014863327,0.015442267,7299.2554,7179.7456,5533.4663,5501.458,0.3104105,0.0,0.0,0.0
116.9707,23679.7,1.599,0.0,0.0,276.56018,11131.0,100.0,0.0,-0.39201504,0.0,7.0,0.0,0.0,4000000.0,110.0,1.0,0.0,0.0,10.0,0.0,0.0,-391.07077,-2.631406,248.38434,0.050773054,0.37610748,-0.15419674,281.66348,281.62415,276.37415,276.48996,464.0,466.0,532.0,536.0,97.0,97.0,97.0,97.0,0.0,0.0,0.0,0.0,0.045350295,0.047095586,0.051903263,0.051801752,0.0,0.0,0.0,0.0,2602.118,1508.1792,511.73853,-348.1641,0.0,0.0,0.0,2.0,1.0,2.5022535,0.01539463,-0.010703206,97.0,97.0,97.0,97.0,21.710573,21.710573,24.666473,24.666473,0.018737433,0.018245354,-4.472175E-4,-4.5953068E-4,1152.5507,0.0,0.0,0.0,0.0,0.0,0.0,0.0,0.0,0.0,0.0,0.0,0.0,0.0,45.841366,0.7437747,-61.641525,0.02771886,0.020285148,-0.017573487,549797.6,119984.9,0.014894728,0.013966252,7605.9487,7863.9644,5725.6123,5632.7827,0.3086195,0.0,0.0,0.0
120.81641,23683.545,1.649,0.0,0.0,277.21732,11154.0,100.0,0.0,-0.48286942,0.0,7.0,0.0,0.0,4000000.0,110.0,1.0,0.0,0.0,10.0,0.0,0.0,-388.77686,-2.5957277,245.29762,0.1243366,0.37367773,-0.04381352,282.23322,282.21933,277.00864,277.17615,462.0,464.0,530.0,534.0,97.0,97.0,97.0,97.0,0.0,0.0,0.0,0.0,0.047767617,0.048509024,0.05247678,0.051769312,0.0,0.0,0.0,0.0,62.09312,561.8825,5006.9863,1396.1299,0.0,0.0,0.0,2.0,1.0,2.503563,0.017036498,-0.010286808,97.0,97.0,97.0,97.0,21.710573,21.710573,24.666473,24.666473,0.01842243,0.017883146,-4.59915E-4,-4.5014283E-4,1154.9838,0.0,0.0,0.0,0.0,0.0,0.0,0.0,0.0,0.0,0.0,0.0,0.0,0.0,45.90743,0.69206226,-61.82047,0.029789995,0.028923845,-0.05752657,549822.2,119984.91,0.012246678,0.011060938,7764.577,8084.3726,6239.22,5832.437,0.3085327,0.0,0.0,0.0
125.95703,23688.686,1.699,0.0,0.0,278.08505,11175.0,100.0,0.0,-0.18065457,0.0,7.0,0.0,0.0,4000000.0,110.0,1.0,0.0,0.0,10.0,0.0,0.0,-385.71432,-2.546164,241.16747,0.14385524,0.371752,0.37200594,282.75903,282.70004,277.90118,278.01224,460.0,461.0,527.0,532.0,97.0,97.0,97.0,97.0,0.0,0.0,0.0,0.0,0.050605755,0.050947644,0.052926656,0.05282542,33.843662,9.94943,-1.2378393,6.6062803,-5758.997,-1483.4357,665.4828,775.43994,0.0,0.0,0.0,2.0,1.0,2.5052876,0.020168023,-0.012253046,97.0,97.0,97.0,97.0,21.710573,21.710573,24.666473,24.666473,0.017082835,0.016415393,-4.7373175E-4,-4.406946E-4,1157.2039,0.0,0.0,0.0,0.0,0.0,0.0,0.0,0.0,0.0,0.0,0.0,0.0,0.0,45.96993,0.82697463,-62.07256,0.019913008,0.017893676,-0.019662723,549843.8,119984.9,0.010228044,0.005823113,8605.858,9407.914,6284.2793,6292.779,0.30597687,0.0,0.0,0.0
129.82422,23692.553,1.749,0.0,0.0,278.6957,11209.0,100.0,0.0,0.070438445,0.0,7.0,0.0,0.0,4000000.0,110.0,1.0,0.0,0.0,10.0,0.0,0.0,-383.4142,-2.5021565,238.05943,0.08165196,0.34339616,0.0045960317,283.6503,283.58347,278.56534,278.58206,458.0,459.0,525.0,530.0,97.0,97.0,97.0,97.0,0.0,0.0,0.0,0.0,0.048815154,0.048943214,0.052202288,0.052940913,-25.05362,-26.082693,-14.688893,-4.395023,1057.3534,2252.6128,-15.476359,-39.0932,0.0,0.0,0.0,2.0,1.0,2.5057602,0.020530848,-0.011616945,97.0,97.0,97.0,97.0,21.710573,21.710573,24.666473,24.666473,0.017746283,0.017501922,-4.5109357E-4,-4.2921453E-4,1160.8029,0.0,0.0,0.0,0.0,0.0,0.0,0.0,0.0,0.0,0.0,0.0,0.0,0.0,46.032963,0.8950337,-62.23601,-0.018967174,0.0019803233,-1.7117057E-4,549880.9,119984.9,0.013446729,0.010386539,8119.177,8324.174,5757.7964,6145.238,0.30799103,0.0,0.0,0.0
132.40625,23695.135,1.799,0.0,0.0,279.0942,11230.0,100.0,0.0,0.20031627,0.0,7.0,0.0,0.0,4000000.0,110.0,1.0,0.0,0.0,10.0,0.0,0.0,-381.8788,-2.4725976,235.98314,0.025311917,0.33713365,-0.113178454,284.1868,284.11417,278.99368,278.94528,456.0,458.0,524.0,528.0,97.0,97.0,97.0,97.0,0.0,0.0,0.0,0.0,0.04813706,0.048233174,0.052367773,0.05241813,0.0,0.0,0.0,0.0,364.96808,-1.3680266,-630.64087,-381.26257,0.0,0.0,0.0,2.0,1.0,2.5056052,0.020160552,-0.011542082,97.0,97.0,97.0,97.0,21.710573,21.710573,24.666473,24.666473,0.01817459,0.018137133,-4.5089007E-4,-4.238122E-4,1163.0248,0.0,0.0,0.0,0.0,0.0,0.0,0.0,0.0,0.0,0.0,0.0,0.0,0.0,46.088886,0.87286144,-62.33265,0.0036242788,-0.009714351,0.006887665,549903.2,119984.91,0.015386663,0.013235323,7761.933,7863.79,5848.5835,5825.2456,0.3089981,0.0,0.0,0.0
136.28711,23699.016,1.849,0.0,0.0,279.7119,11252.0,100.0,0.0,-0.109512195,0.0,7.0,0.0,0.0,4000000.0,110.0,1.0,0.0,0.0,10.0,0.0,0.0,-379.5722,-2.4332674,232.86253,0.009069413,0.35265565,-0.06630547,284.65253,284.76254,279.5892,279.57965,454.0,456.0,522.0,526.0,97.0,97.0,97.0,97.0,0.0,0.0,0.0,0.0,0.048787273,0.04741813,0.05261948,0.052045356,0.0,0.0,0.0,0.0,3357.5354,803.6702,3481.775,-263.70135,0.0,0.0,0.0,2.0,1.0,2.505329,0.0150308795,-0.0114610195,97.0,97.0,97.0,97.0,21.710573,21.710573,24.666473,24.666473,0.017741606,0.018241983,-4.4170223E-4,-4.493635E-4,1165.3531,0.0,0.0,0.0,0.0,0.0,0.0,0.0,0.0,0.0,0.0,0.0,0.0,0.0,46.179752,0.7518127,-62.480442,-0.034419157,-0.0025148916,0.0707475,549926.75,119984.914,0.01295826,0.011352648,8173.892,7727.8467,6221.1084,5997.1304,0.30739594,0.0,0.0,0.0
141.47461,23704.203,1.916,0.0,0.0,280.52707,11272.0,100.0,0.0,0.8426052,0.0,7.0,0.0,0.0,4000000.0,110.0,1.0,0.0,0.0,10.0,0.0,0.0,-376.4891,-2.378392,228.6906,-0.078336954,0.33493188,0.30363455,285.22043,285.15942,280.41528,280.38007,452.0,453.0,520.0,524.0,97.0,97.0,97.0,97.0,0.0,0.0,0.0,0.0,0.050358344,0.050214134,0.053410217,0.05325328,0.0,0.0,0.0,0.0,2486.5684,-7147.241,1620.5369,-1523.5348,0.0,0.0,0.0,2.0,1.0,2.5054471,0.014941708,-0.013074994,97.0,97.0,97.0,97.0,21.710573,21.710573,24.666473,24.666473,0.016658658,0.016660128,-5.1062E-4,-3.732322E-4,1167.4683,0.0,0.0,0.0,0.0,0.0,0.0,0.0,0.0,0.0,0.0,0.0,0.0,0.0,46.31512,0.92063516,-62.659718,0.017345777,-0.011413615,0.016834008,549947.4,119984.91,0.009659353,0.007125201,8882.225,8997.379,6638.632,6472.3057,0.30214405,0.0,0.0,0.0
145.375,23708.104,1.949,0.0,0.0,281.10727,11302.0,100.0,0.0,0.58252394,0.0,7.0,0.0,0.0,4000000.0,110.0,1.0,0.0,0.0,10.0,0.0,0.0,-374.16962,-2.3292904,225.55507,-0.13635173,0.32143074,0.047523256,286.00885,285.90594,281.0973,280.87488,450.0,451.0,518.0,522.0,97.0,97.0,97.0,97.0,0.0,0.0,0.0,0.0,0.049699035,0.049112294,0.053215586,0.052339945,-30.347628,-60.13691,-16.169472,-20.122826,-2438.5432,-2038.5322,-855.2759,-165.98853,0.0,0.0,0.0,2.0,1.0,2.5039124,0.014760671,-0.013158679,97.0,97.0,97.0,97.0,21.710573,21.710573,24.666473,24.666473,0.017006591,0.017411396,-4.3992457E-4,-4.2670927E-4,1170.6439,0.0,0.0,0.0,0.0,0.0,0.0,0.0,0.0,0.0,0.0,0.0,0.0,0.0,46.45932,1.0122176,-62.752125,-0.0014268355,-0.037848707,-0.028168347,549979.5,119984.9,0.012330516,0.009225552,8527.777,8293.977,6175.0796,5779.8887,0.30510235,0.0,0.0,0.0
149.2832,23712.012,2.016,0.0,0.0,281.6763,11334.0,100.0,0.0,0.35576522,0.0,7.0,0.0,0.0,4000000.0,110.0,1.0,0.0,0.0,10.0,0.0,0.0,-371.8425,-2.2812598,222.41533,-0.18583491,0.326476,-0.15621844,286.7681,286.7545,281.63925,281.46072,448.0,449.0,516.0,520.0,97.0,97.0,97.0,97.0,0.0,0.0,0.0,0.0,0.048334755,0.04768943,0.052714203,0.052303556,0.0,0.0,0.0,0.0,2736.6978,371.25787,1200.2885,-97.72627,0.0,0.0,0.0,2.0,1.0,2.5021865,0.0144352075,-0.012429476,97.0,97.0,97.0,97.0,21.710573,21.710573,24.666473,24.666473,0.017882392,0.018415455,-4.2683713E-4,-4.4209522E-4,1174.0303,0.0,0.0,0.0,0.0,0.0,0.0,0.0,0.0,0.0,0.0,0.0,0.0,0.0,46.61983,0.92090476,-62.83132,-0.0043127406,-0.030139824,0.028403452,550013.2,119984.9,0.012080356,0.011588869,7983.2925,7577.1113,6276.991,6030.511,0.3062458,0.0,0.0,0.0
153.19922,23715.928,2.066,0.0,0.0,282.26804,11344.0,100.0,0.0,0.19356829,0.0,7.0,0.0,0.0,4000000.0,110.0,1.0,0.0,0.0,10.0,0.0,0.0,-369.50708,-2.2354102,219.27165,-0.16918138,0.33589256,0.13992019,286.9816,287.04056,282.18774,282.09286,446.0,447.0,514.0,518.0,97.0,97.0,97.0,97.0,0.0,0.0,0.0,0.0,0.050583873,0.04984977,0.052708313,0.052669458,0.0,0.0,0.0,0.0,-1004.52734,-3739.9243,-1246.6504,-1142.2319,0.0,0.0,0.0,2.0,1.0,2.5010567,0.013563077,-0.01374352,97.0,97.0,97.0,97.0,21.710573,21.710573,24.666473,24.666473,0.016576143,0.017158173,-4.305982E-4,-4.5715086E-4,1175.0894,0.0,0.0,0.0,0.0,0.0,0.0,0.0,0.0,0.0,0.0,0.0,0.0,0.0,46.786686,0.93924624,-62.911884,-0.004610056,-0.015489738,0.025133047,550024.06,119984.9,0.011079811,0.0077243694,9057.789,8390.904,6024.8047,6078.0874,0.30346394,0.0,0.0,0.0
157.12305,23719.852,2.116,0.0,0.0,282.8331,11368.0,100.0,0.0,0.06302318,0.0,7.0,0.0,0.0,4000000.0,110.0,1.0,0.0,0.0,10.0,0.0,0.0,-367.1638,-2.1855643,216.12384,-0.11186758,0.31232843,0.15502198,287.62173,287.61795,282.72876,282.68378,444.0,446.0,512.0,516.0,97.0,97.0,97.0,97.0,0.0,0.0,0.0,0.0,0.049661167,0.0495164,0.05390478,0.052754916,0.0,0.0,0.0,0.0,-2908.56,-1340.4338,551.71686,-2056.0874,0.0,0.0,0.0,2.0,1.0,2.5005364,0.013279425,-0.014005542,97.0,97.0,97.0,97.0,21.710573,21.710573,24.666473,24.666473,0.016887363,0.01704735,-4.302924E-4,-4.3577224E-4,1177.6301,0.0,0.0,0.0,0.0,0.0,0.0,0.0,0.0,0.0,0.0,0.0,0.0,0.0,46.932186,1.043503,-62.997623,0.036352105,-0.00694805,-0.020477567,550049.6,119984.9,0.008434177,0.0075848573,8602.536,8483.063,7020.5264,6280.8,0.30254555,0.0,0.0,0.0
161.05469,23723.783,2.166,0.0,0.0,283.39404,11391.0,100.0,0.0,-0.29605687,0.0,7.0,0.0,0.0,4000000.0,110.0,1.0,0.0,0.0,10.0,0.0,0.0,-364.81403,-2.132547,212.97116,-0.025755987,0.31356114,0.0975915,288.18686,288.24298,283.24905,283.29553,442.0,444.0,510.0,514.0,97.0,97.0,97.0,97.0,0.0,0.0,0.0,0.0,0.050191343,0.049074464,0.053160474,0.052666582,0.0,0.0,0.0,0.0,2589.954,-3422.7666,2470.8774,-516.24475,0.0,0.0,0.0,2.0,1.0,2.5005689,0.0146201495,-0.0140019655,97.0,97.0,97.0,97.0,21.710573,21.710573,24.666473,24.666473,0.016924541,0.017061211,-4.127041E-4,-4.4591323E-4,1179.4528,0.0,0.0,0.0,0.0,0.0,0.0,0.0,0.0,0.0,0.0,0.0,0.0,0.0,47.04535,1.0789744,-63.107037,0.019680718,0.010051148,-0.043663625,549788.56,119984.9,0.009865847,0.0076208413,8704.584,8338.468,6518.5073,6198.3374,0.30440807,0.0,0.0,0.0
164.99414,23727.723,2.216,0.0,0.0,283.93985,11416.0,100.0,0.0,-0.61645883,0.0,7.0,0.0,0.0,4000000.0,110.0,1.0,0.0,0.0,10.0,0.0,0.0,-362.4598,-2.0792544,209.81229,0.08935505,0.31053215,-0.06255942,288.79834,288.87708,283.7248,283.9028,440.0,442.0,509.0,513.0,97.0,97.0,97.0,97.0,0.0,0.0,0.0,0.0,0.04902238,0.04894669,0.052619692,0.053064365,0.0,0.0,0.0,0.0,2820.7446,-1117.3947,2550.0562,-2658.0422,0.0,0.0,0.0,2.0,1.0,2.501634,0.015288321,-0.014248967,97.0,97.0,97.0,97.0,21.710573,21.710573,24.666473,24.666473,0.017423097,0.017173193,-4.1705256E-4,-4.408051E-4,1180.9984,0.0,0.0,0.0,0.0,0.0,0.0,0.0,0.0,0.0,0.0,0.0,0.0,0.0,47.113598,1.0519893,-63.24574,0.010340795,0.030888656,0.01655399,549303.5,119984.91,0.009681333,0.008711445,8210.253,8259.791,6225.0273,6201.5527,0.3042431,0.0,0.0,0.0
168.9414,23731.67,2.266,0.0,0.0,284.49167,11434.0,100.0,0.0,-1.1239071,0.0,7.0,0.0,0.0,4000000.0,110.0,1.0,0.0,0.0,10.0,0.0,0.0,-360.1038,-2.0266976,206.6453,0.2689977,0.30928776,0.062558204,289.21783,289.37888,284.19748,284.53625,438.0,440.0,507.0,511.0,97.0,97.0,97.0,97.0,0.0,0.0,0.0,0.0,0.049597405,0.04971985,0.05223004,0.0533152,0.0,0.0,0.0,0.0,1966.6892,-3541.575,385.59433,-219.19011,0.0,0.0,0.0,2.0,1.0,2.503902,0.015369907,-0.014580011,97.0,97.0,97.0,97.0,21.710573,21.710573,24.666473,24.666473,0.017153805,0.016660864,-4.037197E-4,-4.5313785E-4,1182.0817,0.0,0.0,0.0,0.0,0.0,0.0,0.0,0.0,0.0,0.0,0.0,0.0,0.0,47.12043,1.0621401,-63.431545,-0.00602384,0.05939418,7.441001E-4,548941.8,119984.9,0.0095687285,0.0069956854,8451.645,8688.908,5969.7393,6510.2495,0.30259514,0.0,0.0,0.0
172.89648,23735.625,2.316,0.0,0.0,285.0201,11459.0,100.0,0.0,-1.5142885,0.0,7.0,0.0,0.0,4000000.0,110.0,1.0,0.0,0.0,10.0,0.0,0.0,-357.74927,-1.973761,203.46774,0.4533292,0.29338688,0.016295634,289.87714,290.01028,284.64816,285.13922,437.0,438.0,505.0,509.0,97.0,97.0,97.0,97.0,0.0,0.0,0.0,0.0,0.04844894,0.049670987,0.05211716,0.05379074,0.0,0.0,0.0,0.0,-252.40929,-1249.7886,979.22076,523.3392,0.0,0.0,0.0,2.0,1.0,2.5075762,0.01553166,-0.013798475,97.0,97.0,97.0,97.0,21.710573,21.710573,24.666473,24.666473,0.017830646,0.016706485,-4.0274166E-4,-4.3823483E-4,1183.5829,0.0,0.0,0.0,0.0,0.0,0.0,0.0,0.0,0.0,0.0,0.0,0.0,0.0,47.052288,1.0613078,-63.66476,-0.004853986,0.08454165,-2.3485743E-5,548439.8,119984.91,0.008651072,0.008196254,7847.271,8659.975,6137.726,6875.099,0.30313015,0.0,0.0,0.0
176.85938,23739.588,2.366,0.0,0.0,285.54123,11476.0,100.0,0.0,-1.4851102,0.0,7.0,0.0,0.0,4000000.0,110.0,1.0,0.0,0.0,10.0,0.0,0.0,-355.39987,-1.9210439,200.27739,0.5749743,0.29893354,0.05372352,290.27917,290.4242,285.13712,285.68253,435.0,436.0,503.0,507.0,97.0,97.0,97.0,97.0,0.0,0.0,0.0,0.0,0.048944857,0.05048364,0.05186567,0.054012563,0.0,0.0,0.0,0.0,1032.8246,-716.6593,-42.08387,700.92816,0.0,0.0,0.0,2.0,1.0,2.5120962,0.015617021,-0.014403105,97.0,97.0,97.0,97.0,21.710573,21.710573,24.666473,24.666473,0.017480148,0.016277561,-4.198752E-4,-4.2771158E-4,1184.6454,0.0,0.0,0.0,0.0,0.0,0.0,0.0,0.0,0.0,0.0,0.0,0.0,0.0,46.92333,1.0594896,-63.939556,1.3323128E-4,0.09213161,0.018056843,548119.0,119984.91,0.009210922,0.0071352795,8062.779,9084.021,5803.703,6854.616,0.30283356,0.0,0.0,0.0
180.83008,23743.559,2.416,0.0,0.0,286.05066,11497.0,100.0,0.0,-1.1710254,0.0,7.0,0.0,0.0,4000000.0,110.0,1.0,0.0,0.0,10.0,0.0,0.0,-353.05774,-1.8679678,197.07283,0.59396887,0.28713652,0.038014293,290.8439,290.93512,285.68576,286.16,433.0,434.0,501.0,505.0,97.0,97.0,97.0,97.0,0.0,0.0,0.0,0.0,0.04901702,0.050068613,0.051954627,0.053750273,0.0,0.0,0.0,0.0,-1353.8984,1258.4655,2315.524,-1996.8105,0.0,0.0,0.0,2.0,1.0,2.5164442,0.014575036,-0.014298797,97.0,97.0,97.0,97.0,21.710573,21.710573,24.666473,24.666473,0.01744731,0.016364839,-4.3594145E-4,-3.9991742E-4,1185.9052,0.0,0.0,0.0,0.0,0.0,0.0,0.0,0.0,0.0,0.0,0.0,0.0,0.0,46.77038,1.0689445,-64.22651,-0.0015492486,0.07880893,-0.012663592,547699.6,119984.89,0.009966237,0.007591024,8040.2183,8996.8545,5987.961,6564.5938,0.30147743,0.0,0.0,0.0
184.80664,23747.535,2.466,0.0,0.0,286.54633,11519.0,100.0,0.0,-0.9579392,0.0,7.0,0.0,0.0,4000000.0,110.0,1.0,0.0,0.0,10.0,0.0,0.0,-350.72324,-1.8151627,193.85405,0.55569607,0.2807663,-0.055662464,291.45023,291.4663,286.23627,286.60352,431.0,432.0,499.0,503.0,97.0,97.0,97.0,97.0,0.0,0.0,0.0,0.0,0.048841693,0.04941554,0.05183393,0.05374084,0.0,0.0,0.0,0.0,3110.6245,-2766.296,1243.3513,228.83264,0.0,0.0,0.0,2.0,1.0,2.5198922,0.014121945,-0.013700485,97.0,97.0,97.0,97.0,21.710573,21.710573,24.666473,24.666473,0.017638408,0.016677244,-4.2846127E-4,-4.0470902E-4,1187.2137,0.0,0.0,0.0,0.0,0.0,0.0,0.0,0.0,0.0,0.0,0.0,0.0,0.0,46.62052,1.0442415,-64.50575,-0.0146385245,0.060415927,0.009100494,547256.75,119984.91,0.010515124,0.0089945495,7884.65,8674.838,5860.779,6703.5547,0.30413342,0.0,0.0,0.0
188.79102,23751.52,2.516,0.0,0.0,287.04236,11534.0,100.0,0.0,-0.7623778,0.0,7.0,0.0,0.0,4000000.0,110.0,1.0,0.0,0.0,10.0,0.0,0.0,-348.39563,-1.7637583,190.62186,0.47682142,0.28687,0.017593212,291.87134,291.80014,286.7717,287.0534,429.0,430.0,498.0,502.0,97.0,97.0,97.0,97.0,0.0,0.0,0.0,0.0,0.049019862,0.05014122,0.052529406,0.05349476,0.0,0.0,0.0,0.0,3126.7178,-1263.0253,1843.9917,-1098.0292,0.0,0.0,0.0,2.0,1.0,2.5225163,0.014449896,-0.014209509,97.0,97.0,97.0,97.0,21.710573,21.710573,24.666473,24.666473,0.017279977,0.016302163,-4.362599E-4,-4.0956697E-4,1188.1141,0.0,0.0,0.0,0.0,0.0,0.0,0.0,0.0,0.0,0.0,0.0,0.0,0.0,46.497852,1.0256447,-64.76424,0.03308656,0.046039164,-0.011751329,546959.56,119984.9,0.009189799,0.0075933463,8113.5293,8978.516,6325.253,6530.9844,0.30270004,0.0,0.0,0.0
192.78125,23755.51,2.566,0.0,0.0,287.53873,11549.0,100.0,0.0,-0.6940899,0.0,7.0,0.0,0.0,4000000.0,110.0,1.0,0.0,0.0,10.0,0.0,0.0,-346.0733,-1.7110096,187.37735,0.40825397,0.27960593,0.2267633,292.25076,292.16687,287.3004,287.5228,427.0,429.0,496.0,500.0,97.0,97.0,97.0,97.0,0.0,0.0,0.0,0.0,0.049480997,0.051057667,0.0527647,0.05406102,0.0,0.0,0.0,0.0,903.8373,-720.83014,1754.0571,-211.77376,0.0,0.0,0.0,2.0,1.0,2.5245068,0.015997563,-0.01482594,97.0,97.0,97.0,97.0,21.710573,21.710573,24.666473,24.666473,0.016748264,0.01580112,-4.2411993E-4,-4.1821186E-4,1189.0206,0.0,0.0,0.0,0.0,0.0,0.0,0.0,0.0,0.0,0.0,0.0,0.0,0.0,46.40512,1.0981797,-64.99903,0.0099895215,0.03665693,0.005108705,546665.94,119984.91,0.007620784,0.0056803054,8437.378,9471.12,6558.8633,7066.788,0.3014412,0.0,0.0,0.0
196.77734,23759.506,2.616,0.0,0.0,288.01575,11573.0,100.0,0.0,-0.6881266,0.0,7.0,0.0,0.0,4000000.0,110.0,1.0,0.0,0.0,10.0,0.0,0.0,-343.75504,-1.6550465,184.12172,0.35121232,0.2684763,0.029618533,292.79105,292.8425,287.78482,288.00815,425.0,427.0,494.0,498.0,97.0,97.0,97.0,97.0,0.0,0.0,0.0,0.0,0.04929893,0.049929474,0.052176002,0.053721394,0.0,0.0,0.0,0.0,1193.0598,-802.07434,1128.1235,1292.4221,0.0,0.0,0.0,2.0,1.0,2.5263443,0.015558683,-0.014395714,97.0,97.0,97.0,97.0,21.710573,21.710573,24.666473,24.666473,0.01685781,0.016365184,-4.0717315E-4,-4.185598E-4,1190.4635,0.0,0.0,0.0,0.0,0.0,0.0,0.0,0.0,0.0,0.0,0.0,0.0,0.0,46.333492,1.127469,-65.21224,-0.035041735,0.037851598,0.008137044,546194.25,119984.9,0.010037649,0.0075683347,8338.96,8846.972,5924.683,6686.328,0.30467415,0.0,0.0,0.0
200.78125,23763.51,2.666,0.0,0.0,288.4818,11593.0,100.0,0.0,-0.6932231,0.0,7.0,0.0,0.0,4000000.0,110.0,1.0,0.0,0.0,10.0,0.0,0.0,-341.44,-1.6000985,180.85576,0.33544534,0.27052274,-0.060985044,293.30948,293.31464,288.24142,288.4684,423.0,425.0,492.0,496.0,97.0,97.0,97.0,97.0,0.0,0.0,0.0,0.0,0.04864633,0.049861863,0.052318547,0.053764477,0.0,0.0,0.0,0.0,2275.0093,3735.9143,-24.341053,1222.9128,0.0,0.0,0.0,2.0,1.0,2.5282323,0.014981654,-0.01440227,97.0,97.0,97.0,97.0,21.710573,21.710573,24.666473,24.666473,0.017199216,0.016491842,-4.1138602E-4,-4.1938593E-4,1191.6763,0.0,0.0,0.0,0.0,0.0,0.0,0.0,0.0,0.0,0.0,0.0,0.0,0.0,46.27298,1.0779693,-65.41469,0.008512281,0.037856836,0.027047632,545807.44,119984.91,0.009843572,0.008497819,8075.8203,8749.77,6118.873,6809.214,0.302907,0.0,0.0,0.0
204.79297,23767.521,2.716,0.0,0.0,288.96057,11605.0,100.0,0.0,-0.59893656,0.0,7.0,0.0,0.0,4000000.0,110.0,1.0,0.0,0.0,10.0,0.0,0.0,-339.12775,-1.5461915,177.5797,0.3139377,0.27074876,0.17242022,293.6165,293.63458,288.72983,288.94052,422.0,423.0,490.0,494.0,97.0,97.0,97.0,97.0,0.0,0.0,0.0,0.0,0.04984761,0.050892822,0.052820276,0.053646557,0.0,0.0,0.0,0.0,-957.991,1309.3739,-653.69446,945.425,0.0,0.0,0.0,2.0,1.0,2.5300953,0.014094093,-0.015257597,97.0,97.0,97.0,97.0,21.710573,21.710573,24.666473,24.666473,0.016465498,0.015890023,-4.2075763E-4,-4.1400525E-4,1192.368,0.0,0.0,0.0,0.0,0.0,0.0,0.0,0.0,0.0,0.0,0.0,0.0,0.0,46.220913,1.1043853,-65.6138,0.010802032,0.03491885,0.004843938,545559.56,119984.9,0.008355284,0.005774411,8632.11,9240.412,6436.132,6812.974,0.3005886,0.0,0.0,0.0
208.81055,23771.54,2.766,0.0,0.0,289.42053,11626.0,100.0,0.0,-0.49629253,0.0,7.0,0.0,0.0,4000000.0,110.0,1.0,0.0,0.0,10.0,0.0,0.0,-336.81787,-1.4892433,174.29407,0.27082503,0.2548037,0.14492379,294.10693,294.19925,289.2117,289.39008,420.0,421.0,489.0,493.0,97.0,97.0,97.0,97.0,0.0,0.0,0.0,0.0,0.049859013,0.04999859,0.052756015,0.053978343,0.0,0.0,0.0,0.0,-1704.1012,-1017.9921,2881.4563,-213.77202,0.0,0.0,0.0,2.0,1.0,2.5317078,0.013895654,-0.014862776,97.0,97.0,97.0,97.0,21.710573,21.710573,24.666473,24.666473,0.016442638,0.016211104,-4.1180087E-4,-4.0821976E-4,1193.627,0.0,0.0,0.0,0.0,0.0,0.0,0.0,0.0,0.0,0.0,0.0,0.0,0.0,46.178684,1.1707349,-65.798546,-0.0127898,0.029881526,-0.002612841,545149.1,119984.9,0.008182751,0.0066152536,8609.269,8885.704,6517.712,6991.367,0.30144787,0.0,0.0,0.0
212.83203,23775.56,2.816,0.0,0.0,289.8672,11647.0,100.0,0.0,-0.18053378,0.0,7.0,0.0,0.0,4000000.0,110.0,1.0,0.0,0.0,10.0,0.0,0.0,-334.50974,-1.4316825,170.99962,0.20331667,0.2571604,-0.0548757,294.66388,294.70035,289.68652,289.80814,418.0,419.0,487.0,491.0,97.0,97.0,97.0,97.0,0.0,0.0,0.0,0.0,0.049464643,0.049483325,0.052481376,0.05349617,0.0,0.0,0.0,0.0,5367.019,-915.934,2069.1765,112.478424,0.0,0.0,0.0,2.0,1.0,2.5329716,0.012885535,-0.014641762,97.0,97.0,97.0,97.0,21.710573,21.710573,24.666473,24.666473,0.016689885,0.016520914,-4.2459357E-4,-3.926879E-4,1194.8807,0.0,0.0,0.0,0.0,0.0,0.0,0.0,0.0,0.0,0.0,0.0,0.0,0.0,46.154873,1.131666,-65.96744,-0.026061617,0.018312607,0.033357266,544737.75,119984.89,0.009612382,0.008007471,8415.27,8590.662,6152.4937,6534.83,0.30360222,0.0,0.0,0.0
216.85742,23779.586,2.866,0.0,0.0,289.37045,11393.0,100.0,0.0,0.10745566,0.0,7.0,0.0,0.0,4000000.0,110.0,1.0,0.0,0.0,10.0,0.0,0.0,-332.20416,-1.3752966,167.70056,0.11875942,-0.7243726,0.16431645,289.34848,289.3363,289.38177,289.3797,416.0,418.0,485.0,489.0,97.0,97.0,97.0,97.0,0.0,0.0,0.0,0.0,0.048503656,0.049115673,0.0538335,0.053618234,0.0,0.0,0.0,0.0,1312.284,410.82047,2195.5354,1481.5314,0.0,0.0,0.0,2.0,1.0,2.5333514,0.012686243,-0.0146045685,97.0,97.0,97.0,97.0,21.710573,21.710573,24.666473,24.666473,-1.0068328E-4,-6.4381646E-5,1.1766548E-6,6.0508326E-5,1179.59,0.0,0.0,0.0,0.0,0.0,0.0,0.0,0.0,0.0,0.0,0.0,0.0,0.0,46.014587,1.1466737,-65.896866,-0.0037081605,-0.0029573194,-0.023073673,549756.0,0.0,0.006707972,0.0072730505,8626.502,8993.471,7228.8857,7038.9683,0.30195332,0.0,0.0,0.0
220.86719,23783.596,2.916,0.0,0.0,288.5642,10939.0,100.0,0.0,0.19225179,0.0,8.0,0.0,0.0,4000000.0,110.0,1.0,0.0,0.0,10.0,0.0,0.0,-329.90863,-1.3162615,164.41174,0.013306163,-0.080226324,0.016116092,293.10025,293.04608,288.50235,288.42267,414.0,416.0,483.0,487.0,97.0,97.0,97.0,97.0,0.0,0.0,0.0,0.0,0.048856054,0.04890175,0.053743258,0.054026444,0.0,0.0,0.0,0.0,5074.873,1254.6702,1038.2695,-367.24802,0.0,0.0,0.0,2.0,1.0,2.532818,0.013606427,-0.014339805,97.0,97.0,97.0,97.0,21.710573,21.710573,24.666473,24.666473,0.013706403,0.013822114,-2.934762E-4,-2.9383108E-4,1130.226,0.0,0.0,0.0,0.0,0.0,0.0,0.0,0.0,0.0,0.0,0.0,0.0,0.0,45.866573,1.1889548,-65.72628,0.0020907354,-0.014351463,0.018679736,548611.2,119984.89,0.00767467,0.007674212,8491.449,8492.054,6780.7617,6930.6963,0.30393028,0.0,0.0,0.0
224.8789,23787.607,2.966,0.0,0.0,289.1427,10590.0,100.0,0.0,0.14608032,0.0,8.0,0.0,0.0,4000000.0,110.0,1.0,0.0,0.0,10.0,0.0,0.0,-327.61276,-1.2574083,161.12221,-0.045028582,0.34462792,-0.060073912,294.26953,294.2403,289.04535,288.9705,413.0,414.0,482.0,485.0,97.0,97.0,97.0,97.0,0.0,0.0,0.0,0.0,0.04967427,0.04992235,0.052894864,0.053065132,0.0,0.0,0.0,0.0,4304.851,44.430767,1607.9841,245.98535,0.0,0.0,0.0,2.0,1.0,2.5320768,0.01346411,-0.015619397,97.0,97.0,97.0,97.0,21.710573,21.710573,24.666473,24.666473,0.01765075,0.017814176,-4.5226308E-4,-4.5769743E-4,1082.0016,0.0,0.0,0.0,0.0,0.0,0.0,0.0,0.0,0.0,0.0,0.0,0.0,0.0,45.968964,1.1594226,-65.85133,-0.0014343094,-0.013433378,0.03292031,542511.5,119984.9,0.0096116485,0.006873156,8712.804,8626.829,6152.558,6160.0625,0.30393314,0.0,0.0,0.0
228.89648,23791.625,3.016,0.0,0.0,289.72763,10353.0,100.0,0.0,0.09333615,0.0,8.0,0.0,0.0,4000000.0,110.0,1.0,0.0,0.0,10.0,0.0,0.0,-325.31125,-1.1994189,157.82645,-0.06682911,0.31132346,0.0071219266,294.31628,294.38037,289.63773,289.5825,411.0,412.0,480.0,484.0,97.0,97.0,97.0,97.0,0.0,0.0,0.0,0.0,0.049771752,0.050153296,0.05286762,0.05248388,0.0,0.0,0.0,0.0,3941.7336,-2470.0996,1284.4695,886.5772,0.0,0.0,0.0,2.0,1.0,2.5314817,0.014551512,-0.01536572,97.0,97.0,97.0,97.0,21.710573,21.710573,24.666473,24.666473,0.01607415,0.016443565,-4.270268E-4,-4.4200575E-4,1040.5946,0.0,0.0,0.0,0.0,0.0,0.0,0.0,0.0,0.0,0.0,0.0,0.0,0.0,46.08409,1.1577337,-65.96916,-0.021760728,-0.008211778,-0.021912016,533694.06,119984.91,0.010777323,0.0066197515,8836.469,8719.717,6207.3687,6042.0713,0.3066311,0.0,0.0,0.0
232.92188,23795.65,3.066,0.0,0.0,290.13837,10370.0,100.0,0.0,0.061217055,0.0,8.0,0.0,0.0,4000000.0,110.0,1.0,0.0,0.0,10.0,0.0,0.0,-323.00476,-1.1422628,154.52591,-0.056222588,0.23590666,-0.094121054,294.849,294.83136,290.02963,290.0055,409.0,410.0,478.0,482.0,97.0,97.0,97.0,97.0,0.0,0.0,0.0,0.0,0.048966277,0.04923209,0.05314813,0.053181686,0.0,0.0,0.0,0.0,4727.5,2688.0693,-402.34473,-35.351482,0.0,0.0,0.0,2.0,1.0,2.5311916,0.015166248,-0.014912128,97.0,97.0,97.0,97.0,21.710573,21.710573,24.666473,24.666473,0.016289968,0.01631128,-3.9880234E-4,-4.0514974E-4,1043.9604,0.0,0.0,0.0,0.0,0.0,0.0,0.0,0.0,0.0,0.0,0.0,0.0,0.0,46.171368,1.1218002,-66.048,0.0156629,-0.00416334,0.013976238,534542.56,119984.9,0.009354197,0.008416042,8429.085,8388.421,6489.8975,6551.6284,0.30651665,0.0,0.0,0.0
236.95312,23799.682,3.116,0.0,0.0,290.56134,10378.0,100.0,0.0,0.15912294,0.0,8.0,0.0,0.0,4000000.0,110.0,1.0,0.0,0.0,10.0,0.0,0.0,-320.6938,-1.085159,151.22142,-0.051426984,0.23694521,0.17307815,295.09525,295.04025,290.466,290.41544,407.0,409.0,476.0,480.0,97.0,97.0,97.0,97.0,0.0,0.0,0.0,0.0,0.050255943,0.050588503,0.053618573,0.053205993,0.0,0.0,0.0,0.0,-2314.84,2155.2888,-2284.2764,1922.5938,0.0,0.0,0.0,2.0,1.0,2.5308754,0.015247743,-0.015883803,97.0,97.0,97.0,97.0,21.710573,21.710573,24.666473,24.666473,0.015596019,0.015519453,-4.0352822E-4,-4.060736E-4,1045.5555,0.0,0.0,0.0,0.0,0.0,0.0,0.0,0.0,0.0,0.0,0.0,0.0,0.0,46.26216,1.1757736,-66.126945,0.020827461,-0.008266684,-0.008921403,534946.6,119984.91,0.008573265,0.0055302978,8981.795,9123.018,6654.6514,6671.193,0.30618286,0.0,0.0,0.0
240.99023,23803.719,3.166,0.0,0.0,290.9634,10397.0,100.0,0.0,0.13328743,0.0,8.0,0.0,0.0,4000000.0,110.0,1.0,0.0,0.0,10.0,0.0,0.0,-318.37827,-1.0247668,147.91315,-0.053363398,0.22412154,0.039371967,295.62903,295.57803,290.87723,290.82147,405.0,407.0,475.0,478.0,97.0,97.0,97.0,97.0,0.0,0.0,0.0,0.0,0.049729574,0.049873836,0.053132158,0.05317687,0.0,0.0,0.0,0.0,-4481.166,2835.6714,-655.0624,1556.8612,0.0,0.0,0.0,2.0,1.0,2.5304399,0.015477103,-0.015506744,97.0,97.0,97.0,97.0,21.710573,21.710573,24.666473,24.666473,0.015977267,0.015897749,-3.9298536E-4,-3.9975086E-4,1049.2788,0.0,0.0,0.0,0.0,0.0,0.0,0.0,0.0,0.0,0.0,0.0,0.0,0.0,46.351807,1.2231504,-66.19969,-0.01203203,-0.008626086,-0.017161574,535870.5,119984.91,0.010817786,0.007618805,8627.196,8780.143,6328.1284,6473.5,0.30762196,0.0,0.0,0.0
245.03125,23807.76,3.216,0.0,0.0,291.35196,10418.0,100.0,0.0,0.034039874,0.0,8.0,0.0,0.0,4000000.0,110.0,1.0,0.0,0.0,10.0,0.0,0.0,-316.0584,-0.96483076,144.60129,-0.04384712,0.22308643,-0.38530722,296.205,296.22766,291.25217,291.21875,404.0,405.0,473.0,477.0,97.0,97.0,97.0,97.0,0.0,0.0,0.0,0.0,0.04824761,0.048477806,0.052100055,0.052788578,0.0,0.0,0.0,0.0,-3076.9226,1231.858,-1837.4738,-340.26498,0.0,0.0,0.0,2.0,1.0,2.5300772,0.014565172,-0.015121579,97.0,97.0,97.0,97.0,21.710573,21.710573,24.666473,24.666473,0.016797911,0.016788887,-3.9265692E-4,-4.0356937E-4,1053.4668,0.0,0.0,0.0,0.0,0.0,0.0,0.0,0.0,0.0,0.0,0.0,0.0,0.0,46.43613,1.1374391,-66.27394,-0.044847872,-0.005972013,0.042934068,536924.9,119984.9,0.012633729,0.010335405,7829.816,7991.6123,5359.135,5776.798,0.30929565,0.0,0.0,0.0
249.08008,23811.809,3.266,0.0,0.0,291.76288,10421.0,100.0,0.0,-0.14147297,0.0,8.0,0.0,0.0,4000000.0,110.0,1.0,0.0,0.0,10.0,0.0,0.0,-313.73438,-0.9097367,141.28543,-0.02464512,0.23565519,0.13489462,296.21918,296.33896,291.63406,291.64948,402.0,403.0,471.0,475.0,97.0,97.0,97.0,97.0,0.0,0.0,0.0,0.0,0.050884694,0.05032059,0.05324314,0.053134445,0.0,0.0,0.0,0.0,5452.514,1838.1309,1694.4316,1157.6011,0.0,0.0,0.0,2.0,1.0,2.5299795,0.012849894,-0.015509963,97.0,97.0,97.0,97.0,21.710573,21.710573,24.666473,24.666473,0.015397914,0.015788333,-3.9299094E-4,-4.17366E-4,1054.0154,0.0,0.0,0.0,0.0,0.0,0.0,0.0,0.0,0.0,0.0,0.0,0.0,0.0,46.516605,1.107602,-66.357445,0.0055812644,0.0031392446,0.024596194,537049.8,119984.9,0.010129181,0.0067826756,9226.986,8871.764,6781.088,6729.8936,0.3064804,0.0,0.0,0.0
253.13281,23815.861,3.316,0.0,0.0,292.15128,10431.0,100.0,0.0,-0.34331805,0.0,8.0,0.0,0.0,4000000.0,110.0,1.0,0.0,0.0,10.0,0.0,0.0,-311.4071,-0.84975934,137.96513,0.053278916,0.21654247,0.25838178,296.57916,296.54907,291.98767,292.07083,400.0,402.0,469.0,473.0,97.0,97.0,97.0,97.0,0.0,0.0,0.0,0.0,0.05037079,0.051477283,0.053976435,0.05373307,0.0,0.0,0.0,0.0,3022.9565,612.764,-3415.8865,303.2371,0.0,0.0,0.0,2.0,1.0,2.5304222,0.014530516,-0.01691389,97.0,97.0,97.0,97.0,21.710573,21.710573,24.666473,24.666473,0.015400903,0.0149485385,-3.8594299E-4,-4.12891E-4,1056.0094,0.0,0.0,0.0,0.0,0.0,0.0,0.0,0.0,0.0,0.0,0.0,0.0,0.0,46.567295,1.267124,-66.45082,0.03951077,0.01569318,-0.014398895,537550.0,119984.9,0.009674959,0.005633573,9201.843,9631.321,6732.458,6821.9663,0.30467892,0.0,0.0,0.0
257.1914,23819.92,3.366,0.0,0.0,292.5162,10454.0,100.0,0.0,-0.50701475,0.0,8.0,0.0,0.0,4000000.0,110.0,1.0,0.0,0.0,10.0,0.0,0.0,-309.07794,-0.78330547,134.63986,0.13136274,0.19647723,-0.0070704226,297.21255,297.23737,292.3225,292.48145,399.0,400.0,468.0,471.0,97.0,97.0,97.0,97.0,0.0,0.0,0.0,0.0,0.04955768,0.04967568,0.05261129,0.054149453,0.0,0.0,0.0,0.0,-5979.0723,2964.2966,-3611.9292,740.5846,0.0,0.0,0.0,2.0,1.0,2.531566,0.0142837735,-0.016896486,97.0,97.0,97.0,97.0,21.710573,21.710573,24.666473,24.666473,0.01633847,0.015790572,-3.5643872E-4,-4.0411056E-4,1060.5673,0.0,0.0,0.0,0.0,0.0,0.0,0.0,0.0,0.0,0.0,0.0,0.0,0.0,46.587803,1.3526702,-66.558556,-0.010657961,0.028932013,0.010691256,538682.3,119984.9,0.013304478,0.010349889,8445.506,8740.871,5914.4043,6869.426,0.30672646,0.0,0.0,0.0
261.25586,23823.984,3.416,0.0,0.0,292.89337,10471.0,100.0,0.0,-0.5740684,0.0,8.0,0.0,0.0,4000000.0,110.0,1.0,0.0,0.0,10.0,0.0,0.0,-306.74866,-0.71970004,131.30847,0.20737961,0.21738487,-0.09465782,297.64056,297.74908,292.67145,292.86575,397.0,398.0,466.0,470.0,97.0,97.0,97.0,97.0,0.0,0.0,0.0,0.0,0.049225483,0.048840385,0.053453535,0.05329332,0.0,0.0,0.0,0.0,-6589.57,6682.1997,-3972.914,2431.355,0.0,0.0,0.0,2.0,1.0,2.533225,0.008837195,-0.016931772,97.0,97.0,97.0,97.0,21.710573,21.710573,24.666473,24.666473,0.016743323,0.016380696,-3.937487E-4,-3.9937717E-4,1063.8965,0.0,0.0,0.0,0.0,0.0,0.0,0.0,0.0,0.0,0.0,0.0,0.0,0.0,46.580093,1.2362207,-66.69406,0.012780229,0.032203022,0.05035315,539496.0,119984.9,0.010133527,0.009635861,8038.689,8381.857,6625.3643,6805.284,0.30225945,0.0,0.0,0.0
265.32422,23828.053,3.466,0.0,0.0,293.29593,10472.0,100.0,0.0,-0.67627484,0.0,8.0,0.0,0.0,4000000.0,110.0,1.0,0.0,0.0,10.0,0.0,0.0,-304.4205,-0.6559475,127.96961,0.27399883,0.22492312,0.2998002,297.68243,297.77863,293.06467,293.29156,395.0,396.0,464.0,468.0,97.0,97.0,97.0,97.0,0.0,0.0,0.0,0.0,0.051026907,0.051514722,0.052681934,0.05416269,0.0,0.0,0.0,0.0,-9651.017,-2613.1418,1357.7609,576.9029,0.0,0.0,0.0,2.0,1.0,2.5350673,0.008267105,-0.018131852,97.0,97.0,97.0,97.0,21.710573,21.710573,24.666473,24.666473,0.015361187,0.014898404,-3.9494893E-4,-4.148905E-4,1064.1531,0.0,0.0,0.0,0.0,0.0,0.0,0.0,0.0,0.0,0.0,0.0,0.0,0.0,46.54355,1.335946,-66.85396,-0.033973183,0.038873293,0.009495357,539574.56,119984.89,0.007658603,0.0038361005,9182.502,9742.1455,6240.9805,7038.073,0.3008423,0.0,0.0,0.0
269.39844,23832.127,3.516,0.0,0.0,293.6592,10492.0,100.0,0.0,-0.5982555,0.0,8.0,0.0,0.0,4000000.0,110.0,1.0,0.0,0.0,10.0,0.0,0.0,-302.0948,-0.5861825,124.622734,0.29084212,0.20965469,0.061281428,298.23413,298.38333,293.416,293.6545,393.0,395.0,463.0,466.0,97.0,97.0,97.0,97.0,0.0,0.0,0.0,0.0,0.04971729,0.04980848,0.053315416,0.054764707,0.0,0.0,0.0,0.0,-530.8359,2848.9885,-316.24582,-662.2641,0.0,0.0,0.0,2.0,1.0,2.537113,0.0063025923,-0.017763019,97.0,97.0,97.0,97.0,21.710573,21.710573,24.666473,24.666473,0.016023422,0.015777266,-4.0048562E-4,-4.0162745E-4,1068.1492,0.0,0.0,0.0,0.0,0.0,0.0,0.0,0.0,0.0,0.0,0.0,0.0,0.0,46.487305,1.4239507,-67.01414,0.0011219457,0.039452147,0.033851672,540568.4,119984.9,0.005247079,0.005440963,8638.629,8901.494,6736.521,7338.038,0.30401325,0.0,0.0,0.0
273.47656,23836.205,3.566,0.0,0.0,294.04373,10502.0,100.0,0.0,-0.36390662,0.0,8.0,0.0,0.0,4000000.0,110.0,1.0,0.0,0.0,10.0,0.0,0.0,-299.77185,-0.5143893,121.267624,0.2692749,0.22306313,0.064635776,298.56055,298.6337,293.84506,294.00858,392.0,393.0,461.0,465.0,97.0,97.0,97.0,97.0,0.0,0.0,0.0,0.0,0.05008591,0.05088426,0.052545663,0.054024663,0.0,0.0,0.0,0.0,2709.4197,214.08055,-88.51283,3243.6753,0.0,0.0,0.0,2.0,1.0,2.5387797,0.0055850716,-0.018313527,97.0,97.0,97.0,97.0,21.710573,21.710573,24.666473,24.666473,0.015598026,0.015370071,-4.076424E-4,-4.00518E-4,1070.0026,0.0,0.0,0.0,0.0,0.0,0.0,0.0,0.0,0.0,0.0,0.0,0.0,0.0,46.434456,1.4444048,-67.18023,-0.047087066,0.026224665,0.029329743,540990.7,119984.91,0.0074274335,0.0039094687,8895.906,9368.415,5960.8496,6882.4097,0.2997265,0.0,0.0,0.0
