LapDistance [m],TotalDistance [m],LapTime [s],Sector1Time [s],Sector2Time [s],Speed [km/h],EngineRevs [rpm],ThrottlePercentage [%],BrakePercentage [%],Steer [%],Clutch [%],Gear [int],DRS [0/1],CanUseDRS [0/1],KERSLevel [J],EngineTemperature [C],RacePosition [int],Sector [int],InPits [int],FuelRemaining [kg],CurrentFlag [int],CurrentLapInvalid [int],X [m],Y [m],Z [m],GForceLatitudinal [G],GForceLongitudinal [G],GForceVertical [G],WheelSpeedRearLeft [km/h],WheelSpeedRearRight [km/h],WheelSpeedFrontLeft [km/h],WheelSpeedFrontRight [km/h],BrakeTemperatureRearLeft [C],BrakeTemperatureRearRight [C],BrakeTemperatureFrontLeft [C],BrakeTemperatureFrontRight [C],TyreTemperatureRearLeft [C],TyreTemperatureRearRight [C],TyreTemperatureFrontLeft [C],TyreTemperatureFrontRight [C],TyreWearRearLeft [%],TyreWearRearRight [%],TyreWearFrontLeft [%],TyreWearFrontRight [%],SuspensionPositionRearLeft [m],SuspensionPositionRearRight [m],SuspensionPositionFrontLeft [m],SuspensionPositionFrontRight [m],SuspensionVelocityRearLeft [m/s],SuspensionVelocityRearRight [m/s],SuspensionVelocityFrontLeft [m/s],SuspensionVelocityFrontRight [m/s],SuspensionAccelerationRearLeft [m/s^2],SuspensionAccelerationRearRight [m/s^2],SuspensionAccelerationFrontLeft [m/s^2],SuspensionAccelerationFrontRight [m/s^2],MGUKHarvested [J],MGUHHarvested [J],ERSSpent [J],ERSMode [int],FuelMixMode [int],Yaw [rad],Roll [rad],Pitch [rad],TyreCarcassTemperatureRearLeft [C],TyreCarcassTemperatureRearRight [C],TyreCarcassTemperatureFrontLeft [C],TyreCarcassTemperatureFrontRight [C],TyrePressureRearLeft [PSI],TyrePressureRearRight [PSI],TyrePressureFrontLeft [PSI],TyrePressureFrontRight [PSI],WheelSlipRearLeft [%],WheelSlipRearRight [%],WheelSlipFrontLeft [%],WheelSlipFrontRight [%],Torque [Nm],Handbrake [%],RearLeftInside [C],RearLeftMiddle [C],RearLeftOutside [C],RearRightInside [C],RearRightMiddle [C],RearRightOutside [C],FrontLeftInside [C],FrontLeftMiddle [C],FrontLeftOutside [C],FrontRightInside [C],FrontRightMiddle [C],FrontRightOutside [C],WoldSpeedX [km/h],WoldSpeedY [km/h],WoldSpeedZ [km/h],LocalAngularVelocityX [rad/s],LocalAngularVelocityY [rad/s],LocalAngularVelocityZ [rad/s],IcePower [W],MgukPower [W],FrontRideHeight [m],RearRideHeight [m],LoadRearLeft [N],LoadRearRight [N],LoadFrontLeft [N],LoadFrontRight [N],Extra1 [m],Extra2 [],Extra3 [],Extra4 []
2.4765625,23565.205,0.033,0.0,0.0,250.4495,10434.0,100.0,0.0,1.3510203,0.0,7.0,0.0,0.0,4000000.0,110.0,1.0,0.0,0.0,10.0,0.0,0.0,-459.33154,-3.353328,340.2348,-0.7679658,0.60731083,-0.14354955,255.45544,256.12625,250.54016,250.05261,485.0,487.0,549.0,554.0,97.0,97.0,97.0,97.0,0.0,0.0,0.0,0.0,0.045096163,0.039654385,0.052037243,0.04946666,35.87924,-25.567932,5.8543677,-6.582364,10733.328,2937.4075,1122.5043,-2071.966,0.0,0.0,0.0,2.0,1.0,2.496514,0.019065188,-0.0014026165,97.0,97.0,97.0,97.0,21.710573,21.710573,24.666473,24.666473,0.020299422,0.023752552,-5.0774845E-4,-6.0844E-4,1056.5968,0.0,0.0,0.0,0.0,0.0,0.0,0.0,0.0,0.0,0.0,0.0,0.0,0.0,41.563774,0.13208093,-55.7882,-0.039678942,-0.07713981,0.064891666,537694.4,119984.9,0.017626096,0.017911421,8265.169,6107.0938,5429.0815,4471.801,0.31851673,0.0,0.0,0.0
4.8007812,23567.53,0.083,0.0,0.0,251.10478,10458.0,100.0,0.0,0.91154945,100.0,7.0,0.0,0.0,4000000.0,110.0,1.0,0.0,0.0,10.0,0.0,0.0,-457.94092,-3.3484874,338.37497,-0.5989162,0.55510086,0.10366577,256.3641,256.41382,251.137,250.7806,484.0,485.0,548.0,553.0,97.0,97.0,97.0,97.0,0.0,0.0,0.0,0.0,0.0472815,0.04087171,0.052992765,0.05004697,0.0,0.0,0.0,0.0,-7761.2793,4426.6235,-2332.3416,188.93478,0.0,0.0,0.0,2.0,1.0,2.4942818,0.018778559,-0.0023232698,97.0,97.0,97.0,97.0,21.710573,21.710573,24.666473,24.666473,0.021081662,0.021656133,-4.9566687E-4,-5.435392E-4,1061.3951,0.0,0.0,0.0,0.0,0.0,0.0,0.0,0.0,0.0,0.0,0.0,0.0,0.0,41.842354,0.15994109,-55.807167,0.053504013,-0.05831794,0.004516868,538896.6,119984.91,0.013791753,0.016520863,7419.1465,6858.3643,6261.6772,4977.4785,0.3156147,0.0,0.0,0.0
9.464844,23572.193,0.133,0.0,0.0,252.41797,10507.0,100.0,0.0,-0.10410077,100.0,7.0,0.0,0.0,4000000.0,110.0,1.0,0.0,0.0,10.0,0.0,0.0,-455.1354,-3.334708,334.6506,-0.26290673,0.5435661,0.26178673,257.72516,257.42566,252.31116,252.26309,481.0,483.0,545.0,550.0,97.0,97.0,97.0,97.0,0.0,0.0,0.0,0.0,0.0481352,0.047354884,0.052982137,0.0507114,-3.6750731,28.83352,54.74813,7.6413894,-539.8616,-4631.45,5305.476,-462.21158,0.0,0.0,0.0,2.0,1.0,2.4922364,0.023263192,-0.004475355,97.0,97.0,97.0,97.0,21.710573,21.710573,24.666473,24.666473,0.020257775,0.020080963,-4.9244135E-4,-5.369216E-4,1070.6586,0.0,0.0,0.0,0.0,0.0,0.0,0.0,0.0,0.0,0.0,0.0,0.0,0.0,42.273876,0.26858786,-55.938496,0.080045685,-0.0067688385,-0.056198772,541064.8,119984.89,0.0120297745,0.013074011,7490.216,7528.5522,6573.251,5343.5986,0.3148899,0.0,0.0,0.0
12.978516,23575.707,0.183,0.0,0.0,253.3977,10542.0,100.0,0.0,-0.82747376,0.0,7.0,0.0,0.0,4000000.0,110.0,1.0,0.0,0.0,10.0,0.0,0.0,-453.01624,-3.3206782,331.84882,-0.016817093,0.57332015,-0.05322689,258.15347,258.71402,253.1464,253.37851,479.0,481.0,543.0,548.0,97.0,97.0,97.0,97.0,0.0,0.0,0.0,0.0,0.047559958,0.047409076,0.049667124,0.051130585,49.375664,-28.554796,-60.61971,4.6748667,8188.944,-1570.782,-629.1524,-168.02695,0.0,0.0,0.0,2.0,1.0,2.49328,0.02587429,-0.004112959,97.0,97.0,97.0,97.0,21.710573,21.710573,24.666473,24.666473,0.019516245,0.020486666,-5.355842E-4,-5.9921195E-4,1075.4424,0.0,0.0,0.0,0.0,0.0,0.0,0.0,0.0,0.0,0.0,0.0,0.0,0.0,42.466187,0.26865453,-56.134274,-0.05763126,0.043756884,-0.017552773,541677.94,119984.9,0.018656557,0.012262809,8225.592,7328.115,4142.411,4885.742,0.31502342,0.0,0.0,0.0
15.330078,23578.059,0.233,0.0,0.0,254.00508,10596.0,100.0,0.0,-0.96415377,0.0,7.0,0.0,0.0,4000000.0,110.0,1.0,0.0,0.0,10.0,0.0,0.0,-451.59933,-3.3125784,329.97485,0.15519898,0.51528287,-0.20289692,259.80176,259.71774,253.7138,254.04497,478.0,480.0,542.0,547.0,97.0,97.0,97.0,97.0,0.0,0.0,0.0,0.0,0.04499941,0.04417466,0.04954782,0.051951233,0.0,0.0,0.0,0.0,-6326.7134,-387.17694,3077.593,-15.758057,0.0,0.0,0.0,2.0,1.0,2.4950573,0.02392991,-0.0019954443,97.0,97.0,97.0,97.0,21.710573,21.710573,24.666473,24.666473,0.02354673,0.021642571,-4.8687408E-4,-4.8637297E-4,1082.819,0.0,0.0,0.0,0.0,0.0,0.0,0.0,0.0,0.0,0.0,0.0,0.0,0.0,42.53505,0.21316332,-56.293957,-0.09459029,0.05721775,0.06421687,542613.9,119984.89,0.01693814,0.019091705,6151.455,6544.861,4738.516,5776.394,0.31990337,0.0,0.0,0.0
18.865234,23581.594,0.283,0.0,0.0,254.97221,10615.0,100.0,0.0,-0.64574313,0.0,7.0,0.0,0.0,4000000.0,110.0,1.0,0.0,0.0,10.0,0.0,0.0,-449.47037,-3.3048499,327.153,0.2231865,0.5549939,-0.06929841,259.98068,260.46814,254.68709,254.98636,476.0,478.0,540.0,545.0,97.0,97.0,97.0,97.0,0.0,0.0,0.0,0.0,0.044968095,0.04193332,0.05025169,0.051704053,0.0,0.0,0.0,0.0,6930.4517,3246.0356,-482.2343,1453.1938,0.0,0.0,0.0,2.0,1.0,2.4978077,0.017338252,-0.0019881725,97.0,97.0,97.0,97.0,21.710573,21.710573,24.666473,24.666473,0.020254793,0.021293242,-5.5085885E-4,-5.1838375E-4,1085.4324,0.0,0.0,0.0,0.0,0.0,0.0,0.0,0.0,0.0,0.0,0.0,0.0,0.0,42.616188,0.122747555,-56.569542,-0.042514235,0.049342696,0.07657671,542949.94,119984.89,0.015667044,0.017327664,7634.2554,6971.163,5002.5215,5495.3867,0.31737423,0.0,0.0,0.0
22.416016,23585.145,0.333,0.0,0.0,255.9128,10647.0,100.0,0.0,-0.44607115,0.0,7.0,0.0,0.0,4000000.0,110.0,1.0,0.0,0.0,10.0,0.0,0.0,-447.3382,-3.2976727,324.31696,0.25018728,0.5388634,0.011769569,260.85394,261.18472,255.65695,255.87808,474.0,476.0,538.0,543.0,97.0,97.0,97.0,97.0,0.0,0.0,0.0,0.0,0.0464523,0.045387104,0.049669273,0.052504677,0.0,0.0,0.0,0.0,65.04352,-1426.0765,1227.2579,-640.7126,0.0,0.0,0.0,2.0,1.0,2.4998507,0.015002309,-0.0029956102,97.0,97.0,97.0,97.0,21.710573,21.710573,24.666473,24.666473,0.020272924,0.020248171,-5.5425207E-4,-5.104346E-4,1089.8438,0.0,0.0,0.0,0.0,0.0,0.0,0.0,0.0,0.0,0.0,0.0,0.0,0.0,42.669792,0.1494097,-56.856064,-0.052675307,0.0352654,0.08008285,543518.06,119984.91,0.017625196,0.0148241,7632.3315,7496.949,4563.5625,5834.7676,0.31428242,0.0,0.0,0.0
27.167969,23589.896,0.383,0.0,0.0,257.14667,10694.0,100.0,0.0,-0.36459234,0.0,7.0,0.0,0.0,4000000.0,110.0,1.0,0.0,0.0,10.0,0.0,0.0,-444.49072,-3.2841275,320.5138,0.20830044,0.539495,0.10457853,262.21594,262.11664,256.94852,257.0722,472.0,473.0,536.0,541.0,97.0,97.0,97.0,97.0,0.0,0.0,0.0,0.0,0.047716934,0.047936395,0.051317997,0.051950686,60.641388,60.026047,-16.366838,-23.24894,7127.272,866.7693,-2080.5088,-627.0334,0.0,0.0,0.0,2.0,1.0,2.5015714,0.011123754,-0.0046647787,97.0,97.0,97.0,97.0,21.710573,21.710573,24.666473,24.666473,0.01956165,0.019365108,-5.2478944E-4,-5.079629E-4,1096.2975,0.0,0.0,0.0,0.0,0.0,0.0,0.0,0.0,0.0,0.0,0.0,0.0,0.0,42.75342,0.2408927,-57.221313,0.011486395,0.01920646,0.034300648,544333.75,119984.89,0.014392598,0.01237541,8034.917,7960.7363,5144.288,5506.763,0.31149578,0.0,0.0,0.0
30.748047,23593.477,0.433,0.0,0.0,258.0405,10747.0,100.0,0.0,-0.28734595,0.0,7.0,0.0,0.0,4000000.0,110.0,1.0,0.0,0.0,10.0,0.0,0.0,-442.35117,-3.2713954,317.64594,0.14764613,0.50436,-0.13519822,263.3603,263.56863,257.85825,257.96207,470.0,471.0,534.0,539.0,97.0,97.0,97.0,97.0,0.0,0.0,0.0,0.0,0.04606496,0.046656974,0.050438233,0.05209479,-70.58166,-79.94771,68.11871,-31.745504,2904.0137,-2110.496,8198.305,-3712.0696,0.0,0.0,0.0,2.0,1.0,2.502531,0.005920461,-0.00393939,97.0,97.0,97.0,97.0,21.710573,21.710573,24.666473,24.666473,0.02078389,0.021295533,-5.0729426E-4,-4.9657276E-4,1103.592,0.0,0.0,0.0,0.0,0.0,0.0,0.0,0.0,0.0,0.0,0.0,0.0,0.0,42.828693,0.23526244,-57.47496,-0.11889574,0.016322553,0.14150676,545253.3,119984.89,0.015747951,0.01604449,7165.8804,6879.355,5158.966,5671.621,0.3110447,0.0,0.0,0.0
33.140625,23595.87,0.483,0.0,0.0,258.65378,10761.0,100.0,0.0,-0.16828965,0.0,7.0,0.0,0.0,4000000.0,110.0,1.0,0.0,0.0,10.0,0.0,0.0,-440.92236,-3.264169,315.72717,0.12141089,0.5256209,-0.029192474,263.68896,263.91586,258.48898,258.5546,468.0,470.0,533.0,537.0,97.0,97.0,97.0,97.0,0.0,0.0,0.0,0.0,0.047125585,0.04521421,0.051144484,0.051341362,0.0,0.0,0.0,0.0,4221.971,2442.6204,333.00955,485.1982,0.0,0.0,0.0,2.0,1.0,2.5029752,0.001344478,-0.0037360191,97.0,97.0,97.0,97.0,21.710573,21.710573,24.666473,24.666473,0.019639185,0.020445887,-5.206102E-4,-5.0961564E-4,1105.5236,0.0,0.0,0.0,0.0,0.0,0.0,0.0,0.0,0.0,0.0,0.0,0.0,0.0,42.89645,0.21160337,-57.637,-0.05145549,0.010220402,0.0565165,545497.0,119984.89,0.015241143,0.014377728,7819.249,7263.924,5326.5293,5261.6133,0.30910873,0.0,0.0,0.0
36.742188,23599.47,0.533,0.0,0.0,259.547,10794.0,100.0,0.0,-0.03063928,0.0,7.0,0.0,0.0,4000000.0,110.0,1.0,0.0,0.0,10.0,0.0,0.0,-438.77475,-3.2518134,312.83923,0.075670734,0.5095192,0.033510055,264.59253,264.65414,259.4037,259.41266,466.0,468.0,531.0,536.0,97.0,97.0,97.0,97.0,0.0,0.0,0.0,0.0,0.04704187,0.04738847,0.051737055,0.051940013,0.0,0.0,0.0,0.0,1154.4763,-1671.8208,-672.3895,-1613.657,0.0,0.0,0.0,2.0,1.0,2.5032034,0.0018405524,-0.004573822,97.0,97.0,97.0,97.0,21.710573,21.710573,24.666473,24.666473,0.019665675,0.019897705,-5.1839685E-4,-5.1735726E-4,1110.1036,0.0,0.0,0.0,0.0,0.0,0.0,0.0,0.0,0.0,0.0,0.0,0.0,0.0,43.00576,0.26637247,-57.864693,0.03251925,0.0013140091,0.014521691,546082.3,119984.89,0.013347,0.012824972,7526.6187,7593.617,5584.556,5678.693,0.30732346,0.0,0.0,0.0
41.5625,23604.291,0.583,0.0,0.0,260.7252,10842.0,100.0,0.0,-0.09304094,0.0,7.0,0.0,0.0,4000000.0,110.0,1.0,0.0,0.0,10.0,0.0,0.0,-435.90204,-3.2308173,308.97153,0.043788,0.49011984,0.075641,265.77658,265.81476,260.58154,260.6074,464.0,465.0,529.0,533.0,97.0,97.0,97.0,97.0,0.0,0.0,0.0,0.0,0.04833244,0.048076883,0.051287033,0.052027803,15.610903,-40.046497,2.096146,-2.8867273,3534.9497,-1696.4568,952.7742,-700.499,0.0,0.0,0.0,2.0,1.0,2.5033202,0.0021886488,-0.0053147078,97.0,97.0,97.0,97.0,21.710573,21.710573,24.666473,24.666473,0.01938484,0.0194614,-4.982298E-4,-4.982803E-4,1116.7423,0.0,0.0,0.0,0.0,0.0,0.0,0.0,0.0,0.0,0.0,0.0,0.0,0.0,43.169884,0.3487535,-58.15004,-0.024709515,0.004090534,0.027317913,546915.94,119984.9,0.013428131,0.011490631,7782.0986,7699.3335,5422.64,5726.2256,0.30796337,0.0,0.0,0.0
45.191406,23607.92,0.633,0.0,0.0,261.5896,10880.0,100.0,0.0,-0.155857,0.0,7.0,0.0,0.0,4000000.0,110.0,1.0,0.0,0.0,10.0,0.0,0.0,-433.74033,-3.2129974,306.05856,0.052943498,0.49049383,0.0063387626,266.73343,266.71518,261.43182,261.48065,462.0,463.0,527.0,531.0,97.0,97.0,97.0,97.0,0.0,0.0,0.0,0.0,0.047700055,0.047577187,0.051648766,0.05165907,-9.922608,4.940852,3.847405,-11.510699,268.38177,854.4444,-559.5624,-234.76031,0.0,0.0,0.0,2.0,1.0,2.5036666,0.0012718957,-0.005577326,97.0,97.0,97.0,97.0,21.710573,21.710573,24.666473,24.666473,0.019779773,0.019578114,-5.0063967E-4,-5.0065154E-4,1122.0092,0.0,0.0,0.0,0.0,0.0,0.0,0.0,0.0,0.0,0.0,0.0,0.0,0.0,43.2924,0.36034042,-58.35806,0.0091157025,0.008199575,0.00625654,547576.1,119984.89,0.013567435,0.012197833,7548.665,7638.972,5555.711,5514.6943,0.30736256,0.0,0.0,0.0
47.617188,23610.346,0.683,0.0,0.0,262.16602,10902.0,100.0,0.0,-0.1077553,0.0,7.0,0.0,0.0,4000000.0,110.0,1.0,0.0,0.0,10.0,0.0,0.0,-432.29578,-3.2009969,304.11084,0.051963344,0.48897892,0.0033890961,267.27533,267.2529,262.0148,262.05362,461.0,462.0,525.0,530.0,97.0,97.0,97.0,97.0,0.0,0.0,0.0,0.0,0.047562096,0.048228655,0.05156662,0.051321946,0.0,0.0,0.0,0.0,814.2783,0.0133895865,-192.64963,231.34053,0.0,0.0,0.0,2.0,1.0,2.5039089,0.0017060816,-0.0057240725,97.0,97.0,97.0,97.0,21.710573,21.710573,24.666473,24.666473,0.01956872,0.01938814,-5.035672E-4,-4.9923337E-4,1125.0675,0.0,0.0,0.0,0.0,0.0,0.0,0.0,0.0,0.0,0.0,0.0,0.0,0.0,43.373737,0.36065215,-58.497078,0.010926223,0.006501034,-0.021956317,547960.7,119984.89,0.014318726,0.011753065,7631.6416,7752.201,5429.293,5306.042,0.30760193,0.0,0.0,0.0
51.26758,23613.996,0.733,0.0,0.0,263.01215,10942.0,100.0,0.0,-0.16313238,0.0,7.0,0.0,0.0,4000000.0,110.0,1.0,0.0,0.0,10.0,0.0,0.0,-430.12393,-3.1834738,301.1805,0.06634158,0.47775635,-0.09770072,268.29398,268.21713,262.86276,262.90265,459.0,460.0,524.0,528.0,97.0,97.0,97.0,97.0,0.0,0.0,0.0,0.0,0.046744272,0.047433462,0.051212236,0.05133242,0.0,0.0,0.0,0.0,-1489.9669,1774.2809,-1914.7751,2778.2852,0.0,0.0,0.0,2.0,1.0,2.5042017,0.004442039,-0.0049871206,97.0,97.0,97.0,97.0,21.710573,21.710573,24.666473,24.666473,0.020215183,0.019705456,-4.9104635E-4,-5.009605E-4,1130.6456,0.0,0.0,0.0,0.0,0.0,0.0,0.0,0.0,0.0,0.0,0.0,0.0,0.0,43.49145,0.33112904,-58.702564,0.023757765,0.007540043,-0.0628352,548664.44,119984.9,0.015077021,0.013441985,7226.826,7549.6636,5177.578,5458.052,0.30893517,0.0,0.0,0.0
54.929688,23617.658,0.783,0.0,0.0,263.84937,10972.0,100.0,0.0,-0.13951188,0.0,7.0,0.0,0.0,4000000.0,110.0,1.0,0.0,0.0,10.0,0.0,0.0,-427.94623,-3.1669457,298.23993,0.05011107,0.4660671,0.06441452,269.01776,268.96085,263.69604,263.73715,457.0,458.0,522.0,526.0,97.0,97.0,97.0,97.0,0.0,0.0,0.0,0.0,0.046933714,0.0478513,0.051856384,0.05198744,0.0,0.0,0.0,0.0,-443.65073,-285.60153,-816.23627,-1118.7894,0.0,0.0,0.0,2.0,1.0,2.5045812,0.005091983,-0.004970312,97.0,97.0,97.0,97.0,21.710573,21.710573,24.666473,24.666473,0.019707793,0.019369049,-4.8891595E-4,-4.8709093E-4,1134.8271,0.0,0.0,0.0,0.0,0.0,0.0,0.0,0.0,0.0,0.0,0.0,0.0,0.0,43.610203,0.3447994,-58.90394,0.019273687,0.006758981,0.010551858,549187.9,119984.9,0.014227949,0.013898785,7509.577,7707.881,5856.412,5853.8223,0.30897045,0.0,0.0,0.0
59.83008,23622.559,0.833,0.0,0.0,264.9497,11012.0,100.0,0.0,-0.13566406,0.0,7.0,0.0,0.0,4000000.0,110.0,1.0,0.0,0.0,10.0,0.0,0.0,-425.0335,-3.1427217,294.30353,0.050970957,0.4651945,0.111901104,269.90872,270.01443,264.79318,264.84372,454.0,456.0,519.0,524.0,97.0,97.0,97.0,97.0,0.0,0.0,0.0,0.0,0.048858427,0.04830746,0.051396716,0.05222301,10.914578,0.6374716,-1.4854966,13.215243,-2414.3901,442.44373,719.2477,588.49,0.0,0.0,0.0,2.0,1.0,2.5050945,0.004334562,-0.0062139034,97.0,97.0,97.0,97.0,21.710573,21.710573,24.666473,24.666473,0.0188922,0.019047946,-4.8805997E-4,-4.915492E-4,1139.9657,0.0,0.0,0.0,0.0,0.0,0.0,0.0,0.0,0.0,0.0,0.0,0.0,0.0,43.764156,0.3896112,-59.16997,-0.008752458,0.008623549,0.022689905,549670.7,119984.9,0.013964714,0.011889922,7984.712,7860.478,5524.0986,5956.501,0.30897522,0.0,0.0,0.0
63.51953,23626.248,0.883,0.0,0.0,265.75726,11045.0,100.0,0.0,-0.045579668,0.0,7.0,0.0,0.0,4000000.0,110.0,1.0,0.0,0.0,10.0,0.0,0.0,-422.84238,-3.1218894,291.33972,0.037158012,0.46039024,0.072469205,270.7035,270.8164,265.60004,265.6466,452.0,454.0,518.0,522.0,97.0,97.0,97.0,97.0,0.0,0.0,0.0,0.0,0.04886193,0.048227716,0.051448073,0.052594244,45.735237,-6.4136086,12.141242,-18.437056,4887.44,-704.9247,1925.2893,-2686.5806,0.0,0.0,0.0,2.0,1.0,2.5055454,8.6325064E-4,-0.0071668625,97.0,97.0,97.0,97.0,21.710573,21.710573,24.666473,24.666473,0.018733844,0.019045992,-4.956293E-4,-4.7987065E-4,1143.4541,0.0,0.0,0.0,0.0,0.0,0.0,0.0,0.0,0.0,0.0,0.0,0.0,0.0,43.878128,0.43501654,-59.364376,-0.048424162,0.006369925,0.108792655,549705.44,119984.9,0.012799181,0.010904062,8098.5215,7812.6924,5598.671,5953.34,0.30634785,0.0,0.0,0.0
65.984375,23628.713,0.933,0.0,0.0,266.2993,11064.0,100.0,0.0,0.04121469,0.0,7.0,0.0,0.0,4000000.0,110.0,1.0,0.0,0.0,10.0,0.0,0.0,-421.37833,-3.106575,289.3587,0.03369677,0.45748335,0.16321327,271.16602,271.27332,266.16483,266.1726,451.0,452.0,516.0,521.0,97.0,97.0,97.0,97.0,0.0,0.0,0.0,0.0,0.049520887,0.04869517,0.05195535,0.051983573,0.0,0.0,0.0,0.0,-3739.4683,1278.1528,-640.7394,1027.9028,0.0,0.0,0.0,2.0,1.0,2.505663,-0.001047769,-0.007588148,97.0,97.0,97.0,97.0,21.710573,21.710573,24.666473,24.666473,0.018293237,0.018714614,-4.9432606E-4,-4.8084883E-4,1145.4629,0.0,0.0,0.0,0.0,0.0,0.0,0.0,0.0,0.0,0.0,0.0,0.0,0.0,43.95852,0.48316428,-59.491806,-0.0025218404,7.758826E-4,0.0057263174,549725.5,119984.89,0.012535265,0.0095828995,8349.296,7994.241,5784.251,5770.163,0.30670166,0.0,0.0,0.0
69.69141,23632.42,0.983,0.0,0.0,267.08435,11099.0,100.0,0.0,0.05942283,0.0,7.0,0.0,0.0,4000000.0,110.0,1.0,0.0,0.0,10.0,0.0,0.0,-419.17725,-3.080382,286.37927,0.015165269,0.44176185,0.079289615,272.13855,272.0598,266.96606,266.93887,449.0,451.0,514.0,519.0,97.0,97.0,97.0,97.0,0.0,0.0,0.0,0.0,0.048319537,0.048656058,0.052323658,0.05207269,0.0,0.0,0.0,0.0,593.34485,318.2843,-903.46173,-612.3214,0.0,0.0,0.0,2.0,1.0,2.5055401,-0.0014135862,-0.008048296,97.0,97.0,97.0,97.0,21.710573,21.710573,24.666473,24.666473,0.018895738,0.018714009,-4.838109E-4,-4.7588063E-4,1149.1663,0.0,0.0,0.0,0.0,0.0,0.0,0.0,0.0,0.0,0.0,0.0,0.0,0.0,44.079266,0.54981923,-59.67316,0.0136841675,-0.0050139627,0.013712875,549763.6,119984.9,0.012365859,0.010760118,7841.531,8012.048,5966.3467,5807.8096,0.30643654,0.0,0.0,0.0
73.41016,23636.139,1.033,0.0,0.0,267.86426,11133.0,100.0,0.0,-0.060950767,0.0,7.0,0.0,0.0,4000000.0,110.0,1.0,0.0,0.0,10.0,0.0,0.0,-416.96997,-3.05253,283.39096,0.0100862235,0.43602642,0.0019785163,272.93088,272.92294,267.73978,267.73633,447.0,449.0,513.0,517.0,97.0,97.0,97.0,97.0,0.0,0.0,0.0,0.0,0.048429154,0.048373852,0.0516025,0.051661473,0.0,0.0,0.0,0.0,-2164.4485,-507.152,57.77475,1061.4573,0.0,0.0,0.0,2.0,1.0,2.5053918,-0.0010651061,-0.0080269575,97.0,97.0,97.0,97.0,21.710573,21.710573,24.666473,24.666473,0.018893285,0.018863415,-4.7000236E-4,-4.8452252E-4,1152.7618,0.0,0.0,0.0,0.0,0.0,0.0,0.0,0.0,0.0,0.0,0.0,0.0,0.0,44.204178,0.5600693,-59.850147,-0.008386422,4.2425774E-5,-0.02172444,549799.56,119984.9,0.01480212,0.011626574,7827.166,7831.8027,5435.9404,5545.556,0.30745125,0.0,0.0,0.0
77.13867,23639.867,1.083,0.0,0.0,268.62332,11171.0,100.0,0.0,-0.16449523,0.0,7.0,0.0,0.0,4000000.0,110.0,1.0,0.0,0.0,10.0,0.0,0.0,-414.75662,-3.0261405,280.3939,0.027885824,0.44198,-0.1800507,273.8353,273.88452,268.47134,268.517,445.0,447.0,511.0,515.0,97.0,97.0,97.0,97.0,0.0,0.0,0.0,0.0,0.04699912,0.046632964,0.051130034,0.051684298,0.0,0.0,0.0,0.0,1564.1301,1941.8789,1102.3341,1077.4432,0.0,0.0,0.0,2.0,1.0,2.50561,-0.0016860927,-0.0073097944,97.0,97.0,97.0,97.0,21.710573,21.710573,24.666473,24.666473,0.019612378,0.019623559,-4.7598864E-4,-4.8635036E-4,1156.7816,0.0,0.0,0.0,0.0,0.0,0.0,0.0,0.0,0.0,0.0,0.0,0.0,0.0,44.322598,0.4845974,-60.025467,-0.020580817,0.007958056,0.01584553,549840.0,119984.914,0.015145736,0.013854417,7440.7476,7378.908,5292.327,5563.007,0.3085308,0.0,0.0,0.0
80.87891,23643.607,1.133,0.0,0.0,269.3858,11192.0,100.0,0.0,-0.11245457,0.0,7.0,0.0,0.0,4000000.0,110.0,1.0,0.0,0.0,10.0,0.0,0.0,-412.5375,-3.0016487,277.38782,0.045648947,0.42352885,0.16067016,274.3137,274.42224,269.22382,269.2839,444.0,445.0,509.0,514.0,97.0,97.0,97.0,97.0,0.0,0.0,0.0,0.0,0.04905335,0.048472967,0.052008033,0.05271132,0.0,0.0,0.0,0.0,-2354.8584,-32.575375,-2008.3843,160.38264,0.0,0.0,0.0,2.0,1.0,2.506097,-0.0028822515,-0.007864475,97.0,97.0,97.0,97.0,21.710573,21.710573,24.666473,24.666473,0.018489948,0.018639572,-4.732755E-4,-4.7014916E-4,1159.0032,0.0,0.0,0.0,0.0,0.0,0.0,0.0,0.0,0.0,0.0,0.0,0.0,0.0,44.432728,0.52134967,-60.207127,0.014019613,0.01008849,0.03735725,549862.3,119984.91,0.012560314,0.011847285,8066.3174,7930.17,6008.435,6424.5723,0.3079939,0.0,0.0,0.0
84.62891,23647.357,1.183,0.0,0.0,270.1364,11215.0,100.0,0.0,-0.040856313,0.0,7.0,0.0,0.0,4000000.0,110.0,1.0,0.0,0.0,10.0,0.0,0.0,-410.31305,-2.9729373,274.37268,0.043815732,0.4243844,0.19416855,274.9127,274.93942,269.99216,270.01776,442.0,443.0,507.0,512.0,97.0,97.0,97.0,97.0,0.0,0.0,0.0,0.0,0.049657464,0.04974528,0.052083105,0.052448485,0.0,0.0,0.0,0.0,-2746.7158,-235.83319,-128.02184,-643.35455,0.0,0.0,0.0,2.0,1.0,2.5064552,-0.0039968845,-0.009632707,97.0,97.0,97.0,97.0,21.710573,21.710573,24.666473,24.666473,0.017803421,0.017810404,-4.8190387E-4,-4.7513476E-4,1161.4366,0.0,0.0,0.0,0.0,0.0,0.0,0.0,0.0,0.0,0.0,0.0,0.0,0.0,44.539593,0.62088,-60.386456,5.430551E-4,0.0039971145,0.01869934,549886.75,119984.91,0.012564427,0.0089906035,8512.385,8514.506,5767.2188,5874.87,0.30501652,0.0,0.0,0.0
89.64453,23652.373,1.233,0.0,0.0,271.09714,11263.0,100.0,0.0,0.026342453,0.0,7.0,0.0,0.0,4000000.0,110.0,1.0,0.0,0.0,10.0,0.0,0.0,-407.33893,-2.9279919,270.339,0.028321639,0.40937322,-0.015735127,276.15872,276.08337,270.96805,270.9677,439.0,441.0,505.0,509.0,97.0,97.0,97.0,97.0,0.0,0.0,0.0,0.0,0.04827196,0.04854012,0.052410137,0.05198215,-23.685469,28.910858,-1.329258,-11.803507,527.28204,5228.6978,-951.3928,423.31955,0.0,0.0,0.0,2.0,1.0,2.5066087,-0.0040300605,-0.009754419,97.0,97.0,97.0,97.0,21.710573,21.710573,24.666473,24.666473,0.018682716,0.018442342,-4.7324313E-4,-4.5891802E-4,1166.5173,0.0,0.0,0.0,0.0,0.0,0.0,0.0,0.0,0.0,0.0,0.0,0.0,0.0,44.679203,0.68718404,-60.61438,0.041070193,-6.768381E-5,-0.03336008,549938.5,119984.9,0.012600323,0.010968457,7840.323,8019.5713,5966.371,5737.205,0.30693913,0.0,0.0,0.0
92.1582,23654.887,1.283,0.0,0.0,271.58188,11282.0,100.0,0.0,-0.07464267,0.0,7.0,0.0,0.0,4000000.0,110.0,1.0,0.0,0.0,10.0,0.0,0.0,-405.84833,-2.9050577,268.31644,0.031563327,0.41102087,0.021151531,276.60956,276.51852,271.4492,271.45737,438.0,439.0,504.0,508.0,97.0,97.0,97.0,97.0,0.0,0.0,0.0,0.0,0.04836493,0.049086154,0.051950447,0.0521207,0.0,0.0,0.0,0.0,1680.967,-2256.5554,-234.73354,719.878,0.0,0.0,0.0,2.0,1.0,2.50662,-0.0031756398,-0.010070562,97.0,97.0,97.0,97.0,21.710573,21.710573,24.666473,24.666473,0.018593436,0.01818414,-4.650602E-4,-4.7120053E-4,1168.5262,0.0,0.0,0.0,0.0,0.0,0.0,0.0,0.0,0.0,0.0,0.0,0.0,0.0,44.750847,0.6910367,-60.728817,-8.847099E-4,0.0014218902,0.00956608,549957.8,119984.92,0.012750194,0.010532464,7861.0596,8179.0405,5699.542,5866.254,0.30799675,0.0,0.0,0.0
95.93359,23658.662,1.333,0.0,0.0,272.28796,11309.0,100.0,0.0,-0.05740299,0.0,7.0,0.0,0.0,4000000.0,110.0,1.0,0.0,0.0,10.0,0.0,0.0,-403.60788,-2.8681514,265.2757,0.013465047,0.39245704,0.064808674,277.20917,277.2491,272.1461,272.1743,436.0,437.0,502.0,506.0,97.0,97.0,97.0,97.0,0.0,0.0,0.0,0.0,0.04891387,0.04890386,0.05203961,0.052619427,0.0,0.0,0.0,0.0,-929.8815,-275.02026,1405.6919,-2067.2317,0.0,0.0,0.0,2.0,1.0,2.5067766,-0.0020453737,-0.010619402,97.0,97.0,97.0,97.0,21.710573,21.710573,24.666473,24.666473,0.018134942,0.018191064,-4.6029928E-4,-4.6228815E-4,1171.3844,0.0,0.0,0.0,0.0,0.0,0.0,0.0,0.0,0.0,0.0,0.0,0.0,0.0,44.85989,0.7644742,-60.891224,0.01498692,0.005043879,-0.0077802297,549986.75,119984.91,0.012560871,0.011359026,8182.1504,8079.1167,5858.244,6032.324,0.30761147,0.0,0.0,0.0
99.7207,23662.45,1.383,0.0,0.0,272.9853,11336.0,100.0,0.0,-0.0089232065,0.0,7.0,0.0,0.0,4000000.0,110.0,1.0,0.0,0.0,10.0,0.0,0.0,-401.36206,-2.8288572,262.2269,0.012215719,0.39830822,0.09558514,277.96976,277.8473,272.84866,272.85526,434.0,436.0,500.0,504.0,97.0,97.0,97.0,97.0,0.0,0.0,0.0,0.0,0.04853111,0.049248636,0.053341802,0.05209584,0.0,0.0,0.0,0.0,3414.6929,-1948.9598,122.45624,-743.3473,0.0,0.0,0.0,2.0,1.0,2.5069253,-0.0012396246,-0.011766672,97.0,97.0,97.0,97.0,21.710573,21.710573,24.666473,24.666473,0.018322872,0.017943742,-4.6895983E-4,-4.5700523E-4,1174.2441,0.0,0.0,0.0,0.0,0.0,0.0,0.0,0.0,0.0,0.0,0.0,0.0,0.0,44.96717,0.8084094,-61.05223,0.05583959,8.6943543E-4,3.9930455E-4,550016.3,119984.9,0.008400163,0.009328787,7994.13,8312.727,6711.5054,5978.7344,0.30817604,0.0,0.0,0.0
103.51758,23666.246,1.433,0.0,0.0,273.6973,11352.0,100.0,0.0,0.007496075,0.0,7.0,0.0,0.0,4000000.0,110.0,1.0,0.0,0.0,10.0,0.0,0.0,-399.11078,-2.7844567,259.16992,0.02550064,0.39992893,0.53737736,278.424,278.15344,273.56976,273.5633,432.0,434.0,498.0,503.0,97.0,97.0,97.0,97.0,0.0,0.0,0.0,0.0,0.050146382,0.052182265,0.0546668,0.051991917,0.0,0.0,0.0,0.0,-9054.225,-2801.8489,-6345.0596,622.75525,0.0,0.0,0.0,2.0,1.0,2.5068927,0.0062240316,-0.013834953,97.0,97.0,97.0,97.0,21.710573,21.710573,24.666473,24.666473,0.017268596,0.016347382,-4.7091357E-4,-4.6405598E-4,1175.9376,0.0,0.0,0.0,0.0,0.0,0.0,0.0,0.0,0.0,0.0,0.0,0.0,0.0,45.07418,1.0024529,-61.216194,0.15498108,0.0017208712,-0.17407808,550033.2,119984.9,0.0071419296,0.0044336272,8675.088,9665.299,7158.1553,6091.676,0.30859184,0.0,0.0,0.0
107.32422,23670.053,1.483,0.0,0.0,274.3628,11399.0,100.0,0.0,0.22289145,0.0,7.0,0.0,0.0,4000000.0,110.0,1.0,0.0,0.0,10.0,0.0,0.0,-396.8543,-2.732579,256.10516,-0.046729952,0.38407278,-0.14589962,279.63293,279.26602,274.26276,274.21362,431.0,432.0,497.0,501.0,97.0,97.0,97.0,97.0,0.0,0.0,0.0,0.0,0.046161536,0.0492731,0.053330544,0.051006075,0.0,0.0,0.0,0.0,-3560.4175,-1472.9214,-334.12283,-201.86304,0.0,0.0,0.0,2.0,1.0,2.5067103,0.013597214,-0.013373971,97.0,97.0,97.0,97.0,21.710573,21.710573,24.666473,24.666473,0.019044032,0.0179769,-4.7469023E-4,-4.3564342E-4,1179.9431,0.0,0.0,0.0,0.0,0.0,0.0,0.0,0.0,0.0,0.0,0.0,0.0,0.0,45.184914,1.0204242,-61.36395,0.04783968,-0.00828707,-0.092304096,549631.1,119984.9,0.010536296,0.008770883,7350.5835,8322.2295,6374.95,5028.415,0.31108093,0.0,0.0,0.0
111.13867,23673.867,1.516,0.0,0.0,275.0376,11433.0,100.0,0.0,0.3945576,0.0,7.0,0.0,0.0,4000000.0,110.0,1.0,0.0,0.0,10.0,0.0,0.0,-394.5913,-2.6851535,253.03352,-0.10745944,0.37724614,-0.26224992,280.4187,280.1377,274.9874,274.84933,429.0,430.0,495.0,499.0,97.0,97.0,97.0,97.0,0.0,0.0,0.0,0.0,0.045699958,0.047891557,0.05184806,0.05077239,-1.6600637,-22.967978,-25.705843,20.20575,605.96454,-777.8539,214.67055,1885.767,0.0,0.0,0.0,2.0,1.0,2.505767,0.019436695,-0.011683345,97.0,97.0,97.0,97.0,21.710573,21.710573,24.666473,24.666473,0.01922129,0.018774394,-4.530294E-4,-4.4522536E-4,1182.0297,0.0,0.0,0.0,0.0,0.0,0.0,0.0,0.0,0.0,0.0,0.0,0.0,0.0,45.330654,0.8853724,-61.491516,0.027195316,-0.021650016,-0.112701505,548965.7,119984.9,0.014950017,0.012384293,7309.8193,7594.1816,5456.4404,5156.304,0.31722355,0.0,0.0,0.0
114.96484,23677.693,1.583,0.0,0.0,275.6923,11465.0,100.0,0.0,0.32147717,0.0,7.0,0.0,0.0,4000000.0,110.0,1.0,0.0,0.0,10.0,0.0,0.0,-392.32062,-2.6445599,249.95601,-0.12948817,0.3669702,-0.49448314,281.07324,281.04507,275.6267,275.508,427.0,428.0,493.0,497.0,97.0,97.0,97.0,97.0,0.0,0.0,0.0,0.0,0.045040242,0.046178903,0.05017683,0.051830314,0.0,0.0,0.0,0.0,-3401.7646,144.91972,-4342.6567,-136.02824,0.0,0.0,0.0,2.0,1.0,2.5046835,0.019771513,-0.0103776455,97.0,97.0,97.0,97.0,21.710573,21.710573,24.666473,24.666473,0.019556541,0.019542484,-4.5665048E-4,-4.5933417E-4,1183.9818,0.0,0.0,0.0,0.0,0.0,0.0,0.0,0.0,0.0,0.0,0.0,0.0,0.0,45.489532,0.72240514,-61.602436,-0.09343773,-0.020614132,0.07989603,548337.56,119984.91,0.016139375,0.014850907,6932.21,7140.5522,4233.5566,5309.443,0.31606102,0.0,0.0,0.0
118.79883,23681.527,1.633,0.0,0.0,276.3629,11476.0,100.0,0.0,0.2751418,0.0,7.0,0.0,0.0,4000000.0,110.0,1.0,0.0,0.0,10.0,0.0,0.0,-390.0416,-2.6111398,246.87306,-0.14163917,0.37543955,-0.043317948,281.31656,281.35406,276.2878,276.1814,425.0,426.0,491.0,496.0,97.0,97.0,97.0,97.0,0.0,0.0,0.0,0.0,0.048562877,0.046783857,0.052755654,0.051383182,0.0,0.0,0.0,0.0,-84.7174,3621.8801,-5469.9355,2100.9336,0.0,0.0,0.0,2.0,1.0,2.503736,0.015295303,-0.010066152,97.0,97.0,97.0,97.0,21.710573,21.710573,24.666473,24.666473,0.01788189,0.01834523,-4.553645E-4,-4.5600586E-4,1184.6235,0.0,0.0,0.0,0.0,0.0,0.0,0.0,0.0,0.0,0.0,0.0,0.0,0.0,45.660557,0.64943445,-61.70848,-0.0061207116,-0.01837403,0.025317246,548108.9,119984.9,0.013647746,0.011357136,8134.314,7848.4175,6076.667,5665.7754,0.30821133,0.0,0.0,0.0
122.640625,23685.37,1.683,0.0,0.0,277.0112,11496.0,100.0,0.0,0.2869894,0.0,7.0,0.0,0.0,4000000.0,110.0,1.0,0.0,0.0,10.0,0.0,0.0,-387.75424,-2.5763025,243.78494,-0.1275311,0.35601982,0.21700358,281.87915,281.74567,276.9299,276.83218,423.0,425.0,489.0,494.0,97.0,97.0,97.0,97.0,0.0,0.0,0.0,0.0,0.048792627,0.050374325,0.053482544,0.052635893,0.0,0.0,0.0,0.0,-3902.7742,-2663.3125,-3606.2969,736.72217,0.0,0.0,0.0,2.0,1.0,2.5028841,0.017167343,-0.010830164,97.0,97.0,97.0,97.0,21.710573,21.710573,24.666473,24.666473,0.01754065,0.017317524,-4.493626E-4,-4.4701065E-4,1185.8484,0.0,0.0,0.0,0.0,0.0,0.0,0.0,0.0,0.0,0.0,0.0,0.0,0.0,45.822105,0.7514156,-61.811783,0.050278667,-0.016748462,-0.0108684525,547721.06,119984.9,0.009848288,0.009060986,8226.467,8606.959,6754.607,6511.7725,0.30658627,0.0,0.0,0.0
126.49219,23689.22,1.733,0.0,0.0,277.64395,11520.0,100.0,0.0,0.10510888,0.0,7.0,0.0,0.0,4000000.0,110.0,1.0,0.0,0.0,10.0,0.0,0.0,-385.459,-2.5363605,240.69165,-0.1057041,0.35628113,0.22606462,282.39108,282.3975,277.55753,277.48297,422.0,423.0,488.0,492.0,97.0,97.0,97.0,97.0,0.0,0.0,0.0,0.0,0.05018456,0.04981665,0.052952014,0.052438505,0.0,0.0,0.0,0.0,-8843.256,724.08905,-882.6612,2208.1553,0.0,0.0,0.0,2.0,1.0,2.5021176,0.017985681,-0.0116781,97.0,97.0,97.0,97.0,21.710573,21.710573,24.666473,24.666473,0.017012719,0.017185515,-4.34434E-4,-4.6069289E-4,1187.3052,0.0,0.0,0.0,0.0,0.0,0.0,0.0,0.0,0.0,0.0,0.0,0.0,0.0,45.97544,0.84823954,-61.91563,0.013142338,-0.010779188,-0.033425584,547251.44,119984.91,0.010545632,0.007492006,8685.617,8624.632,6254.9775,6188.9487,0.30788708,0.0,0.0,0.0
130.35352,23693.082,1.783,0.0,0.0,278.25034,11554.0,100.0,0.0,-0.1342059,0.0,7.0,0.0,0.0,4000000.0,110.0,1.0,0.0,0.0,10.0,0.0,0.0,-383.15677,-2.4940248,237.59291,-0.052664503,0.34684563,-0.078849986,283.17355,283.29062,278.1117,278.1425,420.0,421.0,486.0,490.0,97.0,97.0,97.0,97.0,0.0,0.0,0.0,0.0,0.04869576,0.048164308,0.05206166,0.05261926,0.0,0.0,0.0,0.0,2258.9292,1929.1785,4807.081,-838.7803,0.0,0.0,0.0,2.0,1.0,2.5020776,0.017359423,-0.011080623,97.0,97.0,97.0,97.0,21.710573,21.710573,24.666473,24.666473,0.017792443,0.018087117,-4.360467E-4,-4.4820175E-4,1189.3495,0.0,0.0,0.0,0.0,0.0,0.0,0.0,0.0,0.0,0.0,0.0,0.0,0.0,46.10264,0.82854277,-62.031254,-0.028693827,0.0054399013,0.03202954,546580.5,119984.91,0.011255393,0.010210636,8113.798,7825.8193,6055.511,6116.328,0.30912113,0.0,0.0,0.0
134.22266,23696.951,1.833,0.0,0.0,278.86517,11571.0,100.0,0.0,-0.041717965,0.0,7.0,0.0,0.0,4000000.0,110.0,1.0,0.0,0.0,10.0,0.0,0.0,-380.84872,-2.4531364,234.4879,-0.008330792,0.35393706,0.013716696,283.62512,283.70166,278.71866,278.75793,418.0,419.0,484.0,488.0,97.0,97.0,97.0,97.0,0.0,0.0,0.0,0.0,0.049684998,0.04939373,0.052221555,0.052433085,0.0,0.0,0.0,0.0,5751.916,-539.7275,-743.1864,-42.781227,0.0,0.0,0.0,2.0,1.0,2.50241,0.016441347,-0.011870623,97.0,97.0,97.0,97.0,21.710573,21.710573,24.666473,24.666473,0.017188903,0.017406268,-4.4748644E-4,-4.496957E-4,1190.3342,0.0,0.0,0.0,0.0,0.0,0.0,0.0,0.0,0.0,0.0,0.0,0.0,0.0,46.21116,0.81484824,-62.16358,-0.0056920927,0.006305362,0.02964433,546229.4,119984.9,0.012068026,0.008698511,8567.971,8338.527,5848.1045,6016.409,0.30892086,0.0,0.0,0.0
138.09961,23700.828,1.883,0.0,0.0,279.46362,11598.0,100.0,0.0,0.014636316,0.0,7.0,0.0,0.0,4000000.0,110.0,1.0,0.0,0.0,10.0,0.0,0.0,-378.53555,-2.411156,231.37614,0.012307212,0.33206233,0.026105568,284.34753,284.30075,279.33417,279.3466,416.0,417.0,483.0,487.0,97.0,97.0,97.0,97.0,0.0,0.0,0.0,0.0,0.049124755,0.04915047,0.052320227,0.052725043,0.0,0.0,0.0,0.0,-1147.0868,1082.0566,-306.91174,259.42322,0.0,0.0,0.0,2.0,1.0,2.5026155,0.01568232,-0.011825204,97.0,97.0,97.0,97.0,21.710573,21.710573,24.666473,24.666473,0.01749581,0.01732632,-4.4165808E-4,-4.3317795E-4,1191.9514,0.0,0.0,0.0,0.0,0.0,0.0,0.0,0.0,0.0,0.0,0.0,0.0,0.0,46.308002,0.852495,-62.298233,-0.004742641,0.0017003622,0.0041851318,545698.1,119984.91,0.011212069,0.009565224,8258.421,8306.824,6059.0293,6263.8467,0.30758476,0.0,0.0,0.0
141.98438,23704.713,1.933,0.0,0.0,280.05457,11619.0,100.0,0.0,0.007953497,0.0,7.0,0.0,0.0,4000000.0,110.0,1.0,0.0,0.0,10.0,0.0,0.0,-376.21768,-2.3672764,228.25774,0.00747253,0.3366716,0.07547984,284.84766,284.80002,279.93222,279.91833,414.0,416.0,481.0,485.0,97.0,97.0,97.0,97.0,0.0,0.0,0.0,0.0,0.049780425,0.04917124,0.053381123,0.05240575,0.0,0.0,0.0,0.0,-1118.025,2200.4973,-1277.5629,-875.39246,0.0,0.0,0.0,2.0,1.0,2.5025837,0.015230245,-0.012834072,97.0,97.0,97.0,97.0,21.710573,21.710573,24.666473,24.666473,0.017135987,0.017146436,-4.4578634E-4,-4.4151038E-4,1193.2239,0.0,0.0,0.0,0.0,0.0,0.0,0.0,0.0,0.0,0.0,0.0,0.0,0.0,46.404015,0.89929414,-62.43075,0.069312304,-0.0022688312,-0.040007338,545293.3,119984.9,0.009466891,0.0077714324,8542.214,8432.658,6597.543,6034.216,0.30634785,0.0,0.0,0.0
145.8789,23708.607,1.983,0.0,0.0,280.643,11643.0,100.0,0.0,-0.17249703,0.0,7.0,0.0,0.0,4000000.0,110.0,1.0,0.0,0.0,10.0,0.0,0.0,-373.89502,-2.3204412,225.13258,0.026961818,0.32600793,0.07243999,285.4142,285.41785,280.51013,280.53372,413.0,414.0,479.0,483.0,97.0,97.0,97.0,97.0,0.0,0.0,0.0,0.0,0.049614806,0.049614187,0.05226507,0.05275262,0.0,0.0,0.0,0.0,-3163.8665,-2011.9248,778.4038,-632.73303,0.0,0.0,0.0,2.0,1.0,2.5026197,0.017040113,-0.013046265,97.0,97.0,97.0,97.0,21.710573,21.710573,24.666473,24.666473,0.0170909,0.016943198,-4.286553E-4,-4.4620666E-4,1194.6426,0.0,0.0,0.0,0.0,0.0,0.0,0.0,0.0,0.0,0.0,0.0,0.0,0.0,46.493717,0.96281004,-62.56681,-0.021500353,0.005075794,-0.011123549,544816.3,119984.89,0.0106757,0.0073213875,8401.493,8598.291,5905.2363,6154.123,0.30726528,0.0,0.0,0.0
149.7793,23712.508,2.033,0.0,0.0,281.19388,11675.0,100.0,0.0,-0.4856371,0.0,7.0,0.0,0.0,4000000.0,110.0,1.0,0.0,0.0,10.0,0.0,0.0,-371.56842,-2.271895,222.00063,0.08218227,0.3066225,-0.09943162,286.16162,286.24994,281.01254,281.13116,411.0,412.0,477.0,482.0,97.0,97.0,97.0,97.0,0.0,0.0,0.0,0.0,0.048567105,0.04815746,0.052262478,0.053080216,0.0,0.0,0.0,0.0,638.8082,271.69415,737.0173,-1659.7775,0.0,0.0,0.0,2.0,1.0,2.5032802,0.016401427,-0.012225509,97.0,97.0,97.0,97.0,21.710573,21.710573,24.666473,24.666473,0.017793344,0.01780625,-4.0654745E-4,-4.396952E-4,1196.537,0.0,0.0,0.0,0.0,0.0,0.0,0.0,0.0,0.0,0.0,0.0,0.0,0.0,46.56183,0.95955175,-62.706905,0.002085289,0.02114716,0.015043552,544184.6,119984.9,0.011813024,0.011817843,7954.3296,7804.728,6133.7266,6385.4414,0.30891323,0.0,0.0,0.0
153.68945,23716.418,2.083,0.0,0.0,281.75995,11690.0,100.0,0.0,-0.7040161,0.0,7.0,0.0,0.0,4000000.0,110.0,1.0,0.0,0.0,10.0,0.0,0.0,-369.2393,-2.2252533,218.86089,0.1782831,0.32297432,-4.8975786E-4,286.51462,286.6142,281.52667,281.7407,409.0,410.0,476.0,480.0,97.0,97.0,97.0,97.0,0.0,0.0,0.0,0.0,0.049744263,0.04947343,0.051880065,0.052928105,0.0,0.0,0.0,0.0,242.65936,-3481.534,-135.50519,-252.73114,0.0,0.0,0.0,2.0,1.0,2.5047684,0.015075147,-0.013512373,97.0,97.0,97.0,97.0,21.710573,21.710573,24.666473,24.666473,0.017257694,0.016988961,-4.2375468E-4,-4.4589603E-4,1197.4277,0.0,0.0,0.0,0.0,0.0,0.0,0.0,0.0,0.0,0.0,0.0,0.0,0.0,46.597004,0.9266662,-62.877098,-0.007043395,0.036402144,0.03320954,543890.94,119984.9,0.011448461,0.008948063,8377.909,8442.115,5737.7046,6177.236,0.30649567,0.0,0.0,0.0
157.60547,23720.334,2.133,0.0,0.0,282.31427,11708.0,100.0,0.0,-0.80721265,0.0,7.0,0.0,0.0,4000000.0,110.0,1.0,0.0,0.0,10.0,0.0,0.0,-366.90936,-2.176288,215.712,0.2731334,0.31027955,0.19846848,287.0088,286.9921,282.05228,282.31882,407.0,409.0,474.0,478.0,97.0,97.0,97.0,97.0,0.0,0.0,0.0,0.0,0.049363766,0.05065606,0.05317595,0.05324809,0.0,0.0,0.0,0.0,-1728.8578,209.1854,-2463.9573,-642.5767,0.0,0.0,0.0,2.0,1.0,2.5068867,0.016097916,-0.014415622,97.0,97.0,97.0,97.0,21.710573,21.710573,24.666473,24.666473,0.017101549,0.016260317,-4.3016413E-4,-4.3416698E-4,1198.491,0.0,0.0,0.0,0.0,0.0,0.0,0.0,0.0,0.0,0.0,0.0,0.0,0.0,46.59244,1.0322778,-63.07039,0.06011899,0.04557761,-0.037023544,543536.94,119984.9,0.008554219,0.006688801,8413.175,9135.184,6593.314,6643.6616,0.30443954,0.0,0.0,0.0
161.53125,23724.26,2.183,0.0,0.0,282.85175,11735.0,100.0,0.0,-0.6828854,0.0,7.0,0.0,0.0,4000000.0,110.0,1.0,0.0,0.0,10.0,0.0,0.0,-364.58032,-2.1223862,212.55315,0.28922898,0.29496467,0.060669597,287.64413,287.69952,282.6077,282.85474,406.0,407.0,472.0,476.0,97.0,97.0,97.0,97.0,0.0,0.0,0.0,0.0,0.04928236,0.049700215,0.052367527,0.05325411,0.0,0.0,0.0,0.0,-2401.7837,-1660.7567,105.196205,-758.24695,0.0,0.0,0.0,2.0,1.0,2.5090795,0.017365556,-0.01421535,97.0,97.0,97.0,97.0,21.710573,21.710573,24.666473,24.666473,0.017291168,0.0167007,-4.242728E-4,-4.1961967E-4,1200.0659,0.0,0.0,0.0,0.0,0.0,0.0,0.0,0.0,0.0,0.0,0.0,0.0,0.0,46.56731,1.1057665,-63.273186,-0.003452612,0.042147473,-0.027082806,542999.0,119984.91,0.01010931,0.007880378,8149.4214,8708.3125,6044.6367,6459.7065,0.30713844,0.0,0.0,0.0
165.46289,23728.191,2.233,0.0,0.0,283.37518,11760.0,100.0,0.0,-0.50756896,0.0,7.0,0.0,0.0,4000000.0,110.0,1.0,0.0,0.0,10.0,0.0,0.0,-362.25275,-2.0686162,209.38414,0.27299464,0.29808462,-0.08266536,288.311,288.29184,283.1504,283.34814,404.0,405.0,471.0,475.0,97.0,97.0,97.0,97.0,0.0,0.0,0.0,0.0,0.048627686,0.04880638,0.052611385,0.052964933,0.0,0.0,0.0,0.0,-622.9161,316.64816,3294.6372,-1197.043,0.0,0.0,0.0,2.0,1.0,2.5109775,0.016616758,-0.014152646,97.0,97.0,97.0,97.0,21.710573,21.710573,24.666473,24.666473,0.01775813,0.017196994,-4.3221324E-4,-4.1173573E-4,1201.5142,0.0,0.0,0.0,0.0,0.0,0.0,0.0,0.0,0.0,0.0,0.0,0.0,0.0,46.54107,1.0537841,-63.473785,0.023994958,0.0321846,0.0017172508,542498.56,119984.89,0.009626734,0.009320515,7819.619,8265.149,6371.5938,6397.9297,0.30698204,0.0,0.0,0.0
169.39258,23732.121,2.283,0.0,0.0,282.3502,11330.0,100.0,0.0,-0.53544563,0.0,7.0,0.0,0.0,4000000.0,110.0,1.0,0.0,0.0,10.0,0.0,0.0,-359.93225,-2.0156376,206.2134,0.2676736,-0.71083444,0.15689602,282.29724,282.37662,282.29047,282.44046,402.0,403.0,469.0,473.0,97.0,97.0,97.0,97.0,0.0,0.0,0.0,0.0,0.04798565,0.048384406,0.05268544,0.053843744,0.0,0.0,0.0,0.0,1974.2666,-412.76514,-656.0548,1033.4415,0.0,0.0,0.0,2.0,1.0,2.5123818,0.016805388,-0.013480067,97.0,97.0,97.0,97.0,21.710573,21.710573,24.666473,24.666473,7.329147E-5,-1.2589146E-4,6.152625E-5,2.9365827E-5,1173.6079,0.0,0.0,0.0,0.0,0.0,0.0,0.0,0.0,0.0,0.0,0.0,0.0,0.0,46.26685,1.0852156,-63.321095,-0.031597536,0.027100844,-0.017841395,550009.44,0.0,0.008877673,0.008989093,8209.573,8625.996,6510.8745,7187.2725,0.3057165,0.0,0.0,0.0
173.31055,23736.04,2.333,0.0,0.0,282.1958,10901.0,100.0,0.0,-0.8054038,0.0,8.0,0.0,0.0,4000000.0,110.0,1.0,0.0,0.0,10.0,0.0,0.0,-357.62384,-1.9615176,203.04828,0.2776661,0.3145545,-0.09482833,287.58347,287.5882,281.94907,282.16226,400.0,402.0,467.0,471.0,97.0,97.0,97.0,97.0,0.0,0.0,0.0,0.0,0.04749856,0.048730813,0.052790318,0.053740412,0.0,0.0,0.0,0.0,179.27884,1641.4178,-17.984217,-1346.1603,0.0,0.0,0.0,2.0,1.0,2.5139277,0.016305612,-0.013332963,97.0,97.0,97.0,97.0,21.710573,21.710573,24.666473,24.666473,0.019551506,0.018904503,-4.4699523E-4,-4.667556E-4,1124.9285,0.0,0.0,0.0,0.0,0.0,0.0,0.0,0.0,0.0,0.0,0.0,0.0,0.0,46.134987,1.0690559,-63.364464,0.039443642,0.036021702,0.024773102,547943.25,119984.9,0.009209204,0.010695514,7602.957,8075.222,6369.782,6694.086,0.3077278,0.0,0.0,0.0
177.23633,23739.965,2.383,0.0,0.0,282.86337,10558.0,100.0,0.0,-1.123631,0.0,8.0,0.0,0.0,4000000.0,110.0,1.0,0.0,0.0,10.0,0.0,0.0,-355.31747,-1.909326,199.87375,0.34671387,0.38035786,0.0807658,287.9128,287.94254,282.57227,282.88293,399.0,400.0,465.0,470.0,97.0,97.0,97.0,97.0,0.0,0.0,0.0,0.0,0.049854368,0.050592933,0.051814806,0.05294118,0.0,0.0,0.0,0.0,166.02858,-3444.1304,145.96584,686.9404,0.0,0.0,0.0,2.0,1.0,2.5161397,0.01681379,-0.015178442,97.0,97.0,97.0,97.0,21.710573,21.710573,24.666473,24.666473,0.018302642,0.017453656,-4.4124387E-4,-4.819963E-4,1077.633,0.0,0.0,0.0,0.0,0.0,0.0,0.0,0.0,0.0,0.0,0.0,0.0,0.0,46.116543,1.0479183,-63.607445,0.003143075,0.053829875,0.0045797685,541958.75,119984.9,0.010843769,0.0066830916,8406.232,9019.467,5659.1436,6234.124,0.30732727,0.0,0.0,0.0
181.16992,23743.898,2.433,0.0,0.0,283.50824,10264.0,100.0,0.0,-1.0906904,0.0,8.0,0.0,0.0,4000000.0,110.0,1.0,0.0,0.0,10.0,0.0,0.0,-353.01288,-1.8562076,196.68665,0.40440637,0.3589588,0.027283993,288.719,288.78433,283.1843,283.56818,397.0,398.0,464.0,468.0,97.0,97.0,97.0,97.0,0.0,0.0,0.0,0.0,0.0488433,0.049755696,0.05188821,0.053237706,0.0,0.0,0.0,0.0,-1566.4099,-655.69275,1605.1274,-986.9187,0.0,0.0,0.0,2.0,1.0,2.5192492,0.016615458,-0.014233708,97.0,97.0,97.0,97.0,21.710573,21.710573,24.666473,24.666473,0.018981094,0.01803498,-4.5266916E-4,-4.5217786E-4,1023.1451,0.0,0.0,0.0,0.0,0.0,0.0,0.0,0.0,0.0,0.0,0.0,0.0,0.0,46.06636,1.0736841,-63.864395,-0.011611584,0.0652727,-0.016057169,529294.75,119984.91,0.011207797,0.008763981,7945.9307,8659.144,6051.049,6533.1475,0.30644608,0.0,0.0,0.0
185.11133,23747.84,2.483,0.0,0.0,284.0323,10211.0,100.0,0.0,-0.75000536,0.0,8.0,0.0,0.0,4000000.0,110.0,1.0,0.0,0.0,10.0,0.0,0.0,-350.71155,-1.8039528,193.48695,0.39950138,0.26673004,-0.09720058,288.81662,288.8346,283.76108,284.0627,395.0,397.0,462.0,466.0,97.0,97.0,97.0,97.0,0.0,0.0,0.0,0.0,0.048087753,0.049112655,0.051910862,0.053128242,0.0,0.0,0.0,0.0,3183.1516,-358.83926,1582.2081,968.9211,0.0,0.0,0.0,2.0,1.0,2.5221467,0.01626384,-0.013746738,97.0,97.0,97.0,97.0,21.710573,21.710573,24.666473,24.666473,0.017323578,0.016510526,-4.2016734E-4,-3.9060687E-4,1012.8366,0.0,0.0,0.0,0.0,0.0,0.0,0.0,0.0,0.0,0.0,0.0,0.0,0.0,45.987854,1.0188055,-64.101105,-0.0041242875,0.049275912,0.011742898,526681.56,119984.9,0.010987373,0.01000723,7763.8438,8437.521,6002.291,6529.795,0.3090706,0.0,0.0,0.0
189.06055,23751.79,2.533,0.0,0.0,284.50662,10220.0,100.0,0.0,-0.38369468,0.0,8.0,0.0,0.0,4000000.0,110.0,1.0,0.0,0.0,10.0,0.0,0.0,-348.414,-1.7533531,190.27632,0.32002145,0.2715826,0.16404656,289.1174,289.03464,284.2991,284.4684,394.0,395.0,460.0,464.0,97.0,97.0,97.0,97.0,0.0,0.0,0.0,0.0,0.049260825,0.05082113,0.052636024,0.053343978,0.0,0.0,0.0,0.0,800.1028,-892.2903,1688.1285,-342.85333,0.0,0.0,0.0,2.0,1.0,2.5240052,0.01681609,-0.014542818,97.0,97.0,97.0,97.0,21.710573,21.710573,24.666473,24.666473,0.016516058,0.015754905,-4.3376363E-4,-3.918043E-4,1014.58966,0.0,0.0,0.0,0.0,0.0,0.0,0.0,0.0,0.0,0.0,0.0,0.0,0.0,45.923332,1.0341337,-64.30909,0.020377155,0.02626186,0.008097347,527128.56,119984.9,0.008898564,0.0068996944,8282.21,9142.227,6537.884,6743.5234,0.3067627,0.0,0.0,0.0
193.01562,23755.744,2.583,0.0,0.0,284.97012,10236.0,100.0,0.0,-0.30269906,0.0,8.0,0.0,0.0,4000000.0,110.0,1.0,0.0,0.0,10.0,0.0,0.0,-346.11877,-1.699418,187.05605,0.23006,0.25993112,0.20561472,289.57053,289.48578,284.80908,284.89374,392.0,393.0,459.0,463.0,97.0,97.0,97.0,97.0,0.0,0.0,0.0,0.0,0.049688797,0.050511707,0.052986864,0.053338617,0.0,0.0,0.0,0.0,1019.66833,-816.062,554.9892,-164.0707,0.0,0.0,0.0,2.0,1.0,2.5248952,0.01756883,-0.014993906,97.0,97.0,97.0,97.0,21.710573,21.710573,24.666473,24.666473,0.016223906,0.01573582,-4.1297337E-4,-4.0197742E-4,1017.69885,0.0,0.0,0.0,0.0,0.0,0.0,0.0,0.0,0.0,0.0,0.0,0.0,0.0,45.89351,1.1230994,-64.48699,0.013233769,0.013613525,-0.014806305,527917.44,119984.92,0.009007041,0.0064085103,8563.4795,9118.423,6581.749,6696.72,0.3069353,0.0,0.0,0.0
196.97656,23759.705,2.633,0.0,0.0,285.42,10260.0,100.0,0.0,-0.29497674,0.0,8.0,0.0,0.0,4000000.0,110.0,1.0,0.0,0.0,10.0,0.0,0.0,-343.82428,-1.6433402,183.82753,0.17104122,0.2529339,-0.18810238,290.2086,290.2488,285.2683,285.3477,390.0,391.0,457.0,461.0,97.0,97.0,97.0,97.0,0.0,0.0,0.0,0.0,0.04854741,0.049130697,0.051310036,0.053181536,0.0,0.0,0.0,0.0,-70.8237,-2303.3867,-1845.5339,1579.9685,0.0,0.0,0.0,2.0,1.0,2.5255227,0.0175417,-0.014201283,97.0,97.0,97.0,97.0,21.710573,21.710573,24.666473,24.666473,0.016913196,0.016669318,-3.9231151E-4,-4.1129772E-4,1022.4246,0.0,0.0,0.0,0.0,0.0,0.0,0.0,0.0,0.0,0.0,0.0,0.0,0.0,45.890766,1.0943317,-64.64277,-0.07145913,0.013506401,0.03818489,529128.25,119984.92,0.012305943,0.009484008,7931.103,8250.664,5128.911,6259.4062,0.31126785,0.0,0.0,0.0
200.94531,23763.674,2.683,0.0,0.0,285.8738,10273.0,100.0,0.0,-0.3362739,0.0,8.0,0.0,0.0,4000000.0,110.0,1.0,0.0,0.0,10.0,0.0,0.0,-341.52948,-1.5912303,180.5915,0.15314572,0.2625916,-0.06166923,290.5619,290.59293,285.7004,285.8006,389.0,390.0,455.0,459.0,97.0,97.0,97.0,97.0,0.0,0.0,0.0,0.0,0.048814613,0.04915789,0.05238731,0.053263128,0.0,0.0,0.0,0.0,1514.375,5293.8887,-378.59375,1064.4882,0.0,0.0,0.0,2.0,1.0,2.5263054,0.0147344945,-0.014159799,97.0,97.0,97.0,97.0,21.710573,21.710573,24.666473,24.666473,0.016727488,0.016496222,-4.0709527E-4,-4.1290413E-4,1024.9081,0.0,0.0,0.0,0.0,0.0,0.0,0.0,0.0,0.0,0.0,0.0,0.0,0.0,45.90285,1.0152239,-64.79004,0.010324625,0.015958209,0.04870205,529742.3,119984.92,0.010232277,0.009177893,8150.6855,8344.437,6349.2607,6733.7026,0.3065405,0.0,0.0,0.0
204.91992,23767.648,2.733,0.0,0.0,286.33707,10281.0,100.0,0.0,-0.346913,0.0,8.0,0.0,0.0,4000000.0,110.0,1.0,0.0,0.0,10.0,0.0,0.0,-339.23398,-1.5384383,177.34811,0.15398149,0.25744683,0.32916757,290.8103,290.76904,286.16653,286.26572,387.0,388.0,454.0,458.0,97.0,97.0,97.0,97.0,0.0,0.0,0.0,0.0,0.0502504,0.051479306,0.053330116,0.05335746,0.0,0.0,0.0,0.0,-1689.7645,-958.1117,-990.29816,514.24646,0.0,0.0,0.0,2.0,1.0,2.5271356,0.015016919,-0.015609026,97.0,97.0,97.0,97.0,21.710573,21.710573,24.666473,24.666473,0.015765686,0.015352952,-4.1044477E-4,-4.1040377E-4,1026.446,0.0,0.0,0.0,0.0,0.0,0.0,0.0,0.0,0.0,0.0,0.0,0.0,0.0,45.916748,1.1205319,-64.93614,0.028799009,0.016724927,-0.0155823445,530124.4,119984.92,0.008038901,0.0050685583,8956.453,9430.336,6797.199,6803.8994,0.30385685,0.0,0.0,0.0
208.90039,23771.629,2.783,0.0,0.0,286.7731,10303.0,100.0,0.0,-0.17286642,0.0,8.0,0.0,0.0,4000000.0,110.0,1.0,0.0,0.0,10.0,0.0,0.0,-336.93768,-1.4800225,174.09769,0.10701099,0.24138816,0.104353756,291.40756,291.4715,286.61972,286.69986,385.0,386.0,452.0,456.0,97.0,97.0,97.0,97.0,0.0,0.0,0.0,0.0,0.049755357,0.049484983,0.052863356,0.053384338,0.0,0.0,0.0,0.0,-129.87256,-1400.6764,3822.9788,-840.0811,0.0,0.0,0.0,2.0,1.0,2.5279112,0.015211633,-0.014843106,97.0,97.0,97.0,97.0,21.710573,21.710573,24.666473,24.666473,0.016216438,0.016224507,-4.076281E-4,-3.9066144E-4,1030.8218,0.0,0.0,0.0,0.0,0.0,0.0,0.0,0.0,0.0,0.0,0.0,0.0,0.0,45.93441,1.1969309,-65.07062,-0.01827927,0.013255592,-0.0108190365,531247.5,119984.9,0.009812431,0.007887091,8577.507,8538.842,6592.547,6680.2695,0.3069229,0.0,0.0,0.0
212.88672,23775.615,2.833,0.0,0.0,287.20322,10324.0,100.0,0.0,-0.08031334,0.0,8.0,0.0,0.0,4000000.0,110.0,1.0,0.0,0.0,10.0,0.0,0.0,-334.6403,-1.4229647,170.84079,0.07732187,0.25438946,-0.18508926,292.04016,292.0058,287.06827,287.1059,384.0,385.0,451.0,454.0,97.0,97.0,97.0,97.0,0.0,0.0,0.0,0.0,0.048437398,0.048644967,0.052228607,0.0526758,0.0,0.0,0.0,0.0,8441.42,-219.8204,3337.848,706.5742,0.0,0.0,0.0,2.0,1.0,2.528363,0.0140195545,-0.014454007,97.0,97.0,97.0,97.0,21.710573,21.710573,24.666473,24.666473,0.016833397,0.016734669,-4.0748043E-4,-3.9366656E-4,1034.8892,0.0,0.0,0.0,0.0,0.0,0.0,0.0,0.0,0.0,0.0,0.0,0.0,0.0,45.963867,1.0864795,-65.198,-0.027792836,0.004713395,0.04180543,532258.8,119984.914,0.011538404,0.010292508,8173.6094,8103.8164,6067.4937,6179.2334,0.30947495,0.0,0.0,0.0
216.8789,23779.607,2.883,0.0,0.0,287.65363,10330.0,100.0,0.0,-0.11280212,0.0,8.0,0.0,0.0,4000000.0,110.0,1.0,0.0,0.0,10.0,0.0,0.0,-332.34094,-1.3694633,167.57765,0.068273656,0.26018393,0.14170304,292.22684,292.12836,287.5241,287.5362,382.0,383.0,449.0,453.0,97.0,97.0,97.0,97.0,0.0,0.0,0.0,0.0,0.049965575,0.050796703,0.05331374,0.05286358,0.0,0.0,0.0,0.0,75.41026,2661.2336,1023.4504,1479.627,0.0,0.0,0.0,2.0,1.0,2.5284758,0.014044216,-0.015583634,97.0,97.0,97.0,97.0,21.710573,21.710573,24.666473,24.666473,0.016003933,0.015683321,-4.1951454E-4,-4.116196E-4,1036.0441,0.0,0.0,0.0,0.0,0.0,0.0,0.0,0.0,0.0,0.0,0.0,0.0,0.0,46.00805,1.0832177,-65.31999,0.049094252,0.001565916,-0.021767652,532543.3,119984.9,0.0075917537,0.005641818,8742.162,9045.977,6838.517,6592.6016,0.30549145,0.0,0.0,0.0
220.875,23783.604,2.933,0.0,0.0,288.09586,10343.0,100.0,0.0,-0.19587423,0.0,8.0,0.0,0.0,4000000.0,110.0,1.0,0.0,0.0,10.0,0.0,0.0,-330.03937,-1.3117174,164.30856,0.054024592,0.24869685,0.21467209,292.54852,292.57584,287.9609,288.00052,380.0,381.0,447.0,451.0,97.0,97.0,97.0,97.0,0.0,0.0,0.0,0.0,0.050584514,0.050659213,0.053006228,0.0533113,0.0,0.0,0.0,0.0,2142.2532,-88.298256,900.8601,687.1416,0.0,0.0,0.0,2.0,1.0,2.5286672,0.015607436,-0.015771389,97.0,97.0,97.0,97.0,21.710573,21.710573,24.666473,24.666473,0.015509748,0.015468797,-4.0068734E-4,-4.1996094E-4,1038.6587,0.0,0.0,0.0,0.0,0.0,0.0,0.0,0.0,0.0,0.0,0.0,0.0,0.0,46.054127,1.2067249,-65.43563,-0.023315571,0.007757368,-0.015676992,533216.2,119984.9,0.0082869725,0.0041547297,9110.752,9250.054,6420.161,6629.036,0.30663967,0.0,0.0,0.0
224.8789,23787.607,2.983,0.0,0.0,288.5087,10370.0,100.0,0.0,-0.31041595,0.0,8.0,0.0,0.0,4000000.0,110.0,1.0,0.0,0.0,10.0,0.0,0.0,-327.73563,-1.2511019,161.03387,0.0792424,0.239108,-0.27028003,293.28973,293.35367,288.34683,288.4362,379.0,380.0,446.0,450.0,97.0,97.0,97.0,97.0,0.0,0.0,0.0,0.0,0.0480949,0.048905768,0.05197582,0.053401917,0.0,0.0,0.0,0.0,4759.0024,1662.2185,3.9427183,-194.25896,0.0,0.0,0.0,2.0,1.0,2.5292287,0.01545482,-0.014828563,97.0,97.0,97.0,97.0,21.710573,21.710573,24.666473,24.666473,0.01687069,0.016646717,-3.9295628E-4,-4.1102784E-4,1043.9287,0.0,0.0,0.0,0.0,0.0,0.0,0.0,0.0,0.0,0.0,0.0,0.0,0.0,46.0927,1.1695805,-65.5494,-0.050355535,0.014505135,0.059987962,534526.3,119984.9,0.010543012,0.009083766,7955.2124,8209.928,5655.8,6377.506,0.30874157,0.0,0.0,0.0
228.88672,23791.615,3.033,0.0,0.0,288.94406,10379.0,100.0,0.0,-0.28885344,0.0,8.0,0.0,0.0,4000000.0,110.0,1.0,0.0,0.0,10.0,0.0,0.0,-325.4301,-1.1950349,157.75314,0.09285414,0.25295103,-0.087022215,293.53445,293.62878,288.7787,288.8706,377.0,378.0,444.0,448.0,97.0,97.0,97.0,97.0,0.0,0.0,0.0,0.0,0.049233995,0.050106753,0.052595057,0.052443482,0.0,0.0,0.0,0.0,4807.5776,213.53049,-904.4273,1670.9355,0.0,0.0,0.0,2.0,1.0,2.5299742,0.01517557,-0.0151029825,97.0,97.0,97.0,97.0,21.710573,21.710573,24.666473,24.666473,0.016150804,0.016181352,-4.0236057E-4,-4.1670768E-4,1045.7369,0.0,0.0,0.0,0.0,0.0,0.0,0.0,0.0,0.0,0.0,0.0,0.0,0.0,46.12596,1.0908384,-65.67521,0.009559883,0.01634552,-0.01219673,534987.9,119984.91,0.01103739,0.007284756,8523.954,8635.291,6101.2007,6133.974,0.30982876,0.0,0.0,0.0
232.90234,23795.63,3.083,0.0,0.0,289.36545,10394.0,100.0,0.0,-0.18182555,0.0,8.0,0.0,0.0,4000000.0,110.0,1.0,0.0,0.0,10.0,0.0,0.0,-323.12305,-1.1396054,154.46611,0.10202301,0.23281337,0.053983275,294.06842,293.95496,289.2112,289.2804,376.0,377.0,442.0,446.0,97.0,97.0,97.0,97.0,0.0,0.0,0.0,0.0,0.049283974,0.050342966,0.052950487,0.053452797,0.0,0.0,0.0,0.0,-1163.7029,2475.7053,-2885.3188,431.51373,0.0,0.0,0.0,2.0,1.0,2.5306838,0.015845012,-0.015192509,97.0,97.0,97.0,97.0,21.710573,21.710573,24.666473,24.666473,0.016409663,0.01577755,-3.9775585E-4,-4.0057997E-4,1048.7164,0.0,0.0,0.0,0.0,0.0,0.0,0.0,0.0,0.0,0.0,0.0,0.0,0.0,46.153725,1.125698,-65.79815,0.018925548,0.01174973,1.9301008E-4,535737.9,119984.91,0.0093911495,0.00759728,8403.495,8918.605,6433.691,6841.701,0.30826664,0.0,0.0,0.0
236.92188,23799.65,3.133,0.0,0.0,289.78305,10409.0,100.0,0.0,-0.17233944,0.0,8.0,0.0,0.0,4000000.0,110.0,1.0,0.0,0.0,10.0,0.0,0.0,-320.8145,-1.0818818,151.17305,0.10410473,0.23120302,0.11653482,294.45868,294.36642,289.6428,289.6862,374.0,375.0,441.0,445.0,97.0,97.0,97.0,97.0,0.0,0.0,0.0,0.0,0.04981198,0.050226446,0.053499922,0.053311624,0.0,0.0,0.0,0.0,-10059.853,4141.545,-4252.5884,2832.2515,0.0,0.0,0.0,2.0,1.0,2.531167,0.015403035,-0.015472889,97.0,97.0,97.0,97.0,21.710573,21.710573,24.666473,24.666473,0.016277893,0.01572628,-3.96523E-4,-4.0353302E-4,1051.603,0.0,0.0,0.0,0.0,0.0,0.0,0.0,0.0,0.0,0.0,0.0,0.0,0.0,46.184643,1.1846652,-65.91713,0.029661786,0.008259435,-0.031554133,536438.4,119984.9,0.008740974,0.007010378,8463.197,8993.46,6607.7554,6834.32,0.30796242,0.0,0.0,0.0
240.94727,23803.676,3.183,0.0,0.0,290.191,10428.0,100.0,0.0,-0.23996039,0.0,8.0,0.0,0.0,4000000.0,110.0,1.0,0.0,0.0,10.0,0.0,0.0,-318.50452,-1.0231673,147.87407,0.103754535,0.22992134,-0.06749277,295.01508,294.9086,290.04257,290.10992,372.0,373.0,439.0,443.0,97.0,97.0,97.0,97.0,0.0,0.0,0.0,0.0,0.049367122,0.049359605,0.052589674,0.053178962,0.0,0.0,0.0,0.0,-6330.777,3870.7756,1804.0804,1061.4438,0.0,0.0,0.0,2.0,1.0,2.5317175,0.0139989555,-0.015055537,97.0,97.0,97.0,97.0,21.710573,21.710573,24.666473,24.666473,0.016699374,0.01611954,-3.9865542E-4,-3.9496788E-4,1055.3916,0.0,0.0,0.0,0.0,0.0,0.0,0.0,0.0,0.0,0.0,0.0,0.0,0.0,46.21255,1.1595459,-66.036385,-0.021970019,0.010849876,0.009382461,537390.06,119984.9,0.009546267,0.0083473055,8171.082,8588.389,6294.527,6502.2656,0.30797005,0.0,0.0,0.0
244.98047,23807.709,3.233,0.0,0.0,290.60477,10434.0,100.0,0.0,-0.27822185,0.0,8.0,0.0,0.0,4000000.0,110.0,1.0,0.0,0.0,10.0,0.0,0.0,-316.1932,-0.96528405,144.56902,0.10436615,0.241452,0.070975676,295.0895,295.1744,290.4399,290.52747,371.0,372.0,438.0,441.0,97.0,97.0,97.0,97.0,0.0,0.0,0.0,0.0,0.050512183,0.050317954,0.053067315,0.05315352,0.0,0.0,0.0,0.0,1589.3563,887.7709,766.5618,-850.27356,0.0,0.0,0.0,2.0,1.0,2.5323832,0.013303898,-0.015817642,97.0,97.0,97.0,97.0,21.710573,21.710573,24.666473,24.666473,0.015665876,0.015705299,-4.113864E-4,-4.0940146E-4,1056.6055,0.0,0.0,0.0,0.0,0.0,0.0,0.0,0.0,0.0,0.0,0.0,0.0,0.0,46.236378,1.1673396,-66.15985,0.0067455797,0.014297426,0.010232544,537698.75,119984.9,0.009381631,0.0058931434,8938.685,9033.3545,6498.0835,6429.2456,0.30739212,0.0,0.0,0.0
249.01758,23811.746,3.283,0.0,0.0,291.00116,10452.0,100.0,0.0,-0.2927327,0.0,8.0,0.0,0.0,4000000.0,110.0,1.0,0.0,0.0,10.0,0.0,0.0,-313.88095,-0.9052886,141.2578,0.10666099,0.22453487,-0.00714626,295.58035,295.67566,290.83618,290.93515,369.0,370.0,436.0,440.0,97.0,97.0,97.0,97.0,0.0,0.0,0.0,0.0,0.049772892,0.049913693,0.052587286,0.053363707,0.0,0.0,0.0,0.0,5754.518,-1648.0697,2267.2576,-814.4929,0.0,0.0,0.0,2.0,1.0,2.5331507,0.014004521,-0.01555419,97.0,97.0,97.0,97.0,21.710573,21.710573,24.666473,24.666473,0.01591772,0.015961397,-3.9404284E-4,-4.0490474E-4,1060.123,0.0,0.0,0.0,0.0,0.0,0.0,0.0,0.0,0.0,0.0,0.0,0.0,0.0,46.25319,1.2053993,-66.281746,-0.025260244,0.016884249,0.0100163175,538559.75,119984.9,0.011078667,0.0077218213,8786.117,8756.805,6227.4805,6538.948,0.31037807,0.0,0.0,0.0
253.0586,23815.787,3.333,0.0,0.0,291.38687,10469.0,100.0,0.0,-0.39081416,0.0,8.0,0.0,0.0,4000000.0,110.0,1.0,0.0,0.0,10.0,0.0,0.0,-311.568,-0.8447746,137.9405,0.13835615,0.22345896,-0.2053949,296.1187,296.10696,291.21094,291.31848,367.0,369.0,435.0,438.0,97.0,97.0,97.0,97.0,0.0,0.0,0.0,0.0,0.048632614,0.049702704,0.052490745,0.053388946,0.0,0.0,0.0,0.0,2655.5076,-626.1616,-3021.6821,-654.84784,0.0,0.0,0.0,2.0,1.0,2.5339708,0.014073001,-0.016180992,97.0,97.0,97.0,97.0,21.710573,21.710573,24.666473,24.666473,0.016598305,0.016115857,-3.901744E-4,-4.09212E-4,1063.5078,0.0,0.0,0.0,0.0,0.0,0.0,0.0,0.0,0.0,0.0,0.0,0.0,0.0,46.2629,1.1844003,-66.405975,-0.002014462,0.017876958,0.04421908,539401.94,119984.91,0.010727255,0.008528384,8150.7607,8597.631,5779.64,6374.1562,0.3067751,0.0,0.0,0.0
257.10742,23819.836,3.383,0.0,0.0,291.7915,10478.0,100.0,0.0,-0.49907044,0.0,8.0,0.0,0.0,4000000.0,110.0,1.0,0.0,0.0,10.0,0.0,0.0,-309.25482,-0.7847913,134.61667,0.16829094,0.22222847,0.17683241,296.2929,296.43768,291.59567,291.74918,366.0,367.0,433.0,437.0,97.0,97.0,97.0,97.0,0.0,0.0,0.0,0.0,0.05059163,0.050318368,0.052568607,0.05408388,0.0,0.0,0.0,0.0,-3660.7454,1185.2546,-1082.7809,645.2187,0.0,0.0,0.0,2.0,1.0,2.5351157,0.011855114,-0.016652822,97.0,97.0,97.0,97.0,21.710573,21.710573,24.666473,24.666473,0.015688455,0.015698401,-3.8252695E-4,-4.1566204E-4,1065.3048,0.0,0.0,0.0,0.0,0.0,0.0,0.0,0.0,0.0,0.0,0.0,0.0,0.0,46.26525,1.2362458,-66.54035,-0.012563043,0.027055878,0.024918616,539849.25,119984.9,0.00905777,0.0060340045,9079.483,8958.756,6374.875,7208.872,0.3033619,0.0,0.0,0.0
261.16016,23823.889,3.433,0.0,0.0,292.16608,10495.0,100.0,0.0,-0.4800304,0.0,8.0,0.0,0.0,4000000.0,110.0,1.0,0.0,0.0,10.0,0.0,0.0,-306.94183,-0.7200376,131.28607,0.21645609,0.2022037,0.134095,296.85727,296.84296,291.956,292.13248,364.0,365.0,431.0,435.0,97.0,97.0,97.0,97.0,0.0,0.0,0.0,0.0,0.049812254,0.05011032,0.053567693,0.054524306,0.0,0.0,0.0,0.0,-4821.0557,2610.0437,-4555.0874,580.7384,0.0,0.0,0.0,2.0,1.0,2.5366364,0.0093784155,-0.016858459,97.0,97.0,97.0,97.0,21.710573,21.710573,24.666473,24.666473,0.016343592,0.01572206,-3.8877953E-4,-3.936788E-4,1068.6957,0.0,0.0,0.0,0.0,0.0,0.0,0.0,0.0,0.0,0.0,0.0,0.0,0.0,46.24784,1.3385949,-66.67716,0.012829738,0.029259792,0.034176357,540690.4,119984.9,0.0072084577,0.0077074543,8545.424,8945.967,6772.152,7481.4727,0.2998991,0.0,0.0,0.0
265.21875,23827.947,3.483,0.0,0.0,292.55603,10506.0,100.0,0.0,-0.39865142,0.0,8.0,0.0,0.0,4000000.0,110.0,1.0,0.0,0.0,10.0,0.0,0.0,-304.63004,-0.6525324,127.948364,0.22568423,0.22427934,0.07661003,297.14124,297.1741,292.37204,292.50763,363.0,364.0,430.0,434.0,97.0,97.0,97.0,97.0,0.0,0.0,0.0,0.0,0.050590232,0.050551906,0.0527406,0.0535089,0.0,0.0,0.0,0.0,-12465.351,2091.345,-1686.5057,2478.7363,0.0,0.0,0.0,2.0,1.0,2.5379748,0.0076287263,-0.017738223,97.0,97.0,97.0,97.0,21.710573,21.710573,24.666473,24.666473,0.015927473,0.015532196,-3.9677756E-4,-4.030632E-4,1070.5209,0.0,0.0,0.0,0.0,0.0,0.0,0.0,0.0,0.0,0.0,0.0,0.0,0.0,46.22461,1.3667982,-66.82446,-0.009454233,0.023577116,-0.02365454,541046.7,119984.9,0.008588159,0.0054835253,8719.296,9192.474,6053.8335,6584.8667,0.30365467,0.0,0.0,0.0
269.2832,23832.012,3.533,0.0,0.0,292.9267,10520.0,100.0,0.0,-0.3757017,0.0,8.0,0.0,0.0,4000000.0,110.0,1.0,0.0,0.0,10.0,0.0,0.0,-302.31943,-0.5829903,124.6034,0.22056694,0.21037689,0.09456686,297.5538,297.59415,292.7351,292.86844,361.0,362.0,428.0,432.0,97.0,97.0,97.0,97.0,0.0,0.0,0.0,0.0,0.049799934,0.050164655,0.05366362,0.054353897,0.0,0.0,0.0,0.0,-6062.838,5843.755,-5226.4175,1288.694,0.0,0.0,0.0,2.0,1.0,2.5391557,0.008781353,-0.0178622,97.0,97.0,97.0,97.0,21.710573,21.710573,24.666473,24.666473,0.016160432,0.015780918,-3.9601143E-4,-4.0462217E-4,1072.4552,0.0,0.0,0.0,0.0,0.0,0.0,0.0,0.0,0.0,0.0,0.0,0.0,0.0,46.199154,1.4177372,-66.966156,0.0730616,0.023800503,-0.03291355,541303.0,119984.9,0.0060795727,0.006460905,8524.362,8996.129,6909.0273,7403.6963,0.30930614,0.0,0.0,0.0
273.35156,23836.08,3.583,0.0,0.0,293.31357,10531.0,100.0,0.0,-0.30225208,0.0,8.0,0.0,0.0,4000000.0,110.0,1.0,0.0,0.0,10.0,0.0,0.0,-300.01,-0.51084507,121.251305,0.18200698,0.2232219,0.038599417,297.92706,297.81693,293.14584,293.24734,360.0,361.0,427.0,430.0,97.0,97.0,97.0,97.0,0.0,0.0,0.0,0.0,0.04983032,0.051260687,0.05313962,0.05304254,0.0,0.0,0.0,0.0,3002.7861,-1930.0503,1858.784,430.44064,0.0,0.0,0.0,2.0,1.0,2.5401573,0.010217196,-0.01909554,97.0,97.0,97.0,97.0,21.710573,21.710573,24.666473,24.666473,0.015905218,0.015202769,-4.146366E-4,-3.9290648E-4,1073.9435,0.0,0.0,0.0,0.0,0.0,0.0,0.0,0.0,0.0,0.0,0.0,0.0,0.0,46.18032,1.454729,-67.10886,-0.022041108,0.01583053,-0.0036676074,541488.0,119984.9,0.0074682077,0.0035642833,8696.92,9567.297,6337.461,6150.8174,0.30266762,0.0,0.0,0.0
