LapDistance [m],TotalDistance [m],LapTime [s],Sector1Time [s],Sector2Time [s],Speed [km/h],EngineRevs [rpm],ThrottlePercentage [%],BrakePercentage [%],Steer [%],Clutch [%],Gear [int],DRS [0/1],CanUseDRS [0/1],KERSLevel [J],EngineTemperature [C],RacePosition [int],Sector [int],InPits [int],FuelRemaining [kg],CurrentFlag [int],CurrentLapInvalid [int],X [m],Y [m],Z [m],GForceLatitudinal [G],GForceLongitudinal [G],GForceVertical [G],WheelSpeedRearLeft [km/h],WheelSpeedRearRight [km/h],WheelSpeedFrontLeft [km/h],WheelSpeedFrontRight [km/h],BrakeTemperatureRearLeft [C],BrakeTemperatureRearRight [C],BrakeTemperatureFrontLeft [C],BrakeTemperatureFrontRight [C],TyreTemperatureRearLeft [C],TyreTemperatureRearRight [C],TyreTemperatureFrontLeft [C],TyreTemperatureFrontRight [C],TyreWearRearLeft [%],TyreWearRearRight [%],TyreWearFrontLeft [%],TyreWearFrontRight [%],SuspensionPositionRearLeft [m],SuspensionPositionRearRight [m],SuspensionPositionFrontLeft [m],SuspensionPositionFrontRight [m],SuspensionVelocityRearLeft [m/s],SuspensionVelocityRearRight [m/s],SuspensionVelocityFrontLeft [m/s],SuspensionVelocityFrontRight [m/s],SuspensionAccelerationRearLeft [m/s^2],SuspensionAccelerationRearRight [m/s^2],SuspensionAccelerationFrontLeft [m/s^2],SuspensionAccelerationFrontRight [m/s^2],MGUKHarvested [J],MGUHHarvested [J],ERSSpent [J],ERSMode [int],FuelMixMode [int],Yaw [rad],Roll [rad],Pitch [rad],TyreCarcassTemperatureRearLeft [C],TyreCarcassTemperatureRearRight [C],TyreCarcassTemperatureFrontLeft [C],TyreCarcassTemperatureFrontRight [C],TyrePressureRearLeft [PSI],TyrePressureRearRight [PSI],TyrePressureFrontLeft [PSI],TyrePressureFrontRight [PSI],WheelSlipRearLeft [%],WheelSlipRearRight [%],WheelSlipFrontLeft [%],WheelSlipFrontRight [%],Torque [Nm],Handbrake [%],RearLeftInside [C],RearLeftMiddle [C],RearLeftOutside [C],RearRightInside [C],RearRightMiddle [C],RearRightOutside [C],FrontLeftInside [C],FrontLeftMiddle [C],FrontLeftOutside [C],FrontRightInside [C],FrontRightMiddle [C],FrontRightOutside [C],WoldSpeedX [km/h],WoldSpeedY [km/h],WoldSpeedZ [km/h],LocalAngularVelocityX [rad/s],LocalAngularVelocityY [rad/s],LocalAngularVelocityZ [rad/s],IcePower [W],MgukPower [W],FrontRideHeight [m],RearRideHeight [m],LoadRearLeft [N],LoadRearRight [N],LoadFrontLeft [N],LoadFrontRight [N],Extra1 [m],Extra2 [],Extra3 [],Extra4 []
2.8523786,2.8523786,0.05,0.0,0.0,256.0049,10541.0,100.0,0.0,0.493414,0.0,7.0,1.0,0.0,4000000.0,110.0,1.0,0.0,0.0,10.0,0.0,0.0,722.5355,-11.872828,60.142193,0.029321894,0.5547707,0.47058082,261.7804,262.0553,255.8992,255.79362,310.0,310.0,413.0,409.0,89.0,89.0,89.0,89.0,0.0,0.0,0.0,0.0,0.03473983,0.03327733,0.04986295,0.05647376,0.0,0.0,0.0,0.0,3772.352,-196.6461,-4772.977,17165.25,0.0,0.0,0.0,2.0,1.0,-2.9920096,0.0114946375,0.0025324821,89.0,89.0,89.0,89.0,21.02244,21.02244,23.278507,23.278507,0.022842862,0.023785345,-5.5126165E-4,-5.514497E-4,1075.323,0.0,0.0,0.0,0.0,0.0,0.0,0.0,0.0,0.0,0.0,0.0,0.0,0.0,-10.533123,0.12129228,-70.327965,0.13508587,-0.018556971,0.22596455,541669.2,119984.9,0.009472669,0.024004973,7003.4355,6362.4863,5697.0254,8881.091,0.30865288,0.0,0.0,0.0
6.4246435,6.4246435,0.1,0.0,0.0,257.00424,10563.0,100.0,0.0,0.32424304,0.0,7.0,1.0,0.0,4000000.0,110.0,1.0,0.0,0.0,10.0,0.0,0.0,722.0085,-11.864194,56.618473,-0.035725906,0.58540237,0.23758456,262.38498,262.5305,256.9302,256.7791,309.0,308.0,412.0,408.0,89.0,89.0,89.0,89.0,0.0,0.0,0.0,0.0,0.04195106,0.037226483,0.050991785,0.050912682,0.0,0.0,0.0,0.0,-10627.648,22637.064,-784.4924,3420.9958,0.0,0.0,0.0,2.0,1.0,-2.99309,-4.5013073E-4,-8.325577E-4,89.0,89.0,89.0,89.0,21.02244,21.02244,23.278507,23.278507,0.020875728,0.020991495,-5.8578094E-4,-6.399137E-4,1078.3275,0.0,0.0,0.0,0.0,0.0,0.0,0.0,0.0,0.0,0.0,0.0,0.0,0.0,-10.546226,0.21353586,-70.60647,-0.009974042,-0.022432897,0.1533772,542051.3,119984.9,0.016533306,0.017774267,7687.847,8287.961,4816.5757,4654.333,0.31351376,0.0,0.0,0.0
10.0099745,10.0099745,0.15,0.0,0.0,257.89612,10653.0,100.0,0.0,0.08071684,0.0,7.0,1.0,0.0,4000000.0,110.0,1.0,0.0,0.0,10.0,0.0,0.0,721.48114,-11.853062,53.081627,-0.043118775,0.51922655,-0.12459538,264.31146,265.08218,257.77887,257.71967,308.0,307.0,411.0,406.0,89.0,89.0,89.0,89.0,0.0,0.0,0.0,0.0,0.036186118,0.033402536,0.051547684,0.05070018,0.0,0.0,0.0,0.0,-986.70404,763.1016,-1359.2898,949.24713,0.0,0.0,0.0,2.0,1.0,-2.9937818,-0.0026509746,0.0022507906,89.0,89.0,89.0,89.0,21.02244,21.02244,23.278507,23.278507,0.024688303,0.027936917,-5.389137E-4,-6.0395635E-4,1090.648,0.0,0.0,0.0,0.0,0.0,0.0,0.0,0.0,0.0,0.0,0.0,0.0,0.0,-10.54787,0.20402145,-70.856735,-0.046215896,-0.007619507,-0.02755966,543612.8,119984.89,0.018615317,0.028529273,6018.728,5777.827,5435.4253,5154.1826,0.3195362,0.0,0.0,0.0
13.608144,13.608144,0.2,0.0,0.0,258.8276,10693.0,100.0,0.0,0.13440795,0.0,7.0,1.0,0.0,4000000.0,110.0,1.0,0.0,0.0,10.0,0.0,0.0,720.9532,-11.845282,49.531956,-0.045302007,0.524449,-0.2839175,265.32648,266.08728,258.6845,258.66138,306.0,306.0,409.0,405.0,89.0,89.0,89.0,89.0,0.0,0.0,0.0,0.0,0.03201183,0.031150464,0.051030137,0.050404783,0.0,0.0,0.0,0.0,2032.1888,-1258.2777,1011.38043,-2495.2856,0.0,0.0,0.0,2.0,1.0,-2.99395,-0.001476238,0.0031405687,89.0,89.0,89.0,89.0,21.02244,21.02244,23.278507,23.278507,0.025057625,0.028247697,-5.688691E-4,-6.118242E-4,1096.1708,0.0,0.0,0.0,0.0,0.0,0.0,0.0,0.0,0.0,0.0,0.0,0.0,0.0,-10.566517,0.10039528,-71.115776,-0.017333094,-0.002270216,-0.038546253,544321.7,119984.9,0.020434408,0.032055046,5914.361,5673.216,5001.3164,4505.2456,0.32191277,0.0,0.0,0.0
17.21939,17.21939,0.25,0.0,0.0,259.7726,10719.0,100.0,0.0,0.12662242,0.0,7.0,1.0,0.0,4000000.0,110.0,1.0,0.0,0.0,10.0,0.0,0.0,720.4242,-11.842234,45.969242,-0.027701057,0.53072673,-0.103573866,266.01205,266.66406,259.62836,259.6099,305.0,305.0,408.0,404.0,89.0,89.0,89.0,89.0,0.0,0.0,0.0,0.0,0.031646777,0.031855464,0.050965074,0.051025227,0.0,0.0,0.0,0.0,948.1742,-14.095,27.51946,-1478.0311,0.0,0.0,0.0,2.0,1.0,-2.9940383,-5.1848918E-5,0.0033078194,89.0,89.0,89.0,89.0,21.02244,21.02244,23.278507,23.278507,0.024111249,0.026649082,-5.687148E-4,-6.017865E-4,1099.7354,0.0,0.0,0.0,0.0,0.0,0.0,0.0,0.0,0.0,0.0,0.0,0.0,0.0,-10.591708,0.037140943,-71.37748,-0.001007905,-0.0016846791,-0.004662521,544767.2,119984.89,0.017962543,0.030367889,6228.9487,6249.2266,5147.6475,5142.7886,0.31973457,0.0,0.0,0.0
20.843742,20.843742,0.3,0.0,0.0,260.70908,10746.0,100.0,0.0,0.12271833,0.0,7.0,1.0,0.0,4000000.0,110.0,1.0,0.0,0.0,10.0,0.0,0.0,719.894,-11.840144,42.393513,-0.025397588,0.5293468,0.08742587,266.69482,267.33517,260.5683,260.53955,304.0,303.0,406.0,402.0,89.0,89.0,89.0,89.0,0.0,0.0,0.0,0.0,0.033825174,0.0336383,0.051687416,0.05155132,0.0,0.0,0.0,0.0,317.2247,459.1003,-386.64038,-339.60785,0.0,0.0,0.0,2.0,1.0,-2.9941807,-2.2475146E-4,0.0027760267,89.0,89.0,89.0,89.0,21.02244,21.02244,23.278507,23.278507,0.023022348,0.025569808,-5.627277E-4,-5.979185E-4,1103.4723,0.0,0.0,0.0,0.0,0.0,0.0,0.0,0.0,0.0,0.0,0.0,0.0,0.0,-10.61623,0.057513773,-71.6368,0.017837973,-0.0033643292,1.8036878E-4,545244.9,119984.89,0.014206758,0.026082598,6699.349,6656.742,5694.068,5623.6064,0.31542778,0.0,0.0,0.0
24.481043,24.481043,0.35,0.0,0.0,261.63477,10783.0,100.0,0.0,0.16471246,0.0,7.0,1.0,0.0,4000000.0,110.0,1.0,0.0,0.0,10.0,0.0,0.0,719.36255,-11.836105,38.804893,-0.028046012,0.5207902,0.058297593,267.6008,268.2319,261.4964,261.46826,303.0,302.0,405.0,401.0,89.0,89.0,89.0,89.0,0.0,0.0,0.0,0.0,0.035272192,0.035080068,0.05167375,0.05154289,0.0,0.0,0.0,0.0,-1187.9368,-1196.1041,-92.697136,-113.51107,0.0,0.0,0.0,2.0,1.0,-2.9943335,-2.0978018E-4,0.0024296045,89.0,89.0,89.0,89.0,21.02244,21.02244,23.278507,23.278507,0.022776408,0.025264295,-5.625493E-4,-5.918452E-4,1108.5565,0.0,0.0,0.0,0.0,0.0,0.0,0.0,0.0,0.0,0.0,0.0,0.0,0.0,-10.641555,0.096887626,-71.89295,-0.005258169,-0.0034893309,4.2685273E-4,545877.56,119984.9,0.012568141,0.023116205,6735.829,6700.592,5558.667,5500.9395,0.31308365,0.0,0.0,0.0
28.131115,28.131115,0.4,0.0,0.0,262.53326,10824.0,100.0,0.0,0.2180482,0.0,7.0,1.0,0.0,4000000.0,110.0,1.0,0.0,0.0,10.0,0.0,0.0,718.8299,-11.828919,35.203587,-0.035762597,0.49673802,-0.06120333,268.64105,269.2689,262.40604,262.3616,301.0,301.0,404.0,399.0,89.0,89.0,89.0,89.0,0.0,0.0,0.0,0.0,0.035684034,0.035595775,0.051587764,0.051362023,0.0,0.0,0.0,0.0,-2156.214,-3218.7979,-406.55576,-494.49203,0.0,0.0,0.0,2.0,1.0,-2.9945884,-3.4678835E-4,0.0028522015,89.0,89.0,89.0,89.0,21.02244,21.02244,23.278507,23.278507,0.023083963,0.025651652,-5.52707E-4,-5.792391E-4,1114.2544,0.0,0.0,0.0,0.0,0.0,0.0,0.0,0.0,0.0,0.0,0.0,0.0,0.0,-10.661786,0.14856513,-72.142166,-0.025422173,-0.0064001665,0.0060424004,546605.0,119984.89,0.015548081,0.025186606,6496.4375,6433.0293,5298.75,5184.908,0.31579494,0.0,0.0,0.0
31.793417,31.793417,0.45,0.0,0.0,263.41586,10873.0,100.0,0.0,0.2616765,0.0,7.0,1.0,0.0,4000000.0,110.0,1.0,0.0,0.0,10.0,0.0,0.0,718.2964,-11.825384,31.59009,-0.048601,0.51353824,-0.24468403,269.8162,270.49777,263.2991,263.23108,300.0,300.0,402.0,398.0,89.0,89.0,89.0,89.0,0.0,0.0,0.0,0.0,0.03249742,0.032193176,0.050924145,0.05070881,0.0,0.0,0.0,0.0,1701.3921,1868.7487,875.2717,882.7015,0.0,0.0,0.0,2.0,1.0,-2.9950247,-3.1774185E-4,0.0045330524,89.0,89.0,89.0,89.0,21.02244,21.02244,23.278507,23.278507,0.024295012,0.027103506,-5.623281E-4,-5.92401E-4,1121.0227,0.0,0.0,0.0,0.0,0.0,0.0,0.0,0.0,0.0,0.0,0.0,0.0,0.0,-10.675867,0.006863078,-72.38806,-0.03512052,-0.010290392,0.0049496833,547446.94,119984.89,0.018054338,0.028717684,6078.168,6018.6377,5091.0156,4995.6064,0.31869316,0.0,0.0,0.0
35.468136,35.468136,0.5,0.0,0.0,264.30228,10905.0,100.0,0.0,0.3169796,0.0,7.0,1.0,0.0,4000000.0,110.0,1.0,0.0,0.0,10.0,0.0,0.0,717.76245,-11.827829,27.964148,-0.07078371,0.5042284,-0.16289091,270.61502,271.2954,264.19626,264.1058,299.0,299.0,401.0,397.0,89.0,89.0,89.0,89.0,0.0,0.0,0.0,0.0,0.031810805,0.031417996,0.05116222,0.05084577,0.0,0.0,0.0,0.0,1202.1256,812.8434,274.52405,247.38011,0.0,0.0,0.0,2.0,1.0,-2.9956517,-4.5691608E-4,0.0059432983,89.0,89.0,89.0,89.0,21.02244,21.02244,23.278507,23.278507,0.023849064,0.026745444,-5.5680436E-4,-5.851345E-4,1125.4744,0.0,0.0,0.0,0.0,0.0,0.0,0.0,0.0,0.0,0.0,0.0,0.0,0.0,-10.680346,-0.09223211,-72.63623,-0.021308225,-0.014171614,0.006238218,548008.06,119984.9,0.01946008,0.03054315,6234.8667,6120.135,5305.2803,5154.62,0.32018757,0.0,0.0,0.0
39.155056,39.155056,0.55,0.0,0.0,265.16586,10942.0,100.0,0.0,0.28975263,0.0,7.0,1.0,0.0,4000000.0,110.0,1.0,0.0,0.0,10.0,0.0,0.0,717.2285,-11.834316,24.32591,-0.080089435,0.48473188,-0.28551492,271.57126,272.19678,265.06082,264.96515,298.0,297.0,399.0,395.0,89.0,89.0,89.0,89.0,0.0,0.0,0.0,0.0,0.031742025,0.031339806,0.05107368,0.050700456,0.0,0.0,0.0,0.0,-1533.66,-1147.0868,-1435.6522,-1423.7433,0.0,0.0,0.0,2.0,1.0,-2.9963899,-5.36529E-4,0.006643176,89.0,89.0,89.0,89.0,21.02244,21.02244,23.278507,23.278507,0.02406572,0.026805999,-5.5435253E-4,-5.90245E-4,1130.6355,0.0,0.0,0.0,0.0,0.0,0.0,0.0,0.0,0.0,0.0,0.0,0.0,0.0,-10.676799,-0.17981784,-72.87904,-0.01781575,-0.01471474,0.0054968614,548659.5,119984.9,0.020078097,0.031247504,6029.422,5975.4023,4916.5327,4743.9785,0.32100677,0.0,0.0,0.0
42.8541,42.8541,0.6,0.0,0.0,266.03793,10964.0,100.0,0.0,0.25829816,0.0,7.0,1.0,0.0,4000000.0,110.0,1.0,0.0,0.0,10.0,0.0,0.0,716.6946,-11.844768,20.675463,-0.092265524,0.49237055,0.0552084,272.09268,272.76944,265.92603,265.8434,297.0,296.0,398.0,394.0,89.0,89.0,89.0,89.0,0.0,0.0,0.0,0.0,0.033197086,0.032762032,0.051893603,0.0514562,0.0,0.0,0.0,0.0,2222.3708,1601.2115,-121.3029,-202.72131,0.0,0.0,0.0,2.0,1.0,-2.9970667,-6.270651E-4,0.0067762136,89.0,89.0,89.0,89.0,21.02244,21.02244,23.278507,23.278507,0.022732971,0.025544994,-5.442934E-4,-5.7712774E-4,1133.708,0.0,0.0,0.0,0.0,0.0,0.0,0.0,0.0,0.0,0.0,0.0,0.0,0.0,-10.669076,-0.20919849,-73.12491,0.016504938,-0.012604028,-8.7821344E-4,549046.56,119984.89,0.017520402,0.02944575,6723.664,6546.8457,5901.073,5695.605,0.31883335,0.0,0.0,0.0
46.56509,46.56509,0.65,0.0,0.0,266.89142,10992.0,100.0,0.0,0.16001955,0.0,7.0,1.0,0.0,4000000.0,110.0,1.0,0.0,0.0,10.0,0.0,0.0,716.1616,-11.854008,17.01284,-0.07995206,0.47983995,0.1330395,272.8034,273.4346,266.7676,266.7071,295.0,295.0,397.0,393.0,89.0,89.0,89.0,89.0,0.0,0.0,0.0,0.0,0.03569219,0.035205454,0.052211504,0.051844083,0.0,0.0,0.0,0.0,-614.52094,-479.57883,-240.46,-218.7073,0.0,0.0,0.0,2.0,1.0,-2.9976149,-5.1947293E-4,0.005607605,89.0,89.0,89.0,89.0,21.02244,21.02244,23.278507,23.278507,0.022126073,0.024672706,-5.383027E-4,-5.786885E-4,1137.6063,0.0,0.0,0.0,0.0,0.0,0.0,0.0,0.0,0.0,0.0,0.0,0.0,0.0,-10.661869,-0.1567865,-73.36567,0.02505732,-0.008535101,-0.006782257,549531.1,119984.89,0.015804393,0.026165094,6959.883,6843.618,5954.8916,5794.1494,0.3166561,0.0,0.0,0.0
50.288048,50.288048,0.7,0.0,0.0,267.75284,11012.0,100.0,0.0,0.15507664,0.0,7.0,1.0,0.0,4000000.0,110.0,1.0,0.0,0.0,10.0,0.0,0.0,715.6287,-11.860294,13.338167,-0.048205264,0.47635707,0.12043454,273.5769,273.62732,267.6269,267.58264,294.0,294.0,395.0,391.0,89.0,89.0,89.0,89.0,0.0,0.0,0.0,0.0,0.03680433,0.03651302,0.052102767,0.05187765,0.0,0.0,0.0,0.0,-767.6884,-783.5,-31.797592,32.441315,0.0,0.0,0.0,2.0,1.0,-2.997968,-3.1018083E-4,0.0047011375,89.0,89.0,89.0,89.0,21.02244,21.02244,23.278507,23.278507,0.021713942,0.022057649,-5.4417737E-4,-5.40537E-4,1139.9646,0.0,0.0,0.0,0.0,0.0,0.0,0.0,0.0,0.0,0.0,0.0,0.0,0.0,-10.667783,-0.09811769,-73.606705,0.007008668,-0.0076309526,-0.005424849,549670.2,119984.89,0.015230706,0.024251537,7014.9937,6952.3154,5829.558,5740.4834,0.31532574,0.0,0.0,0.0
54.022823,54.022823,0.749,0.0,0.0,268.57764,11048.0,100.0,0.0,0.15314971,0.0,7.0,1.0,0.0,4000000.0,110.0,1.0,0.0,0.0,10.0,0.0,0.0,715.0948,-11.864049,9.651736,-0.054606393,0.46418127,0.055855583,274.47104,274.52533,268.45767,268.40454,293.0,293.0,394.0,390.0,89.0,89.0,89.0,89.0,0.0,0.0,0.0,0.0,0.036489647,0.036224484,0.05205795,0.051846586,0.0,0.0,0.0,0.0,-244.71132,-334.3373,-4.5463405,-70.26045,0.0,0.0,0.0,2.0,1.0,-2.9983935,-3.1182994E-4,0.0045878887,89.0,89.0,89.0,89.0,21.02244,21.02244,23.278507,23.278507,0.021872113,0.022252236,-5.374191E-4,-5.381467E-4,1143.7712,0.0,0.0,0.0,0.0,0.0,0.0,0.0,0.0,0.0,0.0,0.0,0.0,0.0,-10.675141,-0.059994873,-73.83718,-0.0010234639,-0.009019047,0.002245181,549708.56,119984.89,0.015442431,0.024714643,6861.849,6779.361,5804.771,5703.7764,0.31561852,0.0,0.0,0.0
57.764565,57.764565,0.799,0.0,0.0,269.3905,11082.0,100.0,0.0,0.16033337,0.0,7.0,1.0,0.0,4000000.0,110.0,1.0,0.0,0.0,10.0,0.0,0.0,714.56085,-11.86672,5.9538574,-0.062454145,0.4575786,0.014340547,275.32776,275.386,269.27316,269.2147,292.0,291.0,393.0,389.0,89.0,89.0,89.0,89.0,0.0,0.0,0.0,0.0,0.035896674,0.03555243,0.052040562,0.051769618,0.0,0.0,0.0,0.0,-66.69313,-23.20112,-160.91911,-121.9332,0.0,0.0,0.0,2.0,1.0,-2.9988754,-3.9379665E-4,0.0046497583,89.0,89.0,89.0,89.0,21.02244,21.02244,23.278507,23.278507,0.021973738,0.022385795,-5.340154E-4,-5.357974E-4,1147.3679,0.0,0.0,0.0,0.0,0.0,0.0,0.0,0.0,0.0,0.0,0.0,0.0,0.0,-10.677887,-0.049047343,-74.064926,8.454205E-5,-0.009873094,7.620163E-4,549745.4,119984.89,0.01597178,0.025779786,6773.8555,6676.9795,5791.004,5665.933,0.31636906,0.0,0.0,0.0
61.51206,61.51206,0.849,0.0,0.0,270.193,11115.0,100.0,0.0,0.16275625,0.0,7.0,1.0,0.0,4000000.0,110.0,1.0,0.0,0.0,10.0,0.0,0.0,714.0269,-11.869311,2.2446558,-0.06908563,0.45319444,-0.008012524,276.13922,276.19913,270.07755,270.01517,291.0,290.0,391.0,387.0,89.0,89.0,89.0,89.0,0.0,0.0,0.0,0.0,0.035461444,0.03508284,0.052000728,0.051701535,0.0,0.0,0.0,0.0,239.18594,242.17659,116.193275,118.24517,0.0,0.0,0.0,2.0,1.0,-2.9993927,-4.360424E-4,0.0046408176,89.0,89.0,89.0,89.0,21.02244,21.02244,23.278507,23.278507,0.021952176,0.022382662,-5.3183606E-4,-5.348168E-4,1150.8574,0.0,0.0,0.0,0.0,0.0,0.0,0.0,0.0,0.0,0.0,0.0,0.0,0.0,-10.676488,-0.05466883,-74.29034,7.395558E-4,-0.010481478,4.4677005E-4,549780.2,119984.9,0.016167047,0.026292473,6760.5737,6653.736,5781.712,5644.0645,0.31670856,0.0,0.0,0.0
65.27066,65.27066,0.899,0.0,0.0,270.98624,11146.0,100.0,0.0,0.17878915,0.0,7.0,1.0,0.0,4000000.0,110.0,1.0,0.0,0.0,10.0,0.0,0.0,713.493,-11.872074,-1.4757627,-0.07560644,0.4472451,0.0080123525,276.90613,276.9664,270.8718,270.80698,289.0,289.0,390.0,386.0,89.0,89.0,89.0,89.0,0.0,0.0,0.0,0.0,0.035475634,0.0350625,0.05209742,0.051773604,0.0,0.0,0.0,0.0,89.77353,78.910576,40.474533,36.156174,0.0,0.0,0.0,2.0,1.0,-2.9999309,-4.748816E-4,0.004528284,89.0,89.0,89.0,89.0,21.02244,21.02244,23.278507,23.278507,0.021794284,0.022232922,-5.306177E-4,-5.3190277E-4,1154.1364,0.0,0.0,0.0,0.0,0.0,0.0,0.0,0.0,0.0,0.0,0.0,0.0,0.0,-10.671712,-0.054434855,-74.513626,0.004300339,-0.010964799,2.2816262E-4,549813.1,119984.9,0.015724473,0.025974883,6810.2246,6695.972,5861.3027,5712.3643,0.3163805,0.0,0.0,0.0
69.04021,69.04021,0.949,0.0,0.0,271.77087,11175.0,100.0,0.0,0.1798274,0.0,7.0,1.0,0.0,4000000.0,110.0,1.0,0.0,0.0,10.0,0.0,0.0,712.9595,-11.8745,-5.20729,-0.07896727,0.44263276,0.04087718,277.63742,277.69678,271.65613,271.592,288.0,288.0,389.0,384.0,89.0,89.0,89.0,89.0,0.0,0.0,0.0,0.0,0.035977848,0.035548028,0.05220762,0.051869784,0.0,0.0,0.0,0.0,239.2932,261.08624,-0.2145767,14.041364,0.0,0.0,0.0,2.0,1.0,-3.0004764,-4.950669E-4,0.004237652,89.0,89.0,89.0,89.0,21.02244,21.02244,23.278507,23.278507,0.021530777,0.021960547,-5.2922237E-4,-5.2998285E-4,1157.2053,0.0,0.0,0.0,0.0,0.0,0.0,0.0,0.0,0.0,0.0,0.0,0.0,0.0,-10.664765,-0.040890682,-74.734795,0.0053573074,-0.010856185,-4.4415158E-4,549844.5,119984.91,0.015254814,0.025137294,6938.948,6821.282,5927.1846,5773.615,0.31565475,0.0,0.0,0.0
72.82055,72.82055,0.999,0.0,0.0,272.54544,11205.0,100.0,0.0,0.15255919,0.0,7.0,1.0,0.0,4000000.0,110.0,1.0,0.0,0.0,10.0,0.0,0.0,712.42664,-11.876112,-8.949812,-0.0764415,0.43552944,0.024549788,278.4115,278.41232,272.43073,272.36816,287.0,287.0,387.0,383.0,89.0,89.0,89.0,89.0,0.0,0.0,0.0,0.0,0.036219377,0.0358058,0.052215163,0.05188814,0.0,0.0,0.0,0.0,-151.88007,-175.9797,-3.7819145,-26.366112,0.0,0.0,0.0,2.0,1.0,-3.0010076,-4.7923235E-4,0.0040949583,89.0,89.0,89.0,89.0,21.02244,21.02244,23.278507,23.278507,0.021460792,0.021668209,-5.2590366E-4,-5.2878447E-4,1160.3793,0.0,0.0,0.0,0.0,0.0,0.0,0.0,0.0,0.0,0.0,0.0,0.0,0.0,-10.658086,-0.026190093,-74.95308,3.9624888E-4,-0.01051156,-6.619486E-5,549876.44,119984.9,0.015163312,0.02483742,6922.027,6807.426,5909.91,5761.293,0.31540012,0.0,0.0,0.0
76.611595,76.611595,1.049,0.0,0.0,273.30664,11237.0,100.0,0.0,0.11164683,0.0,7.0,1.0,0.0,4000000.0,110.0,1.0,0.0,0.0,10.0,0.0,0.0,711.8938,-11.877295,-12.703137,-0.071236536,0.42925426,-1.112927E-4,279.1912,279.19812,273.18677,273.1361,286.0,286.0,386.0,382.0,89.0,89.0,89.0,89.0,0.0,0.0,0.0,0.0,0.036078166,0.03568162,0.05220195,0.0518893,0.0,0.0,0.0,0.0,-41.27918,-29.0215,6.678699,17.260012,0.0,0.0,0.0,2.0,1.0,-3.0014818,-4.5487424E-4,0.004147291,89.0,89.0,89.0,89.0,21.02244,21.02244,23.278507,23.278507,0.021490151,0.021678424,-5.2145665E-4,-5.24439E-4,1163.7642,0.0,0.0,0.0,0.0,0.0,0.0,0.0,0.0,0.0,0.0,0.0,0.0,0.0,-10.652337,-0.023352765,-75.167465,-0.0015251139,-0.008484356,-5.023146E-4,549910.0,119984.9,0.01521047,0.025056804,6871.0347,6764.435,5904.0547,5763.316,0.31551456,0.0,0.0,0.0
80.41317,80.41317,1.083,0.0,0.0,274.05853,11267.0,100.0,0.0,0.10702074,0.0,7.0,1.0,0.0,4000000.0,110.0,1.0,0.0,0.0,10.0,0.0,0.0,711.36096,-11.878523,-16.467106,-0.066427745,0.42415306,-0.0036292546,279.9368,279.94656,273.93463,273.89185,285.0,284.0,384.0,380.0,89.0,89.0,89.0,89.0,0.0,0.0,0.0,0.0,0.035970908,0.035600513,0.052219696,0.051928498,-0.8965283,-0.3341585,0.54940575,1.0362266,78.763054,86.17936,23.79119,32.85705,0.0,0.0,0.0,2.0,1.0,-3.0018706,-4.2441525E-4,0.004170656,89.0,89.0,89.0,89.0,21.02244,21.02244,23.278507,23.278507,0.021427535,0.021601196,-5.2093057E-4,-5.2169804E-4,1166.9392,0.0,0.0,0.0,0.0,0.0,0.0,0.0,0.0,0.0,0.0,0.0,0.0,0.0,-10.648278,-0.025819954,-75.378975,2.237288E-4,-0.0072359103,-7.1613555E-4,549942.06,119984.9,0.015146738,0.025127457,6878.538,6779.4624,5925.9688,5794.954,0.31553364,0.0,0.0,0.0
84.22514,84.22514,1.149,0.0,0.0,274.8015,11296.0,100.0,0.0,0.1158793,0.0,7.0,1.0,0.0,4000000.0,110.0,1.0,0.0,0.0,10.0,0.0,0.0,710.8281,-11.879955,-20.241568,-0.06188399,0.4200631,-0.010841496,280.67038,280.67966,274.67593,274.63675,284.0,283.0,383.0,379.0,89.0,89.0,89.0,89.0,0.0,0.0,0.0,0.0,0.035968665,0.03563566,0.05221856,0.05195535,0.0,0.0,0.0,0.0,223.53526,218.78777,149.68066,139.86375,0.0,0.0,0.0,2.0,1.0,-3.0022085,-3.8544103E-4,0.0041486025,89.0,89.0,89.0,89.0,21.02244,21.02244,23.278507,23.278507,0.021345513,0.021505909,-5.2122865E-4,-5.1897415E-4,1170.0096,0.0,0.0,0.0,0.0,0.0,0.0,0.0,0.0,0.0,0.0,0.0,0.0,0.0,-10.646679,-0.03202183,-75.58762,5.261692E-5,-0.0067293267,-3.360655E-4,549973.5,119984.9,0.014781944,0.024807302,6896.314,6805.7607,5930.621,5812.142,0.31513786,0.0,0.0,0.0
88.04739,88.04739,1.199,0.0,0.0,275.5366,11325.0,100.0,0.0,0.095606156,0.0,7.0,1.0,0.0,4000000.0,110.0,1.0,0.0,0.0,10.0,0.0,0.0,710.2953,-11.881555,-24.026402,-0.056019373,0.41445756,0.0053909617,281.38312,281.38864,275.41058,275.37238,282.0,282.0,382.0,378.0,89.0,89.0,89.0,89.0,0.0,0.0,0.0,0.0,0.03624037,0.035926584,0.05228947,0.052042216,0.0,0.0,0.0,0.0,-21.377218,-15.476359,-59.24999,-56.929874,0.0,0.0,0.0,2.0,1.0,-3.0025406,-3.603563E-4,0.0041234493,89.0,89.0,89.0,89.0,21.02244,21.02244,23.278507,23.278507,0.021203645,0.021347368,-5.181033E-4,-5.1849266E-4,1173.0786,0.0,0.0,0.0,0.0,0.0,0.0,0.0,0.0,0.0,0.0,0.0,0.0,0.0,-10.646956,-0.031253994,-75.793785,3.2818978E-4,-0.0064778496,-7.3031796E-4,550004.06,119984.91,0.014363475,0.024226913,6945.6426,6861.308,5978.6167,5867.2866,0.31459808,0.0,0.0,0.0
91.879776,91.879776,1.233,0.0,0.0,276.26233,11353.0,100.0,0.0,0.09982737,0.0,7.0,1.0,0.0,4000000.0,110.0,1.0,0.0,0.0,10.0,0.0,0.0,709.76245,-11.8831,-27.82147,-0.054003917,0.4091988,0.023262596,282.09128,282.0951,276.1367,276.09875,281.0,281.0,380.0,377.0,89.0,89.0,89.0,89.0,0.0,0.0,0.0,0.0,0.036492344,0.036193028,0.05234228,0.052107077,8.0488615,8.235498,3.0939279,3.2776592,312.8796,313.53677,174.3838,176.14064,0.0,0.0,0.0,2.0,1.0,-3.002866,-3.4281716E-4,0.004178524,89.0,89.0,89.0,89.0,21.02244,21.02244,23.278507,23.278507,0.021074684,0.021212826,-5.1561673E-4,-5.152694E-4,1176.0437,0.0,0.0,0.0,0.0,0.0,0.0,0.0,0.0,0.0,0.0,0.0,0.0,0.0,-10.648173,-0.02840476,-75.997185,-0.0014057824,-0.0064634215,-8.551085E-5,550034.4,119984.9,0.014348539,0.024034273,7001.9424,6921.663,6044.152,5937.7534,0.31446266,0.0,0.0,0.0
95.72212,95.72212,1.299,0.0,0.0,276.97485,11384.0,100.0,0.0,0.10372545,0.0,7.0,1.0,0.0,4000000.0,110.0,1.0,0.0,0.0,10.0,0.0,0.0,709.2296,-11.884698,-31.626606,-0.05251159,0.40153003,-0.030295204,282.84708,282.8518,276.84943,276.81256,280.0,280.0,379.0,375.0,89.0,89.0,89.0,89.0,0.0,0.0,0.0,0.0,0.03632262,0.03603445,0.052274384,0.05204907,0.0,0.0,0.0,0.0,-186.33304,-181.0759,106.45686,109.82304,0.0,0.0,0.0,2.0,1.0,-3.0031843,-3.2832794E-4,0.0043793917,89.0,89.0,89.0,89.0,21.02244,21.02244,23.278507,23.278507,0.021178408,0.021314219,-5.133994E-4,-5.115505E-4,1179.0398,0.0,0.0,0.0,0.0,0.0,0.0,0.0,0.0,0.0,0.0,0.0,0.0,0.0,-10.649985,-0.038467553,-76.19678,-0.0047644936,-0.006335617,5.6347734E-4,549934.0,119984.9,0.014810152,0.024535194,6883.9,6807.5107,5958.568,5856.835,0.3149681,0.0,0.0,0.0
99.57432,99.57432,1.349,0.0,0.0,277.67847,11412.0,100.0,0.0,0.11360722,0.0,7.0,1.0,0.0,4000000.0,110.0,1.0,0.0,0.0,10.0,0.0,0.0,708.6968,-11.887164,-35.44167,-0.053494427,0.3965597,-0.033199783,283.54288,283.54565,277.55505,277.51425,279.0,279.0,378.0,374.0,89.0,89.0,89.0,89.0,0.0,0.0,0.0,0.0,0.036128156,0.035834532,0.052287288,0.052056514,0.0,0.0,0.0,0.0,131.46846,124.50812,81.35139,75.89309,0.0,0.0,0.0,2.0,1.0,-3.0035176,-3.3707538E-4,0.004591584,89.0,89.0,89.0,89.0,21.02244,21.02244,23.278507,23.278507,0.021100035,0.021243714,-5.116348E-4,-5.0952914E-4,1180.7518,0.0,0.0,0.0,0.0,0.0,0.0,0.0,0.0,0.0,0.0,0.0,0.0,0.0,-10.651102,-0.058101203,-76.39395,-0.0030651093,-0.007024284,6.780769E-4,549381.3,119984.9,0.014922368,0.024864601,6899.576,6819.002,5982.8584,5877.4307,0.31523514,0.0,0.0,0.0
103.43619,103.43619,1.399,0.0,0.0,278.3718,11438.0,100.0,0.0,0.12522295,0.0,7.0,1.0,0.0,4000000.0,110.0,1.0,0.0,0.0,10.0,0.0,0.0,708.16394,-11.890377,-39.26651,-0.056659788,0.39100757,-0.006955259,284.19775,284.19672,278.2509,278.2042,278.0,277.0,376.0,373.0,89.0,89.0,89.0,89.0,0.0,0.0,0.0,0.0,0.036337133,0.03602336,0.052408226,0.05216281,0.0,0.0,0.0,0.0,218.54634,224.11195,6.03497,10.339922,0.0,0.0,0.0,2.0,1.0,-3.0038986,-3.585077E-4,0.004580617,89.0,89.0,89.0,89.0,21.02244,21.02244,23.278507,23.278507,0.020908749,0.021057077,-5.100055E-4,-5.088405E-4,1182.3218,0.0,0.0,0.0,0.0,0.0,0.0,0.0,0.0,0.0,0.0,0.0,0.0,0.0,-10.650364,-0.06742595,-76.5885,0.0029809454,-0.007991923,-5.949792E-5,548861.3,119984.9,0.014513862,0.024495339,6980.75,6895.5605,6070.2227,5958.004,0.31490135,0.0,0.0,0.0
107.30765,107.30765,1.449,0.0,0.0,279.05615,11463.0,100.0,0.0,0.13560843,0.0,7.0,1.0,0.0,4000000.0,110.0,1.0,0.0,0.0,10.0,0.0,0.0,707.6311,-11.893584,-43.101025,-0.061969213,0.385907,0.022769272,284.82013,284.82812,278.93707,278.88605,277.0,276.0,375.0,371.0,89.0,89.0,89.0,89.0,0.0,0.0,0.0,0.0,0.03694088,0.03659778,0.052530617,0.052263208,0.0,0.0,0.0,0.0,29.410398,29.343336,-71.14559,-70.7969,0.0,0.0,0.0,2.0,1.0,-3.0043213,-3.9195167E-4,0.004291773,89.0,89.0,89.0,89.0,21.02244,21.02244,23.278507,23.278507,0.020631943,0.020824043,-5.0811167E-4,-5.0792616E-4,1183.8279,0.0,0.0,0.0,0.0,0.0,0.0,0.0,0.0,0.0,0.0,0.0,0.0,0.0,-10.646932,-0.059752516,-76.78091,0.0063974364,-0.008679584,-2.4432427E-4,548361.94,119984.91,0.013992808,0.023543017,7091.937,6998.8994,6133.3857,6010.5034,0.31414032,0.0,0.0,0.0
111.188446,111.188446,1.499,0.0,0.0,279.7302,11490.0,100.0,0.0,0.17949218,0.0,7.0,1.0,0.0,4000000.0,110.0,1.0,0.0,0.0,10.0,0.0,0.0,707.0991,-11.896239,-46.9451,-0.07039851,0.37928644,0.02369647,285.4757,285.48373,279.61566,279.5577,276.0,275.0,374.0,370.0,89.0,89.0,89.0,89.0,0.0,0.0,0.0,0.0,0.03739145,0.037011217,0.052563485,0.052269027,0.0,0.0,0.0,0.0,-232.15862,-250.46461,-23.791191,-36.9206,0.0,0.0,0.0,2.0,1.0,-3.0047812,-4.3489368E-4,0.004127145,89.0,89.0,89.0,89.0,21.02244,21.02244,23.278507,23.278507,0.02048638,0.02070321,-5.074897E-4,-5.0285854E-4,1185.4877,0.0,0.0,0.0,0.0,0.0,0.0,0.0,0.0,0.0,0.0,0.0,0.0,0.0,-10.639959,-0.04758661,-76.970894,6.6808204E-4,-0.010032768,0.0012608031,547840.4,119984.9,0.013875495,0.0229733,7124.498,7021.59,6142.507,6006.4736,0.31377697,0.0,0.0,0.0
115.07886,115.07886,1.549,0.0,0.0,280.39148,11518.0,100.0,0.0,0.19832873,0.0,7.0,1.0,0.0,4000000.0,110.0,1.0,0.0,0.0,10.0,0.0,0.0,706.5674,-11.898566,-50.798595,-0.07831387,0.37207615,-0.0077097462,286.17093,286.1713,280.2835,280.21487,274.0,274.0,372.0,369.0,89.0,89.0,89.0,89.0,0.0,0.0,0.0,0.0,0.037306976,0.036881007,0.05254726,0.052215267,0.0,0.0,0.0,0.0,-150.59259,-152.77861,51.914146,52.316475,0.0,0.0,0.0,2.0,1.0,-3.005329,-4.890174E-4,0.0042945147,89.0,89.0,89.0,89.0,21.02244,21.02244,23.278507,23.278507,0.020530345,0.020756824,-5.03434E-4,-4.993169E-4,1187.1852,0.0,0.0,0.0,0.0,0.0,0.0,0.0,0.0,0.0,0.0,0.0,0.0,0.0,-10.628471,-0.047823843,-77.15791,-0.004952314,-0.011841706,0.0017683245,547291.1,119984.9,0.014200507,0.023381958,7063.97,6947.073,6125.6304,5972.843,0.3141718,0.0,0.0,0.0
118.97844,118.97844,1.599,0.0,0.0,281.04193,11544.0,100.0,0.0,0.1926217,0.0,7.0,1.0,0.0,4000000.0,110.0,1.0,0.0,0.0,10.0,0.0,0.0,706.0364,-11.9012375,-54.66136,-0.083783776,0.3670261,-0.032170806,286.83304,286.83398,280.93365,280.86462,273.0,273.0,371.0,367.0,89.0,89.0,89.0,89.0,0.0,0.0,0.0,0.0,0.037012167,0.036569543,0.05256177,0.052215133,0.0,0.0,0.0,0.0,33.567837,27.438982,-73.854614,-84.918724,0.0,0.0,0.0,2.0,1.0,-3.005914,-5.1160937E-4,0.004430175,89.0,89.0,89.0,89.0,21.02244,21.02244,23.278507,23.278507,0.020548526,0.020769222,-5.0149584E-4,-4.982856E-4,1188.72,0.0,0.0,0.0,0.0,0.0,0.0,0.0,0.0,0.0,0.0,0.0,0.0,0.0,-10.614111,-0.05997403,-77.34226,-6.823366E-4,-0.01185772,0.0011559951,546764.44,119984.91,0.014233129,0.023800943,7024.6406,6902.917,6122.6865,5964.0815,0.3144064,0.0,0.0,0.0
122.88701,122.88701,1.649,0.0,0.0,281.6856,11568.0,100.0,0.0,0.15593185,0.0,7.0,1.0,0.0,4000000.0,110.0,1.0,0.0,0.0,10.0,0.0,0.0,705.5061,-11.904394,-58.533314,-0.08590372,0.36298195,-0.019940104,287.42807,287.43903,281.57718,281.50784,272.0,272.0,370.0,366.0,89.0,89.0,89.0,89.0,0.0,0.0,0.0,0.0,0.037188932,0.036691714,0.052639794,0.05225355,0.0,0.0,0.0,0.0,-64.72169,-27.53288,-313.28195,-284.52872,0.0,0.0,0.0,2.0,1.0,-3.006516,-5.646937E-4,0.004308939,89.0,89.0,89.0,89.0,21.02244,21.02244,23.278507,23.278507,0.020333746,0.020589352,-4.975032E-4,-5.01088E-4,1190.1504,0.0,0.0,0.0,0.0,0.0,0.0,0.0,0.0,0.0,0.0,0.0,0.0,0.0,-10.596061,-0.06616929,-77.5252,0.0024843344,-0.011626984,-3.4156785E-4,546286.6,119984.9,0.013595172,0.023196071,7106.999,6974.88,6152.728,5975.884,0.3137455,0.0,0.0,0.0
126.80449,126.80449,1.699,0.0,0.0,282.32303,11592.0,100.0,0.0,0.13476995,0.0,7.0,1.0,0.0,4000000.0,110.0,1.0,0.0,0.0,10.0,0.0,0.0,704.9767,-11.907666,-62.414368,-0.083472185,0.3592206,0.016821073,288.01498,288.03082,282.20938,282.1513,271.0,271.0,369.0,365.0,89.0,89.0,89.0,89.0,0.0,0.0,0.0,0.0,0.037631813,0.037165105,0.052735083,0.052369513,0.0,0.0,0.0,0.0,-46.60337,-59.719387,-31.153849,-38.073948,0.0,0.0,0.0,2.0,1.0,-3.007045,-5.3454237E-4,0.00423491,89.0,89.0,89.0,89.0,21.02244,21.02244,23.278507,23.278507,0.020120714,0.020357339,-4.9608E-4,-4.990773E-4,1191.595,0.0,0.0,0.0,0.0,0.0,0.0,0.0,0.0,0.0,0.0,0.0,0.0,0.0,-10.578667,-0.0625568,-77.706276,9.7595743E-4,-0.009724834,-8.1850355E-4,545817.3,119984.91,0.01271147,0.022138143,7195.123,7070.4717,6267.72,6102.3555,0.31274414,0.0,0.0,0.0
130.73073,130.73073,1.749,0.0,0.0,282.951,11618.0,100.0,0.0,0.11711002,0.0,7.0,1.0,0.0,4000000.0,110.0,1.0,0.0,0.0,10.0,0.0,0.0,704.44824,-11.910751,-66.3044,-0.076513425,0.35363564,-0.00692052,288.651,288.66953,282.83334,282.78543,270.0,270.0,367.0,363.0,89.0,89.0,89.0,89.0,0.0,0.0,0.0,0.0,0.037767638,0.03733219,0.05271236,0.05237395,0.0,0.0,0.0,0.0,-254.0454,-237.97897,29.356771,47.595787,0.0,0.0,0.0,2.0,1.0,-3.0074873,-4.941497E-4,0.004360676,89.0,89.0,89.0,89.0,21.02244,21.02244,23.278507,23.278507,0.020101758,0.02031459,-4.9394974E-4,-4.959722E-4,1193.1592,0.0,0.0,0.0,0.0,0.0,0.0,0.0,0.0,0.0,0.0,0.0,0.0,0.0,-10.563564,-0.062831484,-77.88436,-0.005288929,-0.008034095,-2.9025378E-4,545310.7,119984.9,0.012334326,0.02169245,7164.834,7052.0464,6231.9434,6080.324,0.3123722,0.0,0.0,0.0
134.6656,134.6656,1.799,0.0,0.0,283.56625,11642.0,100.0,0.0,0.10951118,0.0,7.0,1.0,0.0,4000000.0,110.0,1.0,0.0,0.0,10.0,0.0,0.0,703.9204,-11.913263,-70.20324,-0.069450244,0.34522596,-0.017708942,289.26218,289.27982,283.44568,283.4031,269.0,268.0,366.0,362.0,89.0,89.0,89.0,89.0,0.0,0.0,0.0,0.0,0.037959132,0.037561305,0.05276479,0.052456703,0.0,0.0,0.0,0.0,-474.4425,-504.7917,-251.95328,-267.38937,0.0,0.0,0.0,2.0,1.0,-3.0078602,-4.4900092E-4,0.0043319464,89.0,89.0,89.0,89.0,21.02244,21.02244,23.278507,23.278507,0.020048806,0.020242201,-4.910602E-4,-4.9215823E-4,1194.5591,0.0,0.0,0.0,0.0,0.0,0.0,0.0,0.0,0.0,0.0,0.0,0.0,0.0,-10.55142,-0.04935368,-78.05848,-8.644194E-4,-0.0071631307,-6.6672463E-4,544825.0,119984.9,0.012898286,0.022080312,7157.7905,7054.9976,6203.455,6064.779,0.31279373,0.0,0.0,0.0
138.60829,138.60829,1.849,0.0,0.0,283.83334,11540.0,100.0,0.0,0.12713404,0.0,7.0,1.0,0.0,4000000.0,110.0,1.0,0.0,0.0,10.0,0.0,0.0,703.39325,-11.916206,-74.11005,-0.06762101,-0.23424225,0.025848592,284.12082,284.0921,283.86118,283.81796,268.0,267.0,365.0,361.0,89.0,89.0,89.0,89.0,0.0,0.0,0.0,0.0,0.037194874,0.03681313,0.05273783,0.052442044,0.0,0.0,0.0,0.0,-1346.8577,-1329.2222,-147.5617,-138.5629,0.0,0.0,0.0,2.0,1.0,-3.0082364,-4.326967E-4,0.004736781,89.0,89.0,89.0,89.0,21.02244,21.02244,23.278507,23.278507,0.0011325292,0.0011970041,-6.113521E-5,-5.8683276E-5,1188.4717,0.0,0.0,0.0,0.0,0.0,0.0,0.0,0.0,0.0,0.0,0.0,0.0,0.0,-10.5279665,-0.05777623,-78.136505,-0.028268356,-0.0075777965,0.003477887,546839.7,119984.9,0.014019164,0.023179,7167.258,7067.5425,6278.7227,6145.086,0.313838,0.0,0.0,0.0
142.54272,142.54272,1.899,0.0,0.0,282.78568,11053.0,100.0,0.0,0.088113695,0.0,8.0,1.0,0.0,4000000.0,110.0,1.0,0.0,0.0,10.0,0.0,0.0,702.8688,-11.918941,-78.0089,-0.061019145,-0.48856804,-0.02620561,285.4656,285.44464,282.75684,282.71466,267.0,266.0,363.0,360.0,89.0,89.0,89.0,89.0,0.0,0.0,0.0,0.0,0.033598904,0.033236362,0.053267404,0.052985627,0.0,0.0,0.0,0.0,465.48383,465.9132,-82.156044,-79.51406,0.0,0.0,0.0,2.0,1.0,-3.008618,-4.1244624E-4,0.0070967674,89.0,89.0,89.0,89.0,21.02244,21.02244,23.278507,23.278507,0.0071986034,0.007243242,-1.1085795E-4,-1.09702654E-4,1144.3,0.0,0.0,0.0,0.0,0.0,0.0,0.0,0.0,0.0,0.0,0.0,0.0,0.0,-10.457856,-0.057070374,-77.852295,-0.03244732,-0.007228425,0.0031905333,549713.94,119984.9,0.015332489,0.02914268,6608.2715,6511.7393,6740.0596,6613.0938,0.31748962,0.0,0.0,0.0
146.47232,146.47232,1.933,0.0,0.0,283.19287,10686.0,100.0,0.0,0.12155059,0.0,8.0,1.0,0.0,4000000.0,110.0,1.0,0.0,0.0,10.0,0.0,0.0,702.3466,-11.923494,-81.9032,-0.059505884,0.4107621,-0.33804715,289.6452,289.66287,283.05417,283.01413,265.0,265.0,362.0,358.0,89.0,89.0,89.0,89.0,0.0,0.0,0.0,0.0,0.03318381,0.032876574,0.05239526,0.052149676,5.2115316,5.8114524,-42.252167,-42.001602,-277.58182,-333.2376,-1792.6273,-1834.1077,0.0,0.0,0.0,2.0,1.0,-3.0089495,-3.6666385E-4,0.006026149,89.0,89.0,89.0,89.0,21.02244,21.02244,23.278507,23.278507,0.022959268,0.023153136,-5.348302E-4,-5.3175434E-4,1095.1772,0.0,0.0,0.0,0.0,0.0,0.0,0.0,0.0,0.0,0.0,0.0,0.0,0.0,-10.444337,-0.14859708,-77.96811,0.03941758,-0.0069078784,-0.0049308795,544184.6,119984.9,0.01727506,0.02947866,6420.9116,6333.9937,5511.4707,5400.35,0.3186779,0.0,0.0,0.0
150.41138,150.41138,1.999,0.0,0.0,283.92715,10380.0,100.0,0.0,0.10467975,0.0,8.0,1.0,0.0,4000000.0,110.0,1.0,0.0,0.0,10.0,0.0,0.0,701.82477,-11.932235,-85.807076,-0.059399813,0.4102927,0.13519719,289.86526,289.87326,283.79614,283.7516,264.0,264.0,361.0,357.0,89.0,89.0,89.0,89.0,0.0,0.0,0.0,0.0,0.037825704,0.03748471,0.05273113,0.052461952,0.0,0.0,0.0,0.0,2714.771,2764.2039,449.87344,488.89963,0.0,0.0,0.0,2.0,1.0,-3.009331,-3.9706865E-4,0.004341364,89.0,89.0,89.0,89.0,21.02244,21.02244,23.278507,23.278507,0.020848213,0.021016696,-5.214652E-4,-5.231391E-4,1045.8806,0.0,0.0,0.0,0.0,0.0,0.0,0.0,0.0,0.0,0.0,0.0,0.0,0.0,-10.441667,-0.16110308,-78.17423,0.029939136,-0.0074910843,-0.004360711,535009.8,119984.9,0.014146337,0.023037516,7577.8086,7485.8433,6450.376,6328.1113,0.31408978,0.0,0.0,0.0
154.36034,154.36034,2.049,0.0,0.0,284.58533,10247.0,100.0,0.0,0.118662484,0.0,8.0,1.0,0.0,4000000.0,110.0,1.0,0.0,0.0,10.0,0.0,0.0,701.3029,-11.937463,-89.72094,-0.06198305,0.31966648,0.21655428,289.8565,289.8562,284.4695,284.42264,263.0,263.0,360.0,356.0,89.0,89.0,89.0,89.0,0.0,0.0,0.0,0.0,0.040812444,0.04046231,0.053207215,0.05293359,0.0,0.0,0.0,0.0,-1684.588,-1694.3779,-286.52698,-291.7841,0.0,0.0,0.0,2.0,1.0,-3.0097244,-4.0267388E-4,0.0031644106,89.0,89.0,89.0,89.0,21.02244,21.02244,23.278507,23.278507,0.018512988,0.018659648,-4.8002054E-4,-4.8021908E-4,1019.8787,0.0,0.0,0.0,0.0,0.0,0.0,0.0,0.0,0.0,0.0,0.0,0.0,0.0,-10.435362,-0.053199567,-78.359665,0.013460856,-0.007957201,-0.0018150763,528480.3,119984.91,0.011652715,0.019106442,7725.2534,7631.9683,6600.3823,6475.2983,0.31109333,0.0,0.0,0.0
158.31735,158.31735,2.099,0.0,0.0,285.12912,10269.0,100.0,0.0,0.13349713,0.0,8.0,1.0,0.0,4000000.0,110.0,1.0,0.0,0.0,10.0,0.0,0.0,700.78125,-11.937561,-93.64298,-0.063950285,0.30819827,0.12648077,290.47855,290.48102,285.01312,284.96576,262.0,262.0,358.0,355.0,89.0,89.0,89.0,89.0,0.0,0.0,0.0,0.0,0.040649675,0.040298473,0.05330109,0.05302743,0.0,0.0,0.0,0.0,-386.3319,-386.0637,-396.71204,-390.9453,0.0,0.0,0.0,2.0,1.0,-3.0101266,-4.016242E-4,0.0025048256,89.0,89.0,89.0,89.0,21.02244,21.02244,23.278507,23.278507,0.018729798,0.01888602,-4.785505E-4,-4.7648864E-4,1024.166,0.0,0.0,0.0,0.0,0.0,0.0,0.0,0.0,0.0,0.0,0.0,0.0,0.0,-10.42443,0.03323478,-78.51351,0.013414087,-0.008116043,-0.0016357442,529564.94,119984.91,0.010046492,0.018286468,7544.855,7451.839,6572.607,6448.787,0.30980492,0.0,0.0,0.0
162.28188,162.28188,2.149,0.0,0.0,285.66913,10289.0,100.0,0.0,0.10405222,0.0,8.0,1.0,0.0,4000000.0,110.0,1.0,0.0,0.0,10.0,0.0,0.0,700.2605,-11.933151,-97.57271,-0.061369002,0.3019501,0.078240484,291.04843,291.05215,285.5534,285.5084,261.0,261.0,357.0,353.0,89.0,89.0,89.0,89.0,0.0,0.0,0.0,0.0,0.040766608,0.04041667,0.053175677,0.052903507,0.0,0.0,0.0,0.0,-1222.5775,-1218.6884,-425.02283,-418.3441,0.0,0.0,0.0,2.0,1.0,-3.0105202,-3.9012815E-4,0.0017079115,89.0,89.0,89.0,89.0,21.02244,21.02244,23.278507,23.278507,0.01875411,0.018902976,-4.7266213E-4,-4.756513E-4,1028.0867,0.0,0.0,0.0,0.0,0.0,0.0,0.0,0.0,0.0,0.0,0.0,0.0,0.0,-10.413666,0.11725265,-78.666176,0.004939521,-0.0074982895,-0.0011695025,530558.9,119984.91,0.0111008985,0.018458908,7512.54,7421.511,6373.3467,6250.711,0.31038857,0.0,0.0,0.0
166.2539,166.2539,2.199,0.0,0.0,286.20755,10318.0,100.0,0.0,0.10040646,0.0,8.0,1.0,0.0,4000000.0,110.0,1.0,0.0,0.0,10.0,0.0,0.0,699.73975,-11.928504,-101.510025,-0.057476506,0.31421196,-0.16779591,291.85208,291.85532,286.0915,286.05283,260.0,260.0,356.0,352.0,89.0,89.0,89.0,89.0,0.0,0.0,0.0,0.0,0.038327467,0.038007192,0.05245556,0.052209083,0.0,0.0,0.0,0.0,1271.8228,1274.6794,1506.1138,1504.974,0.0,0.0,0.0,2.0,1.0,-3.0108614,-3.557902E-4,0.0024975538,89.0,89.0,89.0,89.0,21.02244,21.02244,23.278507,23.278507,0.019714348,0.019842846,-4.780633E-4,-4.7870658E-4,1033.693,0.0,0.0,0.0,0.0,0.0,0.0,0.0,0.0,0.0,0.0,0.0,0.0,0.0,-10.40501,0.05323772,-78.81825,-0.02611201,-0.0065154973,0.003081853,531952.75,119984.9,0.011214009,0.019920185,6977.2217,6895.3564,6047.9287,5937.546,0.3109045,0.0,0.0,0.0
170.2336,170.2336,2.249,0.0,0.0,286.7578,10335.0,100.0,0.0,0.10206676,0.0,8.0,1.0,0.0,4000000.0,110.0,1.0,0.0,0.0,10.0,0.0,0.0,699.22,-11.927211,-105.45503,-0.057193957,0.3115601,-0.09932991,292.32916,292.34027,286.6416,286.60135,259.0,259.0,354.0,351.0,89.0,89.0,89.0,89.0,0.0,0.0,0.0,0.0,0.037511684,0.037184726,0.052588206,0.05233775,0.0,0.0,0.0,0.0,588.51685,576.8358,-70.48844,-80.560135,0.0,0.0,0.0,2.0,1.0,-3.011195,-3.682868E-4,0.0035864115,89.0,89.0,89.0,89.0,21.02244,21.02244,23.278507,23.278507,0.019415695,0.019578923,-4.7718876E-4,-4.7871468E-4,1037.0343,0.0,0.0,0.0,0.0,0.0,0.0,0.0,0.0,0.0,0.0,0.0,0.0,0.0,-10.396794,0.0022859382,-78.973526,-0.024385989,-0.006751243,0.003343607,532794.4,119984.914,0.0111583695,0.020020507,7136.7354,7048.997,6153.7554,6039.082,0.31036186,0.0,0.0,0.0
174.221,174.221,2.299,0.0,0.0,287.29404,10356.0,100.0,0.0,0.1036762,0.0,8.0,1.0,0.0,4000000.0,110.0,1.0,0.0,0.0,10.0,0.0,0.0,698.7003,-11.928604,-109.4077,-0.057928205,0.30617344,-0.09467364,292.915,292.9785,287.17828,287.1401,258.0,258.0,353.0,350.0,89.0,89.0,89.0,89.0,0.0,0.0,0.0,0.0,0.03708458,0.036760006,0.05258123,0.05233593,0.0,0.0,0.0,0.0,1248.6486,1253.8655,334.1764,329.13382,0.0,0.0,0.0,2.0,1.0,-3.0115266,-3.777445E-4,0.0049672127,89.0,89.0,89.0,89.0,21.02244,21.02244,23.278507,23.278507,0.019515892,0.01985434,-4.7089657E-4,-4.7318722E-4,1041.2196,0.0,0.0,0.0,0.0,0.0,0.0,0.0,0.0,0.0,0.0,0.0,0.0,0.0,-10.388206,-0.055118404,-79.12486,-0.029415965,-0.0063809035,0.0044177207,533859.9,119984.9,0.012798332,0.022172742,7125.6616,7039.8916,6194.2007,6083.0615,0.31168556,0.0,0.0,0.0
178.21573,178.21573,2.349,0.0,0.0,287.81464,10380.0,100.0,0.0,0.0672949,0.0,8.0,1.0,0.0,4000000.0,110.0,1.0,0.0,0.0,10.0,0.0,0.0,698.1809,-11.933739,-113.36779,-0.04974047,0.2968266,-0.20561044,293.59372,293.6586,287.6933,287.6625,257.0,257.0,352.0,348.0,89.0,89.0,89.0,89.0,0.0,0.0,0.0,0.0,0.03583902,0.035530604,0.052477065,0.052247524,0.0,0.0,0.0,0.0,259.04776,291.14032,368.65616,410.63272,0.0,0.0,0.0,2.0,1.0,-3.0118198,-3.5978502E-4,0.006319523,89.0,89.0,89.0,89.0,21.02244,21.02244,23.278507,23.278507,0.020102339,0.020420115,-4.6734442E-4,-4.72095E-4,1045.9408,0.0,0.0,0.0,0.0,0.0,0.0,0.0,0.0,0.0,0.0,0.0,0.0,0.0,-10.381171,-0.15118636,-79.271515,-0.016629338,-0.005009701,9.001931E-4,535040.6,119984.9,0.0148199005,0.02517123,6726.017,6650.256,6122.1265,6020.7866,0.3145275,0.0,0.0,0.0
182.21764,182.21764,2.399,0.0,0.0,288.33426,10396.0,100.0,0.0,0.024710607,0.0,8.0,1.0,0.0,4000000.0,110.0,1.0,0.0,0.0,10.0,0.0,0.0,697.66235,-11.943539,-117.335236,-0.03801849,0.2919029,-0.12653598,294.0284,294.0946,288.20398,288.1894,256.0,255.0,351.0,347.0,89.0,89.0,89.0,89.0,0.0,0.0,0.0,0.0,0.035804022,0.03558591,0.05256268,0.052390806,0.0,0.0,0.0,0.0,293.00446,291.9048,163.99023,146.36812,0.0,0.0,0.0,2.0,1.0,-3.0119927,-2.8012457E-4,0.006824136,89.0,89.0,89.0,89.0,21.02244,21.02244,23.278507,23.278507,0.019795008,0.020064106,-4.664757E-4,-4.720147E-4,1049.0463,0.0,0.0,0.0,0.0,0.0,0.0,0.0,0.0,0.0,0.0,0.0,0.0,0.0,-10.379504,-0.22892193,-79.417114,-0.0028426095,-0.002213711,-0.0012768537,535803.3,119984.9,0.015469648,0.025846615,6926.1934,6869.298,6205.7314,6129.668,0.3158226,0.0,0.0,0.0
186.22673,186.22673,2.449,0.0,0.0,288.84705,10408.0,100.0,0.0,0.02328168,0.0,8.0,1.0,0.0,4000000.0,110.0,1.0,0.0,0.0,10.0,0.0,0.0,697.14355,-11.955731,-121.30988,-0.027562886,0.28914407,0.024294106,294.3758,294.44455,288.70905,288.70477,255.0,254.0,349.0,346.0,89.0,89.0,89.0,89.0,0.0,0.0,0.0,0.0,0.037230574,0.03707951,0.052939385,0.052815866,0.0,0.0,0.0,0.0,411.73242,371.4054,136.02821,129.25563,0.0,0.0,0.0,2.0,1.0,-3.01205,-2.0464534E-4,0.0064264536,89.0,89.0,89.0,89.0,21.02244,21.02244,23.278507,23.278507,0.019221537,0.019469203,-4.700364E-4,-4.7218052E-4,1051.4609,0.0,0.0,0.0,0.0,0.0,0.0,0.0,0.0,0.0,0.0,0.0,0.0,0.0,-10.382982,-0.24477443,-79.560265,0.016945664,-5.966086E-4,-0.00341021,536417.44,119984.9,0.014515259,0.024248503,7264.2324,7224.14,6502.706,6449.1826,0.315238,0.0,0.0,0.0
190.24301,190.24301,2.499,0.0,0.0,289.3624,10422.0,100.0,0.0,0.022231162,0.0,8.0,1.0,0.0,4000000.0,110.0,1.0,0.0,0.0,10.0,0.0,0.0,696.6239,-11.968155,-125.291664,-0.022951623,0.29344612,0.11592611,294.76324,294.8222,289.22537,289.212,254.0,253.0,348.0,345.0,89.0,89.0,89.0,89.0,0.0,0.0,0.0,0.0,0.038729023,0.038586225,0.053170044,0.053064823,0.0,0.0,0.0,0.0,1144.1497,1153.1754,287.96194,271.3188,0.0,0.0,0.0,2.0,1.0,-3.0121047,-1.8158648E-4,0.0055440664,89.0,89.0,89.0,89.0,21.02244,21.02244,23.278507,23.278507,0.018737031,0.018970633,-4.7652266E-4,-4.9052195E-4,1054.1947,0.0,0.0,0.0,0.0,0.0,0.0,0.0,0.0,0.0,0.0,0.0,0.0,0.0,-10.38944,-0.23210451,-79.70383,0.022443172,-0.0015818416,-0.0032755272,537089.6,119984.9,0.0120017715,0.020767966,7557.3916,7524.4897,6682.73,6636.4033,0.31217098,0.0,0.0,0.0
194.26642,194.26642,2.549,0.0,0.0,289.87277,10437.0,100.0,0.0,0.051060446,0.0,8.0,1.0,0.0,4000000.0,110.0,1.0,0.0,0.0,10.0,0.0,0.0,696.10425,-11.977418,-129.28062,-0.023596026,0.2871339,0.17167369,295.19162,295.24176,289.7406,289.71918,253.0,252.0,347.0,343.0,89.0,89.0,89.0,89.0,0.0,0.0,0.0,0.0,0.040970672,0.04084952,0.053396434,0.053289756,0.0,0.0,0.0,0.0,-1143.278,-1167.8873,-207.49567,-220.26295,0.0,0.0,0.0,2.0,1.0,-3.0122166,-1.7010531E-4,0.0043765306,89.0,89.0,89.0,89.0,21.02244,21.02244,23.278507,23.278507,0.018356688,0.018585196,-4.7590135E-4,-4.879041E-4,1057.1716,0.0,0.0,0.0,0.0,0.0,0.0,0.0,0.0,0.0,0.0,0.0,0.0,0.0,-10.3968115,-0.14406879,-79.84604,0.015972186,-0.003032135,-0.0020277472,537832.25,119984.9,0.010763558,0.017941885,7776.5703,7746.004,6682.6455,6634.8203,0.30998325,0.0,0.0,0.0
198.29666,198.29666,2.599,0.0,0.0,290.36035,10468.0,100.0,0.0,0.062054582,0.0,8.0,1.0,0.0,4000000.0,110.0,1.0,0.0,0.0,10.0,0.0,0.0,695.5846,-11.983006,-133.27647,-0.03695815,0.28469476,0.0666009,295.83167,296.4028,290.2189,290.2206,252.0,251.0,346.0,342.0,89.0,89.0,89.0,89.0,0.0,0.0,0.0,0.0,0.040980104,0.040726922,0.053270966,0.053053487,0.0,0.0,0.0,0.0,-548.35077,-340.25156,-78.42777,37.537506,0.0,0.0,0.0,2.0,1.0,-3.0122473,-3.2334068E-4,0.0041178465,89.0,89.0,89.0,89.0,21.02244,21.02244,23.278507,23.278507,0.018865105,0.020821407,-4.6858008E-4,-4.9010717E-4,1063.39,0.0,0.0,0.0,0.0,0.0,0.0,0.0,0.0,0.0,0.0,0.0,0.0,0.0,-10.393107,-0.092289306,-79.98318,-0.0020688716,0.0013569952,4.1445805E-4,539393.7,119984.9,0.0110620065,0.018134668,7570.2764,7523.855,6550.9326,6449.853,0.31018066,0.0,0.0,0.0
202.33383,202.33383,2.649,0.0,0.0,290.8593,10490.0,100.0,0.0,0.060424984,0.0,8.0,1.0,0.0,4000000.0,110.0,1.0,0.0,0.0,10.0,0.0,0.0,695.06494,-11.987269,-137.27931,-0.016727898,0.28040898,0.008901862,296.4241,297.0594,290.7134,290.7265,251.0,250.0,344.0,341.0,89.0,89.0,89.0,89.0,0.0,0.0,0.0,0.0,0.039922085,0.039916042,0.05317045,0.05293646,0.0,0.0,0.0,0.0,314.18048,-416.0777,228.9131,243.23608,0.0,0.0,0.0,2.0,1.0,-3.0121272,-3.4302234E-4,0.004400015,89.0,89.0,89.0,89.0,21.02244,21.02244,23.278507,23.278507,0.019170815,0.021251695,-4.650703E-4,-4.83027E-4,1067.7697,0.0,0.0,0.0,0.0,0.0,0.0,0.0,0.0,0.0,0.0,0.0,0.0,0.0,-10.400623,-0.08310788,-80.12198,-0.0045536007,0.0031101415,-0.0027642087,540479.3,119984.91,0.011687465,0.019774599,7368.5273,7307.8823,6548.7046,6442.472,0.3110857,0.0,0.0,0.0
206.37796,206.37796,2.699,0.0,0.0,291.35602,10509.0,100.0,0.0,0.066924416,0.0,8.0,1.0,0.0,4000000.0,110.0,1.0,0.0,0.0,10.0,0.0,0.0,694.54443,-11.99182,-141.28905,3.5809726E-4,0.280793,-0.03052292,296.96735,297.54074,291.2092,291.222,249.0,249.0,343.0,340.0,89.0,89.0,89.0,89.0,0.0,0.0,0.0,0.0,0.039136346,0.03912966,0.052938085,0.052950483,0.0,0.0,0.0,0.0,285.4273,120.87369,258.5515,111.76764,0.0,0.0,0.0,2.0,1.0,-3.011975,-9.493244E-6,0.0045348406,89.0,89.0,89.0,89.0,21.02244,21.02244,23.278507,23.278507,0.019327702,0.021247339,-4.686091E-4,-4.842856E-4,1070.9261,0.0,0.0,0.0,0.0,0.0,0.0,0.0,0.0,0.0,0.0,0.0,0.0,0.0,-10.41658,-0.09872868,-80.259026,-0.0027806459,0.0029389702,-0.002784743,541097.0,119984.9,0.012218188,0.020599412,7288.4546,7308.296,6402.1533,6419.025,0.31178474,0.0,0.0,0.0
210.42896,210.42896,2.749,0.0,0.0,291.84824,10525.0,100.0,0.0,0.063814946,0.0,8.0,1.0,0.0,4000000.0,110.0,1.0,0.0,0.0,10.0,0.0,0.0,694.0231,-11.997059,-145.30557,0.009351227,0.27863845,-0.01146086,297.44357,297.98877,291.7021,291.71198,248.0,248.0,342.0,339.0,89.0,89.0,89.0,89.0,0.0,0.0,0.0,0.0,0.038938075,0.038977295,0.053000532,0.053001825,0.0,0.0,0.0,0.0,188.224,506.9911,0.44256446,97.29712,0.0,0.0,0.0,2.0,1.0,-3.0118487,-1.7865372E-5,0.0046036243,89.0,89.0,89.0,89.0,21.02244,21.02244,23.278507,23.278507,0.019238664,0.02111874,-4.6916478E-4,-4.840884E-4,1073.1224,0.0,0.0,0.0,0.0,0.0,0.0,0.0,0.0,0.0,0.0,0.0,0.0,0.0,-10.437014,-0.10873662,-80.39423,3.6570168E-4,0.0023654231,-9.7621244E-4,541382.44,119984.91,0.012044868,0.020566523,7333.2046,7375.988,6470.1045,6473.0713,0.31177425,0.0,0.0,0.0
214.48676,214.48676,2.799,0.0,0.0,292.33453,10541.0,100.0,0.0,0.06318799,0.0,8.0,1.0,0.0,4000000.0,110.0,1.0,0.0,0.0,10.0,0.0,0.0,693.5006,-12.002516,-149.32881,0.0127364285,0.27473342,0.014321756,297.88666,298.46774,292.18912,292.19843,247.0,247.0,341.0,337.0,89.0,89.0,89.0,89.0,0.0,0.0,0.0,0.0,0.039183997,0.039318725,0.053067062,0.053103905,0.0,0.0,0.0,0.0,107.94547,464.9877,24.931128,-4.5597477,0.0,0.0,0.0,2.0,1.0,-3.0117285,3.456266E-5,0.004490614,89.0,89.0,89.0,89.0,21.02244,21.02244,23.278507,23.278507,0.019064492,0.02095798,-4.6634983E-4,-4.829966E-4,1075.3184,0.0,0.0,0.0,0.0,0.0,0.0,0.0,0.0,0.0,0.0,0.0,0.0,0.0,-10.460016,-0.10744537,-80.52746,0.0028620064,0.0024178403,3.7708774E-4,541666.9,119984.9,0.011693518,0.020166919,7408.8184,7452.2593,6513.5503,6531.5527,0.3113432,0.0,0.0,0.0
218.5513,218.5513,2.849,0.0,0.0,292.81558,10558.0,100.0,0.0,0.06170558,0.0,8.0,1.0,0.0,4000000.0,110.0,1.0,0.0,0.0,10.0,0.0,0.0,692.977,-12.007689,-153.35869,0.013032839,0.27010491,0.017990194,298.35727,298.9232,292.67035,292.6786,246.0,246.0,340.0,336.0,89.0,89.0,89.0,89.0,0.0,0.0,0.0,0.0,0.03954652,0.039624684,0.05311545,0.053149376,0.0,0.0,0.0,0.0,-44.001644,-490.6028,23.737547,-43.357906,0.0,0.0,0.0,2.0,1.0,-3.0116165,4.290723E-5,0.004324794,89.0,89.0,89.0,89.0,21.02244,21.02244,23.278507,23.278507,0.0189741,0.020894803,-4.658998E-4,-4.8251176E-4,1077.621,0.0,0.0,0.0,0.0,0.0,0.0,0.0,0.0,0.0,0.0,0.0,0.0,0.0,-10.484075,-0.09949825,-80.659096,0.0025176485,0.0021659236,-4.2411877E-4,541952.7,119984.9,0.011468315,0.019643178,7454.0894,7430.7104,6533.2236,6546.8276,0.31096363,0.0,0.0,0.0
222.62247,222.62247,2.899,0.0,0.0,293.28976,10574.0,100.0,0.0,0.06213331,0.0,8.0,1.0,0.0,4000000.0,110.0,1.0,0.0,0.0,10.0,0.0,0.0,692.45215,-12.012188,-157.39508,0.01360311,0.26389715,0.04787121,298.80078,299.41092,293.14624,293.15375,245.0,245.0,338.0,335.0,89.0,89.0,89.0,89.0,0.0,0.0,0.0,0.0,0.039878488,0.04023766,0.05323643,0.053205825,0.0,0.0,0.0,0.0,-235.0822,-935.2191,-294.3456,-476.32,0.0,0.0,0.0,2.0,1.0,-3.0115135,-6.6503766E-5,0.004188657,89.0,89.0,89.0,89.0,21.02244,21.02244,23.278507,23.278507,0.01884334,0.020752404,-4.6263318E-4,-4.791448E-4,1079.8254,0.0,0.0,0.0,0.0,0.0,0.0,0.0,0.0,0.0,0.0,0.0,0.0,0.0,-10.508809,-0.078394964,-80.78873,0.0029184804,0.0021436636,0.0041124723,542239.6,119984.91,0.0119113745,0.019693768,7501.7456,7505.103,6599.308,6570.715,0.31117153,0.0,0.0,0.0
226.70007,226.70007,2.949,0.0,0.0,293.7536,10592.0,100.0,0.0,0.06234718,0.0,8.0,1.0,0.0,4000000.0,110.0,1.0,0.0,0.0,10.0,0.0,0.0,691.9261,-12.016088,-161.43787,0.01716974,0.2613397,-0.004205752,299.32715,299.87997,293.60922,293.61832,244.0,244.0,337.0,334.0,89.0,89.0,89.0,89.0,0.0,0.0,0.0,0.0,0.03967948,0.039789077,0.05306027,0.053152967,0.0,0.0,0.0,0.0,-112.86735,88.41899,141.07076,64.65464,0.0,0.0,0.0,2.0,1.0,-3.011403,1.3118327E-4,0.004135847,89.0,89.0,89.0,89.0,21.02244,21.02244,23.278507,23.278507,0.019028679,0.020875176,-4.6210235E-4,-4.7769258E-4,1082.2758,0.0,0.0,0.0,0.0,0.0,0.0,0.0,0.0,0.0,0.0,0.0,0.0,0.0,-10.533862,-0.07888938,-80.9154,-5.5288034E-4,0.002281893,-0.0020022502,542546.5,119984.9,0.012886145,0.020549268,7394.8486,7443.3765,6477.6514,6529.3633,0.3121786,0.0,0.0,0.0
230.78401,230.78401,2.999,0.0,0.0,294.20767,10611.0,100.0,0.0,0.06035739,0.0,8.0,1.0,0.0,4000000.0,110.0,1.0,0.0,0.0,10.0,0.0,0.0,691.3988,-12.020222,-165.48692,0.016870614,0.25363326,-0.117252454,299.87537,300.4434,294.06445,294.07156,243.0,243.0,336.0,333.0,89.0,89.0,89.0,89.0,0.0,0.0,0.0,0.0,0.039147723,0.03921159,0.052919358,0.052979678,0.0,0.0,0.0,0.0,-1334.2245,-1348.7487,-792.21716,-783.2988,0.0,0.0,0.0,2.0,1.0,-3.0113037,8.221939E-5,0.0041416883,89.0,89.0,89.0,89.0,21.02244,21.02244,23.278507,23.278507,0.019324927,0.021226425,-4.6017877E-4,-4.7571037E-4,1084.9001,0.0,0.0,0.0,0.0,0.0,0.0,0.0,0.0,0.0,0.0,0.0,0.0,0.0,-10.557844,-0.0977149,-81.03945,-0.0019461254,0.0019551201,0.0010847239,542888.25,119984.89,0.013000824,0.021113424,7156.6323,7178.633,6252.6025,6277.716,0.31257248,0.0,0.0,0.0
234.87433,234.87433,3.049,0.0,0.0,294.67023,10621.0,100.0,0.0,0.06145922,0.0,8.0,1.0,0.0,4000000.0,110.0,1.0,0.0,0.0,10.0,0.0,0.0,690.8702,-12.025254,-169.54224,0.016811296,0.25984222,0.06825981,300.1552,300.7075,294.52402,294.53323,242.0,242.0,335.0,331.0,89.0,89.0,89.0,89.0,0.0,0.0,0.0,0.0,0.039827436,0.039883643,0.053270597,0.053331427,0.0,0.0,0.0,0.0,1105.0701,1127.6676,-347.37283,-338.11923,0.0,0.0,0.0,2.0,1.0,-3.0111969,8.6163505E-5,0.0038983822,89.0,89.0,89.0,89.0,21.02244,21.02244,23.278507,23.278507,0.018678866,0.02052719,-4.6415007E-4,-4.794973E-4,1086.2623,0.0,0.0,0.0,0.0,0.0,0.0,0.0,0.0,0.0,0.0,0.0,0.0,0.0,-10.58274,-0.08973225,-81.16579,0.0094548585,0.0022735158,-0.0015341463,543058.1,119984.9,0.01114754,0.019575529,7622.132,7651.1494,6688.76,6718.14,0.3109274,0.0,0.0,0.0
238.97102,238.97102,3.099,0.0,0.0,295.12448,10636.0,100.0,0.0,0.07590381,0.0,8.0,1.0,0.0,4000000.0,110.0,1.0,0.0,0.0,10.0,0.0,0.0,690.3404,-12.028713,-173.6038,0.015489288,0.25688145,0.099765986,300.56622,301.11502,294.97726,294.9857,241.0,241.0,334.0,330.0,89.0,89.0,89.0,89.0,0.0,0.0,0.0,0.0,0.040860537,0.04091055,0.053503077,0.053567693,0.0,0.0,0.0,0.0,-155.9302,-154.16003,-82.27675,-74.40444,0.0,0.0,0.0,2.0,1.0,-3.0110896,7.847238E-5,0.003290534,89.0,89.0,89.0,89.0,21.02244,21.02244,23.278507,23.278507,0.018501556,0.020335423,-4.6638754E-4,-4.7982234E-4,1088.3031,0.0,0.0,0.0,0.0,0.0,0.0,0.0,0.0,0.0,0.0,0.0,0.0,0.0,-10.606854,-0.04769474,-81.289925,0.015854584,0.0020658013,-0.0016111647,543311.06,119984.9,0.009041184,0.017415004,7700.825,7726.71,6830.64,6861.374,0.30885792,0.0,0.0,0.0
243.07405,243.07405,3.149,0.0,0.0,295.5819,10651.0,100.0,0.0,0.051204335,0.0,8.0,1.0,0.0,4000000.0,110.0,1.0,0.0,0.0,10.0,0.0,0.0,689.8094,-12.03006,-177.6716,0.018839996,0.2593534,0.069814816,300.99487,301.5394,295.43387,295.44543,240.0,240.0,332.0,329.0,89.0,89.0,89.0,89.0,0.0,0.0,0.0,0.0,0.041541692,0.04160771,0.05344326,0.053503837,0.0,0.0,0.0,0.0,-358.0748,-335.14194,-47.74331,-32.9107,0.0,0.0,0.0,2.0,1.0,-3.010971,8.673737E-5,0.0026444197,89.0,89.0,89.0,89.0,21.02244,21.02244,23.278507,23.278507,0.01836466,0.020169847,-4.6604426E-4,-4.8267347E-4,1090.3661,0.0,0.0,0.0,0.0,0.0,0.0,0.0,0.0,0.0,0.0,0.0,0.0,0.0,-10.6320305,-0.009944052,-81.414795,0.005770896,0.002755973,-0.001495189,543574.4,119984.9,0.0074544977,0.015032326,7771.5586,7803.06,6715.5073,6744.529,0.30670738,0.0,0.0,0.0
247.18341,247.18341,3.199,0.0,0.0,296.02798,10667.0,100.0,0.0,0.039009474,0.0,8.0,1.0,0.0,4000000.0,110.0,1.0,0.0,0.0,10.0,0.0,0.0,689.2771,-12.027987,-181.74559,0.022889357,0.24832278,0.016469536,301.47232,302.0174,295.88086,295.89752,239.0,239.0,331.0,328.0,89.0,89.0,89.0,89.0,0.0,0.0,0.0,0.0,0.04238707,0.042470653,0.053348172,0.053429693,0.0,0.0,0.0,0.0,-1978.5176,-1967.7085,-511.10822,-507.3129,0.0,0.0,0.0,2.0,1.0,-3.010813,1.1982371E-4,0.002267003,89.0,89.0,89.0,89.0,21.02244,21.02244,23.278507,23.278507,0.018396944,0.020179603,-4.5793544E-4,-4.75224E-4,1092.5947,0.0,0.0,0.0,0.0,0.0,0.0,0.0,0.0,0.0,0.0,0.0,0.0,0.0,-10.658146,0.0597544,-81.53632,-0.009793981,0.0036437344,4.0768407E-4,543868.4,119984.9,0.009402562,0.015492049,7710.8623,7747.382,6468.466,6507.9873,0.30786896,0.0,0.0,0.0
251.29883,251.29883,3.249,0.0,0.0,296.46405,10692.0,100.0,0.0,0.07980374,0.0,8.0,1.0,0.0,4000000.0,110.0,1.0,0.0,0.0,10.0,0.0,0.0,688.7435,-12.026704,-185.82552,0.022011124,0.25341836,-0.18587792,302.16577,302.7353,296.32083,296.33362,238.0,238.0,330.0,327.0,89.0,89.0,89.0,89.0,0.0,0.0,0.0,0.0,0.039846014,0.039936673,0.05277916,0.05287045,0.0,0.0,0.0,0.0,1152.9208,1132.1605,523.90234,503.89313,0.0,0.0,0.0,2.0,1.0,-3.010644,1.2805745E-4,0.0034532547,89.0,89.0,89.0,89.0,21.02244,21.02244,23.278507,23.278507,0.01930339,0.02118661,-4.6061637E-4,-4.7193366E-4,1096.0262,0.0,0.0,0.0,0.0,0.0,0.0,0.0,0.0,0.0,0.0,0.0,0.0,0.0,-10.684979,-0.016563281,-81.655,-0.02714637,0.0027260908,0.004000496,544300.9,119984.9,0.011448573,0.018697226,7173.7256,7210.8457,6255.2417,6297.152,0.31032658,0.0,0.0,0.0
255.4203,255.4203,3.283,0.0,0.0,296.901,10707.0,100.0,0.0,0.089412555,0.0,8.0,1.0,0.0,4000000.0,110.0,1.0,0.0,0.0,10.0,0.0,0.0,688.2087,-12.029586,-189.91138,0.01920572,0.2475942,-0.13905038,302.592,303.1566,296.76166,296.76483,237.0,237.0,329.0,325.0,89.0,89.0,89.0,89.0,0.0,0.0,0.0,0.0,0.03860237,0.038672812,0.052846685,0.05292241,-14.330595,-14.801993,2.916008,2.522841,778.56476,773.8574,190.75868,183.54353,0.0,0.0,0.0,2.0,1.0,-3.010551,1.0333329E-4,0.0046179295,89.0,89.0,89.0,89.0,21.02244,21.02244,23.278507,23.278507,0.019240266,0.021136465,-4.5857936E-4,-4.703151E-4,1098.0913,0.0,0.0,0.0,0.0,0.0,0.0,0.0,0.0,0.0,0.0,0.0,0.0,0.0,-10.710824,-0.092419006,-81.77397,-0.019087795,0.0011017474,0.0030728036,544562.44,119984.9,0.012644647,0.020805022,7204.2437,7235.5723,6385.7827,6420.255,0.31198025,0.0,0.0,0.0
259.54782,259.54782,3.349,0.0,0.0,297.32462,10724.0,100.0,0.0,0.09502304,0.0,8.0,1.0,0.0,4000000.0,110.0,1.0,0.0,0.0,10.0,0.0,0.0,687.6725,-12.035801,-194.00314,0.014208766,0.23832458,-0.20299949,303.057,303.62378,297.1872,297.1857,236.0,236.0,328.0,324.0,89.0,89.0,89.0,89.0,0.0,0.0,0.0,0.0,0.038134463,0.03818464,0.05282029,0.052878235,0.0,0.0,0.0,0.0,-596.14764,-598.3203,-829.4462,-830.1705,0.0,0.0,0.0,2.0,1.0,-3.0105176,7.5591866E-5,0.0052495003,89.0,89.0,89.0,89.0,21.02244,21.02244,23.278507,23.278507,0.019339457,0.021247454,-4.5551703E-4,-4.676069E-4,1100.4144,0.0,0.0,0.0,0.0,0.0,0.0,0.0,0.0,0.0,0.0,0.0,0.0,0.0,-10.73408,-0.16194072,-81.889496,-0.012228543,3.219699E-4,0.0023404828,544849.4,119984.9,0.013098958,0.02185526,7091.1577,7115.9463,6198.9775,6225.074,0.31277657,0.0,0.0,0.0
263.68124,263.68124,3.399,0.0,0.0,297.75253,10731.0,100.0,0.0,0.08266439,0.0,8.0,1.0,0.0,4000000.0,110.0,1.0,0.0,0.0,10.0,0.0,0.0,687.13525,-12.045008,-198.10072,0.009942014,0.24156731,0.040157568,303.27362,303.8265,297.61105,297.60968,235.0,235.0,326.0,323.0,89.0,89.0,89.0,89.0,0.0,0.0,0.0,0.0,0.03913668,0.039161425,0.053380232,0.053417027,0.0,0.0,0.0,0.0,1654.9496,1631.735,44.605118,24.300783,0.0,0.0,0.0,2.0,1.0,-3.0104961,4.5287845E-5,0.0052552223,89.0,89.0,89.0,89.0,21.02244,21.02244,23.278507,23.278507,0.018622207,0.020490639,-4.59564E-4,-4.7341108E-4,1101.399,0.0,0.0,0.0,0.0,0.0,0.0,0.0,0.0,0.0,0.0,0.0,0.0,0.0,-10.755396,-0.18495484,-82.00654,0.013831951,4.1357998E-4,-0.0010714754,544981.2,119984.9,0.011449756,0.020339467,7590.7593,7607.902,6853.1016,6869.0107,0.31120205,0.0,0.0,0.0
267.82056,267.82056,3.449,0.0,0.0,298.17065,10742.0,100.0,0.0,0.083864704,0.0,8.0,1.0,0.0,4000000.0,110.0,1.0,0.0,0.0,10.0,0.0,0.0,686.5969,-12.053226,-202.20409,0.008258808,0.23547041,0.09142253,303.5892,304.13525,298.026,298.02975,234.0,234.0,325.0,322.0,89.0,89.0,89.0,89.0,0.0,0.0,0.0,0.0,0.041122995,0.041141573,0.05359237,0.05362303,0.0,0.0,0.0,0.0,-487.6254,-483.9374,-243.63843,-241.45241,0.0,0.0,0.0,2.0,1.0,-3.0104473,3.840709E-5,0.004282713,89.0,89.0,89.0,89.0,21.02244,21.02244,23.278507,23.278507,0.018238775,0.020059165,-4.594525E-4,-4.7243698E-4,1102.92,0.0,0.0,0.0,0.0,0.0,0.0,0.0,0.0,0.0,0.0,0.0,0.0,0.0,-10.775283,-0.14368361,-82.12115,0.019049976,0.0012657561,-0.0022917092,545174.94,119984.9,0.010640583,0.0179023,7798.754,7815.355,6835.8057,6850.7886,0.30969524,0.0,0.0,0.0
271.96564,271.96564,3.499,0.0,0.0,298.58276,10757.0,100.0,0.0,0.08470599,0.0,8.0,1.0,0.0,4000000.0,110.0,1.0,0.0,0.0,10.0,0.0,0.0,686.0576,-12.059241,-206.31313,0.009694856,0.23101515,0.07501332,304.00574,304.55182,298.43918,298.44678,233.0,233.0,324.0,321.0,89.0,89.0,89.0,89.0,0.0,0.0,0.0,0.0,0.041950066,0.041972093,0.053513203,0.05354706,0.0,0.0,0.0,0.0,-826.5226,-788.0061,-4.7609205,19.593536,0.0,0.0,0.0,2.0,1.0,-3.0103664,4.5594694E-5,0.0038017035,89.0,89.0,89.0,89.0,21.02244,21.02244,23.278507,23.278507,0.018202078,0.020006007,-4.570532E-4,-4.6897848E-4,1104.9802,0.0,0.0,0.0,0.0,0.0,0.0,0.0,0.0,0.0,0.0,0.0,0.0,0.0,-10.795018,-0.10162315,-82.23408,0.0012407695,0.0018702163,-4.2599626E-4,545431.7,119984.89,0.010974927,0.017218545,7799.246,7819.12,6761.575,6779.544,0.30959702,0.0,0.0,0.0
276.1164,276.1164,3.549,0.0,0.0,298.9895,10774.0,100.0,0.0,0.08217027,0.0,8.0,1.0,0.0,4000000.0,110.0,1.0,0.0,0.0,10.0,0.0,0.0,685.51733,-12.06453,-210.42775,0.011029163,0.2312174,0.018791826,304.48303,305.03406,298.84726,298.8519,232.0,232.0,323.0,320.0,89.0,89.0,89.0,89.0,0.0,0.0,0.0,0.0,0.041197613,0.041217174,0.053445585,0.053479347,0.0,0.0,0.0,0.0,434.63852,447.379,181.45142,192.9715,0.0,0.0,0.0,2.0,1.0,-3.0102906,4.5676E-5,0.0039596558,89.0,89.0,89.0,89.0,21.02244,21.02244,23.278507,23.278507,0.018433005,0.020264247,-4.5713107E-4,-4.6970602E-4,1107.3252,0.0,0.0,0.0,0.0,0.0,0.0,0.0,0.0,0.0,0.0,0.0,0.0,0.0,-10.814789,-0.10443598,-82.345436,-2.8657162E-4,0.0013910031,-1.6206357E-4,545726.75,119984.89,0.010635061,0.017765092,7641.9917,7661.4473,6781.9033,6798.715,0.30967522,0.0,0.0,0.0
280.27283,280.27283,3.599,0.0,0.0,299.3917,10786.0,100.0,0.0,0.0914019,0.0,8.0,1.0,0.0,4000000.0,110.0,1.0,0.0,0.0,10.0,0.0,0.0,684.9761,-12.068937,-214.54794,0.01007843,0.22447462,0.06689805,304.83273,305.37772,299.24905,299.25275,231.0,231.0,322.0,319.0,89.0,89.0,89.0,89.0,0.0,0.0,0.0,0.0,0.041616198,0.041642264,0.053622276,0.053659428,0.0,0.0,0.0,0.0,-682.7697,-696.7171,-344.56995,-352.10693,0.0,0.0,0.0,2.0,1.0,-3.010224,5.0360006E-5,0.003665924,89.0,89.0,89.0,89.0,21.02244,21.02244,23.278507,23.278507,0.018218908,0.020028513,-4.5623188E-4,-4.6759477E-4,1108.9941,0.0,0.0,0.0,0.0,0.0,0.0,0.0,0.0,0.0,0.0,0.0,0.0,0.0,-10.834638,-0.07124575,-82.45554,0.007451629,0.0011813431,-8.0092845E-4,545941.2,119984.9,0.010394415,0.017611058,7765.283,7784.3477,6847.5483,6865.4053,0.30958557,0.0,0.0,0.0
