LapDistance [m],TotalDistance [m],LapTime [s],Sector1Time [s],Sector2Time [s],Speed [km/h],EngineRevs [rpm],ThrottlePercentage [%],BrakePercentage [%],Steer [%],Clutch [%],Gear [int],DRS [0/1],CanUseDRS [0/1],KERSLevel [J],EngineTemperature [C],RacePosition [int],Sector [int],InPits [int],FuelRemaining [kg],CurrentFlag [int],CurrentLapInvalid [int],X [m],Y [m],Z [m],GForceLatitudinal [G],GForceLongitudinal [G],GForceVertical [G],WheelSpeedRearLeft [km/h],WheelSpeedRearRight [km/h],WheelSpeedFrontLeft [km/h],WheelSpeedFrontRight [km/h],BrakeTemperatureRearLeft [C],BrakeTemperatureRearRight [C],BrakeTemperatureFrontLeft [C],BrakeTemperatureFrontRight [C],TyreTemperatureRearLeft [C],TyreTemperatureRearRight [C],TyreTemperatureFrontLeft [C],TyreTemperatureFrontRight [C],TyreWearRearLeft [%],TyreWearRearRight [%],TyreWearFrontLeft [%],TyreWearFrontRight [%],SuspensionPositionRearLeft [m],SuspensionPositionRearRight [m],SuspensionPositionFrontLeft [m],SuspensionPositionFrontRight [m],SuspensionVelocityRearLeft [m/s],SuspensionVelocityRearRight [m/s],SuspensionVelocityFrontLeft [m/s],SuspensionVelocityFrontRight [m/s],SuspensionAccelerationRearLeft [m/s^2],SuspensionAccelerationRearRight [m/s^2],SuspensionAccelerationFrontLeft [m/s^2],SuspensionAccelerationFrontRight [m/s^2],MGUKHarvested [J],MGUHHarvested [J],ERSSpent [J],ERSMode [int],FuelMixMode [int],Yaw [rad],Roll [rad],Pitch [rad],TyreCarcassTemperatureRearLeft [C],TyreCarcassTemperatureRearRight [C],TyreCarcassTemperatureFrontLeft [C],TyreCarcassTemperatureFrontRight [C],TyrePressureRearLeft [PSI],TyrePressureRearRight [PSI],TyrePressureFrontLeft [PSI],TyrePressureFrontRight [PSI],WheelSlipRearLeft [%],WheelSlipRearRight [%],WheelSlipFrontLeft [%],WheelSlipFrontRight [%],Torque [Nm],Handbrake [%],RearLeftInside [C],RearLeftMiddle [C],RearLeftOutside [C],RearRightInside [C],RearRightMiddle [C],RearRightOutside [C],FrontLeftInside [C],FrontLeftMiddle [C],FrontLeftOutside [C],FrontRightInside [C],FrontRightMiddle [C],FrontRightOutside [C],WoldSpeedX [km/h],WoldSpeedY [km/h],WoldSpeedZ [km/h],LocalAngularVelocityX [rad/s],LocalAngularVelocityY [rad/s],LocalAngularVelocityZ [rad/s],IcePower [W],MgukPower [W],FrontRideHeight [m],RearRideHeight [m],LoadRearLeft [N],LoadRearRight [N],LoadFrontLeft [N],LoadFrontRight [N],Extra1 [m],Extra2 [],Extra3 [],Extra4 []
2.5041707,2.5041707,0.05,0.0,0.0,259.76898,10494.0,100.0,0.0,0.5889479,0.0,7.0,1.0,0.0,4000000.0,110.0,1.0,0.0,0.0,10.0,0.0,0.0,722.255,-11.87379,60.532127,-0.08425688,0.5188695,0.1929819,265.46478,265.57016,259.69345,259.54156,291.0,291.0,393.0,388.0,89.0,89.0,89.0,89.0,0.0,0.0,0.0,0.0,0.037606746,0.037285056,0.05215312,0.05302284,0.0,0.0,0.0,0.0,1642.303,-8652.818,692.4122,629.63513,0.0,0.0,0.0,2.0,1.0,-2.9829006,0.0035016083,0.0026026964,89.0,89.0,89.0,89.0,21.02244,21.02244,23.278507,23.278507,0.021625526,0.022734404,-5.710095E-4,-5.542478E-4,1068.4982,0.0,0.0,0.0,0.0,0.0,0.0,0.0,0.0,0.0,0.0,0.0,0.0,0.0,-11.394568,0.113898546,-71.25262,0.047416233,-0.026291387,0.13479732,540641.94,119984.9,0.011829562,0.021137081,7200.398,6490.636,6008.9336,6541.021,0.30805397,0.0,0.0,0.0
6.127829,6.127829,0.1,0.0,0.0,260.7037,10526.0,100.0,0.0,0.61084884,0.0,7.0,1.0,0.0,4000000.0,110.0,1.0,0.0,0.0,10.0,0.0,0.0,721.6857,-11.8674345,56.96256,-0.12985967,0.544557,0.014386865,266.4369,266.21466,260.65723,260.44006,290.0,290.0,391.0,386.0,89.0,89.0,89.0,89.0,0.0,0.0,0.0,0.0,0.038866136,0.035872392,0.05199896,0.05156601,0.0,0.0,0.0,0.0,-2591.5498,8899.568,-398.88464,1206.2161,0.0,0.0,0.0,2.0,1.0,-2.9845264,-5.8087375E-4,0.0012184381,89.0,89.0,89.0,89.0,21.02244,21.02244,23.278507,23.278507,0.021646874,0.021803088,-5.7863124E-4,-6.0347584E-4,1073.2544,0.0,0.0,0.0,0.0,0.0,0.0,0.0,0.0,0.0,0.0,0.0,0.0,0.0,-11.374634,0.12649556,-71.5187,0.0011009467,-0.036077995,0.026483169,541397.56,119984.91,0.015517415,0.021789903,7194.3433,7263.5093,5441.713,5209.547,0.31069946,0.0,0.0,0.0
9.764101,9.764101,0.15,0.0,0.0,261.57806,10588.0,100.0,0.0,0.490099,0.0,7.0,1.0,0.0,4000000.0,110.0,1.0,0.0,0.0,10.0,0.0,0.0,721.1184,-11.860886,53.380005,-0.18293068,0.5076569,-0.042620756,267.59152,268.24637,261.52493,261.33896,289.0,288.0,390.0,385.0,89.0,89.0,89.0,89.0,0.0,0.0,0.0,0.0,0.037078988,0.035486754,0.052496508,0.051375918,0.0,0.0,0.0,0.0,21.63185,-242.94112,-520.0669,498.20682,0.0,0.0,0.0,2.0,1.0,-2.986218,-0.0016244713,0.0022679567,89.0,89.0,89.0,89.0,21.02244,21.02244,23.278507,23.278507,0.022672962,0.02586231,-5.4651784E-4,-5.592415E-4,1081.7542,0.0,0.0,0.0,0.0,0.0,0.0,0.0,0.0,0.0,0.0,0.0,0.0,0.0,-11.32317,0.1247737,-71.77276,-0.014711844,-0.03120707,-0.0039315843,542489.9,119984.9,0.01570281,0.02532759,6730.8506,6393.0483,5962.726,5457.991,0.31206608,0.0,0.0,0.0
13.413152,13.413152,0.183,0.0,0.0,262.4987,10608.0,100.0,0.0,0.41550612,0.0,7.0,1.0,0.0,4000000.0,110.0,1.0,0.0,0.0,10.0,0.0,0.0,720.5533,-11.855285,49.784264,-0.17497239,0.50871193,-0.038285725,268.39407,268.4283,262.43268,262.26703,288.0,287.0,389.0,384.0,89.0,89.0,89.0,89.0,0.0,0.0,0.0,0.0,0.035973504,0.035075583,0.05229872,0.051625427,-10.171606,1.3216584,-3.5027413,2.4640558,776.8883,481.59058,133.72151,-194.72835,0.0,0.0,0.0,2.0,1.0,-2.9876735,-0.0010247519,0.0023860931,89.0,89.0,89.0,89.0,21.02244,21.02244,23.278507,23.278507,0.022247575,0.02293674,-5.518981E-4,-5.5919803E-4,1084.4806,0.0,0.0,0.0,0.0,0.0,0.0,0.0,0.0,0.0,0.0,0.0,0.0,0.0,-11.280447,0.10202996,-72.03838,7.4642344E-4,-0.027938915,-0.0034936245,542831.8,119984.91,0.015760971,0.025779316,6809.082,6595.4717,5807.9844,5514.498,0.3122053,0.0,0.0,0.0
17.074768,17.074768,0.25,0.0,0.0,263.3856,10641.0,100.0,0.0,0.4365564,0.0,7.0,1.0,0.0,4000000.0,110.0,1.0,0.0,0.0,10.0,0.0,0.0,719.99066,-11.85032,46.175526,-0.19153434,0.4990006,0.017971199,269.23254,269.2727,263.3191,263.15604,287.0,286.0,387.0,382.0,89.0,89.0,89.0,89.0,0.0,0.0,0.0,0.0,0.036388844,0.035394344,0.052512597,0.051725026,0.0,0.0,0.0,0.0,24.206884,-71.13215,-55.575367,-60.993427,0.0,0.0,0.0,2.0,1.0,-2.9890656,-0.0011983931,0.0023041964,89.0,89.0,89.0,89.0,21.02244,21.02244,23.278507,23.278507,0.021935241,0.022689542,-5.4985785E-4,-5.4893945E-4,1089.0183,0.0,0.0,0.0,0.0,0.0,0.0,0.0,0.0,0.0,0.0,0.0,0.0,0.0,-11.227018,0.10181103,-72.29605,0.004345867,-0.02778532,0.0036252632,543412.6,119984.89,0.015208015,0.025153758,6960.885,6673.2754,5995.847,5628.5674,0.31185913,0.0,0.0,0.0
20.748701,20.748701,0.3,0.0,0.0,264.26144,10677.0,100.0,0.0,0.36447725,0.0,7.0,1.0,0.0,4000000.0,110.0,1.0,0.0,0.0,10.0,0.0,0.0,719.4307,-11.845132,42.553986,-0.18684918,0.49283502,-0.13105746,270.17645,270.1591,264.18967,264.03586,285.0,285.0,386.0,381.0,89.0,89.0,89.0,89.0,0.0,0.0,0.0,0.0,0.036412306,0.035375327,0.05234336,0.051533803,0.0,0.0,0.0,0.0,-1651.4224,-1538.1797,-1201.549,-1130.9265,0.0,0.0,0.0,2.0,1.0,-2.9904213,-0.0012114383,0.0020381212,89.0,89.0,89.0,89.0,21.02244,21.02244,23.278507,23.278507,0.02217008,0.022630025,-5.497854E-4,-5.581884E-4,1093.9698,0.0,0.0,0.0,0.0,0.0,0.0,0.0,0.0,0.0,0.0,0.0,0.0,0.0,-11.1721325,0.08907882,-72.55074,-0.0030962585,-0.025869329,-0.0014658272,544042.9,119984.9,0.014182701,0.024127582,6766.426,6492.4746,5613.0693,5248.613,0.3106184,0.0,0.0,0.0
24.43494,24.43494,0.35,0.0,0.0,265.1446,10708.0,100.0,0.0,0.2867763,0.0,7.0,1.0,0.0,4000000.0,110.0,1.0,0.0,0.0,10.0,0.0,0.0,718.87354,-11.841231,38.919678,-0.1777319,0.49878815,0.016532946,270.93365,270.94077,265.06226,264.93042,284.0,284.0,385.0,380.0,89.0,89.0,89.0,89.0,0.0,0.0,0.0,0.0,0.036747362,0.035794523,0.052600298,0.051841874,0.0,0.0,0.0,0.0,377.89636,310.33154,-41.949745,-75.6919,0.0,0.0,0.0,2.0,1.0,-2.991621,-0.001135721,0.0023236275,89.0,89.0,89.0,89.0,21.02244,21.02244,23.278507,23.278507,0.021703586,0.022135433,-5.459149E-4,-5.565636E-4,1098.2188,0.0,0.0,0.0,0.0,0.0,0.0,0.0,0.0,0.0,0.0,0.0,0.0,0.0,-11.120317,0.0781211,-72.806885,-0.0035809663,-0.022043603,-0.0011583059,544574.75,119984.9,0.011669719,0.0218968,7049.3154,6784.3433,6096.1406,5751.542,0.30804062,0.0,0.0,0.0
28.133465,28.133465,0.4,0.0,0.0,266.01804,10743.0,100.0,0.0,0.19695875,0.0,7.0,1.0,0.0,4000000.0,110.0,1.0,0.0,0.0,10.0,0.0,0.0,718.31866,-11.837551,35.272667,-0.1531692,0.49264503,-0.049067367,271.82568,271.84537,265.9198,265.82413,283.0,283.0,383.0,379.0,89.0,89.0,89.0,89.0,0.0,0.0,0.0,0.0,0.03698761,0.036152,0.052462343,0.051796548,0.0,0.0,0.0,0.0,-516.92865,-548.48486,41.078022,44.202797,0.0,0.0,0.0,2.0,1.0,-2.9925528,-9.830948E-4,0.0028921366,89.0,89.0,89.0,89.0,21.02244,21.02244,23.278507,23.278507,0.021683361,0.02206895,-5.4415833E-4,-5.5493857E-4,1103.0602,0.0,0.0,0.0,0.0,0.0,0.0,0.0,0.0,0.0,0.0,0.0,0.0,0.0,-11.078173,0.064355426,-73.05873,-0.020294791,-0.015845854,-3.4188875E-4,545193.44,119984.9,0.011262061,0.02090335,6977.1597,6754.6245,5901.539,5605.38,0.30716324,0.0,0.0,0.0
31.84406,31.84406,0.45,0.0,0.0,266.86627,10782.0,100.0,0.0,0.13842426,0.0,7.0,1.0,0.0,4000000.0,110.0,1.0,0.0,0.0,10.0,0.0,0.0,717.7656,-11.833805,31.613245,-0.123633936,0.47430813,-0.16703512,272.7921,272.82526,266.75497,266.69006,282.0,281.0,382.0,377.0,89.0,89.0,89.0,89.0,0.0,0.0,0.0,0.0,0.036843807,0.036147248,0.052235067,0.051687177,0.0,0.0,0.0,0.0,-1529.5966,-1520.9867,-272.61972,-264.54623,0.0,0.0,0.0,2.0,1.0,-2.9931939,-7.8313064E-4,0.0039327145,89.0,89.0,89.0,89.0,21.02244,21.02244,23.278507,23.278507,0.022069378,0.022392925,-5.367426E-4,-5.452488E-4,1108.4235,0.0,0.0,0.0,0.0,0.0,0.0,0.0,0.0,0.0,0.0,0.0,0.0,0.0,-11.04803,0.051200703,-73.3016,-0.033233218,-0.010667041,9.898827E-4,545862.7,119984.89,0.014500894,0.023812786,6700.0776,6527.6987,5596.547,5356.3745,0.3102913,0.0,0.0,0.0
35.5663,35.5663,0.5,0.0,0.0,267.70358,10820.0,100.0,0.0,0.1509066,0.0,7.0,1.0,0.0,4000000.0,110.0,1.0,0.0,0.0,10.0,0.0,0.0,717.21387,-11.834827,27.94192,-0.10401465,0.4804956,-0.24870153,273.7495,273.78265,267.58704,267.53082,281.0,280.0,381.0,376.0,89.0,89.0,89.0,89.0,0.0,0.0,0.0,0.0,0.034590818,0.034019776,0.051826604,0.05137145,0.0,0.0,0.0,0.0,1327.8408,1328.8734,543.72394,555.12335,0.0,0.0,0.0,2.0,1.0,-2.9936957,-6.3850684E-4,0.0054205656,89.0,89.0,89.0,89.0,21.02244,21.02244,23.278507,23.278507,0.022584125,0.022894198,-5.432473E-4,-5.45327E-4,1113.6735,0.0,0.0,0.0,0.0,0.0,0.0,0.0,0.0,0.0,0.0,0.0,0.0,0.0,-11.028385,-0.08263333,-73.53973,-0.029239634,-0.009453185,0.0018566905,546521.94,119984.9,0.017197886,0.026970683,6485.123,6339.3105,5516.1147,5314.872,0.31335735,0.0,0.0,0.0
39.300217,39.300217,0.55,0.0,0.0,268.53296,10849.0,100.0,0.0,0.1974119,0.0,7.0,1.0,0.0,4000000.0,110.0,1.0,0.0,0.0,10.0,0.0,0.0,716.6627,-11.841429,24.258736,-0.095777124,0.4698105,-0.12371741,274.48642,274.50574,268.41647,268.35626,280.0,279.0,380.0,375.0,89.0,89.0,89.0,89.0,0.0,0.0,0.0,0.0,0.034396112,0.03390339,0.052149717,0.051754512,0.0,0.0,0.0,0.0,1161.6914,1152.1025,110.39972,85.97817,0.0,0.0,0.0,2.0,1.0,-2.9941795,-5.502933E-4,0.0062823296,89.0,89.0,89.0,89.0,21.02244,21.02244,23.278507,23.278507,0.022175865,0.022452684,-5.412203E-4,-5.353873E-4,1117.689,0.0,0.0,0.0,0.0,0.0,0.0,0.0,0.0,0.0,0.0,0.0,0.0,0.0,-11.015125,-0.16695955,-73.77451,-0.0040240013,-0.010448133,-3.230892E-5,547026.4,119984.9,0.017567484,0.028075667,6670.763,6536.453,5846.1973,5668.64,0.31422234,0.0,0.0,0.0
43.045586,43.045586,0.6,0.0,0.0,269.35214,10878.0,100.0,0.0,0.17534593,0.0,7.0,1.0,0.0,4000000.0,110.0,1.0,0.0,0.0,10.0,0.0,0.0,716.1123,-11.851244,20.563917,-0.08779718,0.4682288,-0.080419675,275.2249,275.2322,269.23615,269.173,279.0,278.0,378.0,373.0,89.0,89.0,89.0,89.0,0.0,0.0,0.0,0.0,0.035198536,0.034738284,0.05229439,0.051930215,0.0,0.0,0.0,0.0,1463.3192,1460.047,1204.7006,1184.3024,0.0,0.0,0.0,2.0,1.0,-2.9947078,-5.0954893E-4,0.0061826706,89.0,89.0,89.0,89.0,21.02244,21.02244,23.278507,23.278507,0.021806085,0.022048073,-5.396371E-4,-5.380879E-4,1121.7135,0.0,0.0,0.0,0.0,0.0,0.0,0.0,0.0,0.0,0.0,0.0,0.0,0.0,-11.005422,-0.22243735,-74.005875,0.006323063,-0.010795525,-0.0013228182,547532.5,119984.89,0.015933162,0.026357764,6852.1865,6724.824,5954.982,5790.736,0.31275558,0.0,0.0,0.0
46.80247,46.80247,0.633,0.0,0.0,270.17126,10899.0,100.0,0.0,0.18348314,0.0,7.0,1.0,0.0,4000000.0,110.0,1.0,0.0,0.0,10.0,0.0,0.0,715.56195,-11.86142,16.857502,-0.08700794,0.46145523,0.18593839,275.75113,275.76126,270.05182,269.99057,277.0,277.0,377.0,372.0,89.0,89.0,89.0,89.0,0.0,0.0,0.0,0.0,0.03813939,0.03768893,0.053024635,0.052673783,71.89773,71.655655,9.8484,9.829848,766.37415,728.9975,-487.1293,-512.93225,0.0,0.0,0.0,2.0,1.0,-2.9952288,-5.0150737E-4,0.0050982237,89.0,89.0,89.0,89.0,21.02244,21.02244,23.278507,23.278507,0.020621553,0.020862844,-5.365674E-4,-5.3431676E-4,1124.6326,0.0,0.0,0.0,0.0,0.0,0.0,0.0,0.0,0.0,0.0,0.0,0.0,0.0,-10.997167,-0.16837086,-74.23727,0.030104399,-0.010474196,-0.0038260552,547899.6,119984.9,0.013257576,0.02232565,7466.2026,7340.9233,6434.4155,6274.624,0.30957127,0.0,0.0,0.0
50.57056,50.57056,0.7,0.0,0.0,270.9725,10930.0,100.0,0.0,0.12239768,0.0,7.0,1.0,0.0,4000000.0,110.0,1.0,0.0,0.0,10.0,0.0,0.0,715.01263,-11.867685,13.139653,-0.0776601,0.45070645,0.1431525,276.54535,276.55176,270.85385,270.79633,276.0,276.0,376.0,371.0,89.0,89.0,89.0,89.0,0.0,0.0,0.0,0.0,0.039873693,0.03942151,0.05298428,0.052635867,0.0,0.0,0.0,0.0,-1144.0426,-1089.2181,-128.88013,-92.16069,0.0,0.0,0.0,2.0,1.0,-2.9957466,-4.933461E-4,0.0040210485,89.0,89.0,89.0,89.0,21.02244,21.02244,23.278507,23.278507,0.020490706,0.020701166,-5.306959E-4,-5.3689437E-4,1128.9558,0.0,0.0,0.0,0.0,0.0,0.0,0.0,0.0,0.0,0.0,0.0,0.0,0.0,-10.989847,-0.09042205,-74.46347,0.009526451,-0.009530655,-0.0030012247,548445.9,119984.9,0.012896876,0.020220866,7465.254,7349.295,6257.9785,6102.0874,0.30824757,0.0,0.0,0.0
54.349743,54.349743,0.749,0.0,0.0,271.75894,10966.0,100.0,0.0,0.11792885,0.0,7.0,1.0,0.0,4000000.0,110.0,1.0,0.0,0.0,10.0,0.0,0.0,714.4633,-11.87111,9.410615,-0.072297916,0.4427565,0.039578743,277.46286,277.47598,271.6383,271.58908,275.0,275.0,374.0,369.0,89.0,89.0,89.0,89.0,0.0,0.0,0.0,0.0,0.039342057,0.038940355,0.05281819,0.052508716,0.0,0.0,0.0,0.0,-410.7266,-424.9155,30.617407,18.560879,0.0,0.0,0.0,2.0,1.0,-2.9961896,-4.43289E-4,0.0040125847,89.0,89.0,89.0,89.0,21.02244,21.02244,23.278507,23.278507,0.020915885,0.021121757,-5.2787055E-4,-5.3115987E-4,1133.982,0.0,0.0,0.0,0.0,0.0,0.0,0.0,0.0,0.0,0.0,0.0,0.0,0.0,-10.985078,-0.0562388,-74.68502,-0.0042298627,-0.00821934,-1.6926794E-4,549079.1,119984.89,0.013321375,0.021149233,7205.652,7101.6104,6163.2964,6024.207,0.30885983,0.0,0.0,0.0
58.1345,58.1345,0.799,0.0,0.0,272.53864,10999.0,100.0,0.0,0.15558116,0.0,7.0,1.0,0.0,4000000.0,110.0,1.0,0.0,0.0,10.0,0.0,0.0,713.914,-11.8739395,5.670574,-0.07156248,0.4409258,-0.0060324697,278.29062,278.30478,272.4172,272.3679,274.0,274.0,373.0,368.0,89.0,89.0,89.0,89.0,0.0,0.0,0.0,0.0,0.038447414,0.038066592,0.05274131,0.05244714,0.0,0.0,0.0,0.0,307.60916,301.53387,50.130478,46.683838,0.0,0.0,0.0,2.0,1.0,-2.9965985,-4.2566287E-4,0.004121065,89.0,89.0,89.0,89.0,21.02244,21.02244,23.278507,23.278507,0.021067332,0.02128024,-5.307501E-4,-5.2786537E-4,1138.5765,0.0,0.0,0.0,0.0,0.0,0.0,0.0,0.0,0.0,0.0,0.0,0.0,0.0,-10.981847,-0.058169317,-74.9044,-5.6709745E-4,-0.00848324,2.5148786E-4,549649.75,119984.9,0.013622017,0.022115044,7122.8193,7022.414,6135.16,6002.212,0.30943966,0.0,0.0,0.0
61.925457,61.925457,0.849,0.0,0.0,273.3101,11028.0,100.0,0.0,0.14057642,0.0,7.0,1.0,0.0,4000000.0,110.0,1.0,0.0,0.0,10.0,0.0,0.0,713.3647,-11.876738,1.9196073,-0.069089696,0.43440026,0.0066801994,279.03995,279.04837,273.1907,273.13724,273.0,272.0,372.0,367.0,89.0,89.0,89.0,89.0,0.0,0.0,0.0,0.0,0.038289316,0.03790496,0.05279352,0.05249658,0.0,0.0,0.0,0.0,63.340366,94.99042,-11.144578,16.18713,0.0,0.0,0.0,2.0,1.0,-2.99705,-4.2845533E-4,0.0040647984,89.0,89.0,89.0,89.0,21.02244,21.02244,23.278507,23.278507,0.020922737,0.021128953,-5.2659406E-4,-5.271388E-4,1141.658,0.0,0.0,0.0,0.0,0.0,0.0,0.0,0.0,0.0,0.0,0.0,0.0,0.0,-10.978576,-0.05462434,-75.12146,0.0019154261,-0.0090537155,-7.4259966E-4,549688.0,119984.89,0.013638035,0.022325575,7169.3154,7069.458,6182.3843,6048.4814,0.30955124,0.0,0.0,0.0
65.72706,65.72706,0.899,0.0,0.0,274.07104,11058.0,100.0,0.0,0.15641999,0.0,7.0,1.0,0.0,4000000.0,110.0,1.0,0.0,0.0,10.0,0.0,0.0,712.81555,-11.879408,-1.8421271,-0.071767524,0.42921013,0.017745243,279.7774,279.78534,273.95288,273.89685,272.0,271.0,370.0,366.0,89.0,89.0,89.0,89.0,0.0,0.0,0.0,0.0,0.038363196,0.03798218,0.052859034,0.052563105,0.0,0.0,0.0,0.0,178.60829,140.90984,71.561325,45.99988,0.0,0.0,0.0,2.0,1.0,-2.9975111,-4.3229604E-4,0.0039260387,89.0,89.0,89.0,89.0,21.02244,21.02244,23.278507,23.278507,0.020779638,0.020992866,-5.2502943E-4,-5.239995E-4,1144.8284,0.0,0.0,0.0,0.0,0.0,0.0,0.0,0.0,0.0,0.0,0.0,0.0,0.0,-10.974627,-0.050739072,-75.335655,0.0042053848,-0.009558534,-2.344494E-5,549719.06,119984.9,0.013258213,0.022028185,7216.169,7112.2344,6244.165,6108.579,0.30925083,0.0,0.0,0.0
69.53908,69.53908,0.949,0.0,0.0,274.82336,11086.0,100.0,0.0,0.14230098,0.0,7.0,1.0,0.0,4000000.0,110.0,1.0,0.0,0.0,10.0,0.0,0.0,712.26733,-11.881669,-5.6145077,-0.07116477,0.42449254,0.032105967,280.49075,280.4976,274.70468,274.64966,271.0,270.0,369.0,364.0,89.0,89.0,89.0,89.0,0.0,0.0,0.0,0.0,0.03871774,0.038334534,0.05293073,0.052632023,0.0,0.0,0.0,0.0,177.80363,146.39496,-29.92004,-50.774208,0.0,0.0,0.0,2.0,1.0,-2.9979773,-4.3579913E-4,0.0036557913,89.0,89.0,89.0,89.0,21.02244,21.02244,23.278507,23.278507,0.020582195,0.0207868,-5.230348E-4,-5.239197E-4,1147.7899,0.0,0.0,0.0,0.0,0.0,0.0,0.0,0.0,0.0,0.0,0.0,0.0,0.0,-10.9703,-0.038943566,-75.54747,0.005218455,-0.009316933,-6.2931725E-4,549749.1,119984.89,0.012895007,0.021319123,7293.3022,7189.206,6275.6777,6139.394,0.30866814,0.0,0.0,0.0
73.36151,73.36151,0.999,0.0,0.0,275.56522,11115.0,100.0,0.0,0.15635449,0.0,7.0,1.0,0.0,4000000.0,110.0,1.0,0.0,0.0,10.0,0.0,0.0,711.7191,-11.883276,-9.39741,-0.07349184,0.41807094,0.02227682,281.23083,281.23694,275.44876,275.39105,270.0,269.0,368.0,363.0,89.0,89.0,89.0,89.0,0.0,0.0,0.0,0.0,0.038967755,0.038570255,0.052943513,0.052634127,0.0,0.0,0.0,0.0,-102.56765,-103.84172,9.830294,9.548662,0.0,0.0,0.0,2.0,1.0,-2.998458,-4.518009E-4,0.0035260916,89.0,89.0,89.0,89.0,21.02244,21.02244,23.278507,23.278507,0.020504022,0.02071439,-5.2090763E-4,-5.2043056E-4,1150.8578,0.0,0.0,0.0,0.0,0.0,0.0,0.0,0.0,0.0,0.0,0.0,0.0,0.0,-10.9642515,-0.026967658,-75.75657,6.118615E-5,-0.0098299775,2.5155026E-4,549780.3,119984.91,0.012795794,0.021014974,7301.039,7194.4385,6273.0303,6131.8584,0.30842113,0.0,0.0,0.0
77.19423,77.19423,1.049,0.0,0.0,276.2958,11145.0,100.0,0.0,0.1561619,0.0,7.0,1.0,0.0,4000000.0,110.0,1.0,0.0,0.0,10.0,0.0,0.0,711.1709,-11.884531,-13.190687,-0.074583806,0.41206577,-0.0021865289,281.98352,281.991,276.17966,276.122,269.0,268.0,367.0,362.0,89.0,89.0,89.0,89.0,0.0,0.0,0.0,0.0,0.038857266,0.038460538,0.05294853,0.052638907,0.0,0.0,0.0,0.0,-19.647173,-33.997005,17.689165,2.9906623,0.0,0.0,0.0,2.0,1.0,-2.9989438,-4.5285345E-4,0.003586769,89.0,89.0,89.0,89.0,21.02244,21.02244,23.278507,23.278507,0.020533111,0.020747282,-5.184156E-4,-5.1798485E-4,1154.0305,0.0,0.0,0.0,0.0,0.0,0.0,0.0,0.0,0.0,0.0,0.0,0.0,0.0,-10.957408,-0.025190325,-75.96261,-0.0013364736,-0.009821079,4.5176005E-4,549812.0,119984.91,0.012764641,0.02117979,7255.7,7148.5015,6276.825,6135.8076,0.30847454,0.0,0.0,0.0
81.037,81.037,1.099,0.0,0.0,277.01797,11173.0,100.0,0.0,0.15513784,0.0,7.0,1.0,0.0,4000000.0,110.0,1.0,0.0,0.0,10.0,0.0,0.0,710.6232,-11.885902,-16.994207,-0.075617544,0.40760028,-0.0054679993,282.69867,282.70596,276.90216,276.8436,267.0,267.0,365.0,361.0,89.0,89.0,89.0,89.0,0.0,0.0,0.0,0.0,0.03878706,0.038380943,0.052987136,0.052669596,0.0,0.0,0.0,0.0,94.9636,96.84114,38.355583,39.549164,0.0,0.0,0.0,2.0,1.0,-2.9994392,-4.637568E-4,0.0036178827,89.0,89.0,89.0,89.0,21.02244,21.02244,23.278507,23.278507,0.020460587,0.0206769,-5.1680335E-4,-5.166872E-4,1156.9932,0.0,0.0,0.0,0.0,0.0,0.0,0.0,0.0,0.0,0.0,0.0,0.0,0.0,-10.949331,-0.02927081,-76.16644,4.56672E-4,-0.009955028,8.61126E-5,549842.1,119984.91,0.012522208,0.021115167,7270.8433,7161.38,6312.129,6167.616,0.30834675,0.0,0.0,0.0
84.88973,84.88973,1.133,0.0,0.0,277.73105,11200.0,100.0,0.0,0.14190105,0.0,7.0,1.0,0.0,4000000.0,110.0,1.0,0.0,0.0,10.0,0.0,0.0,710.0761,-11.887197,-20.807856,-0.07430427,0.40191525,0.0047706477,283.37997,283.38776,277.61334,277.55847,266.0,266.0,364.0,359.0,89.0,89.0,89.0,89.0,0.0,0.0,0.0,0.0,0.039071046,0.038673792,0.05304315,0.05273176,4.8615036,5.1346416,-0.7268786,-0.565052,-47.984703,-49.486767,-68.79865,-71.91001,0.0,0.0,0.0,2.0,1.0,-2.9999175,-4.5468804E-4,0.0034835339,89.0,89.0,89.0,89.0,21.02244,21.02244,23.278507,23.278507,0.02029751,0.020501103,-5.145019E-4,-5.151953E-4,1159.8497,0.0,0.0,0.0,0.0,0.0,0.0,0.0,0.0,0.0,0.0,0.0,0.0,0.0,-10.941249,-0.024323605,-76.367714,0.0018887244,-0.009291224,-4.1557354E-4,549870.9,119984.914,0.012437403,0.020747855,7332.2324,7225.4736,6327.085,6186.1943,0.3080721,0.0,0.0,0.0
88.752365,88.752365,1.199,0.0,0.0,278.4355,11228.0,100.0,0.0,0.12977725,0.0,7.0,1.0,0.0,4000000.0,110.0,1.0,0.0,0.0,10.0,0.0,0.0,709.529,-11.88861,-24.631496,-0.071626775,0.39772305,-0.0063903863,284.0845,284.09348,278.3165,278.26535,265.0,265.0,363.0,358.0,89.0,89.0,89.0,89.0,0.0,0.0,0.0,0.0,0.03908997,0.03870114,0.053032998,0.05272894,0.0,0.0,0.0,0.0,98.32977,114.66443,8.502602,20.585949,0.0,0.0,0.0,2.0,1.0,-3.0003674,-4.4306047E-4,0.0035024881,89.0,89.0,89.0,89.0,21.02244,21.02244,23.278507,23.278507,0.02025411,0.020448813,-5.127164E-4,-5.1368395E-4,1162.8121,0.0,0.0,0.0,0.0,0.0,0.0,0.0,0.0,0.0,0.0,0.0,0.0,0.0,-10.933536,-0.030561356,-76.56648,-0.0013583534,-0.008637543,-2.4984847E-4,549900.56,119984.9,0.012232108,0.020449927,7329.845,7226.572,6338.824,6201.6357,0.3077383,0.0,0.0,0.0
92.624664,92.624664,1.249,0.0,0.0,279.13086,11255.0,100.0,0.0,0.10948562,0.0,7.0,1.0,0.0,4000000.0,110.0,1.0,0.0,0.0,10.0,0.0,0.0,708.98267,-11.8902,-28.465008,-0.066848174,0.39173037,-0.01081579,284.77423,284.7837,279.00964,278.96375,264.0,264.0,361.0,357.0,89.0,89.0,89.0,89.0,0.0,0.0,0.0,0.0,0.03920658,0.038841113,0.05305759,0.05277085,0.0,0.0,0.0,0.0,-126.13087,-125.72853,-103.881935,-105.43762,0.0,0.0,0.0,2.0,1.0,-3.0007758,-4.1581926E-4,0.0035874844,89.0,89.0,89.0,89.0,21.02244,21.02244,23.278507,23.278507,0.02018725,0.020366209,-5.1002187E-4,-5.122072E-4,1165.6699,0.0,0.0,0.0,0.0,0.0,0.0,0.0,0.0,0.0,0.0,0.0,0.0,0.0,-10.927293,-0.03372673,-76.76248,-0.0026795282,-0.007697802,-3.334946E-4,549929.6,119984.9,0.012298343,0.020356467,7337.3706,7240.448,6340.4883,6211.459,0.30765057,0.0,0.0,0.0
96.50653,96.50653,1.299,0.0,0.0,279.8152,11283.0,100.0,0.0,0.07573228,0.0,7.0,1.0,0.0,4000000.0,110.0,1.0,0.0,0.0,10.0,0.0,0.0,708.43665,-11.892179,-32.308235,-0.05911638,0.38519108,-0.034480795,285.4826,285.4925,279.6912,279.65234,263.0,263.0,360.0,356.0,89.0,89.0,89.0,89.0,0.0,0.0,0.0,0.0,0.03910827,0.038767174,0.053027313,0.052762162,0.0,0.0,0.0,0.0,-203.7674,-172.01004,34.69437,63.58175,0.0,0.0,0.0,2.0,1.0,-3.0011408,-3.798864E-4,0.0038256645,89.0,89.0,89.0,89.0,21.02244,21.02244,23.278507,23.278507,0.02023124,0.020387499,-5.060595E-4,-5.105864E-4,1168.6334,0.0,0.0,0.0,0.0,0.0,0.0,0.0,0.0,0.0,0.0,0.0,0.0,0.0,-10.923178,-0.046842292,-76.95506,-0.005785213,-0.0064026387,-6.363816E-4,549959.5,119984.91,0.012493961,0.020706577,7284.3027,7198.154,6327.6807,6209.6035,0.30795097,0.0,0.0,0.0
100.39787,100.39787,1.349,0.0,0.0,280.4908,11309.0,100.0,0.0,0.09958386,0.0,7.0,1.0,0.0,4000000.0,110.0,1.0,0.0,0.0,10.0,0.0,0.0,707.8906,-11.894945,-36.16101,-0.056531016,0.3808095,-0.023873143,286.14175,286.1533,280.3643,280.32968,262.0,262.0,359.0,354.0,89.0,89.0,89.0,89.0,0.0,0.0,0.0,0.0,0.039036617,0.038735453,0.053083774,0.052848913,0.0,0.0,0.0,0.0,120.20318,85.58928,16.857683,-14.014542,0.0,0.0,0.0,2.0,1.0,-3.001435,-3.4097285E-4,0.0040062666,89.0,89.0,89.0,89.0,21.02244,21.02244,23.278507,23.278507,0.020141883,0.020291995,-5.071822E-4,-5.064132E-4,1171.3856,0.0,0.0,0.0,0.0,0.0,0.0,0.0,0.0,0.0,0.0,0.0,0.0,0.0,-10.9216,-0.061670054,-77.14483,-0.0012341166,-0.005900857,4.833078E-5,549987.3,119984.91,0.012382798,0.0208235,7315.2646,7234.5776,6387.378,6280.888,0.30806637,0.0,0.0,0.0
104.29852,104.29852,1.399,0.0,0.0,281.1581,11334.0,100.0,0.0,0.1116972,0.0,7.0,1.0,0.0,4000000.0,110.0,1.0,0.0,0.0,10.0,0.0,0.0,707.3446,-11.898239,-40.023205,-0.054532327,0.37656492,6.549174E-4,286.77142,286.77774,281.03275,280.99463,261.0,260.0,358.0,353.0,89.0,89.0,89.0,89.0,0.0,0.0,0.0,0.0,0.03934176,0.039044585,0.053185854,0.05295571,0.0,0.0,0.0,0.0,130.98566,149.21124,69.21439,80.42603,0.0,0.0,0.0,2.0,1.0,-3.001748,-3.338566E-4,0.003932357,89.0,89.0,89.0,89.0,21.02244,21.02244,23.278507,23.278507,0.019960519,0.020104298,-5.068162E-4,-5.049174E-4,1174.0315,0.0,0.0,0.0,0.0,0.0,0.0,0.0,0.0,0.0,0.0,0.0,0.0,0.0,-10.92074,-0.06742626,-77.332146,0.0039726347,-0.006538984,-7.652743E-4,550013.75,119984.91,0.011895404,0.020291895,7394.152,7316.6987,6466.123,6362.478,0.30767822,0.0,0.0,0.0
108.20841,108.20841,1.449,0.0,0.0,281.81845,11358.0,100.0,0.0,0.0995655,0.0,7.0,1.0,0.0,4000000.0,110.0,1.0,0.0,0.0,10.0,0.0,0.0,706.7986,-11.901455,-43.89472,-0.05396971,0.37298787,0.02163009,287.38144,287.3827,281.69507,281.65244,260.0,259.0,356.0,352.0,89.0,89.0,89.0,89.0,0.0,0.0,0.0,0.0,0.039938945,0.039634246,0.05326862,0.053032458,0.0,0.0,0.0,0.0,123.944824,133.35936,-55.186443,-48.60162,0.0,0.0,0.0,2.0,1.0,-3.0021052,-3.4197269E-4,0.0036320686,89.0,89.0,89.0,89.0,21.02244,21.02244,23.278507,23.278507,0.019725284,0.019865867,-5.04603E-4,-5.061542E-4,1176.5724,0.0,0.0,0.0,0.0,0.0,0.0,0.0,0.0,0.0,0.0,0.0,0.0,0.0,-10.919325,-0.060243245,-77.51759,0.005431244,-0.0071953214,-0.0010425312,550039.4,119984.9,0.011368594,0.019239217,7507.7437,7427.8984,6494.906,6387.5137,0.3067999,0.0,0.0,0.0
112.12742,112.12742,1.499,0.0,0.0,282.4696,11384.0,100.0,0.0,0.02028922,0.0,7.0,1.0,0.0,4000000.0,110.0,1.0,0.0,0.0,10.0,0.0,0.0,706.25256,-11.904039,-47.775425,-0.040294275,0.366545,0.014514983,288.0204,288.03104,282.33496,282.31744,259.0,258.0,355.0,351.0,89.0,89.0,89.0,89.0,0.0,0.0,0.0,0.0,0.040347986,0.040142804,0.053241085,0.05307275,0.0,0.0,0.0,0.0,-375.06665,-376.79666,-113.2965,-117.78919,0.0,0.0,0.0,2.0,1.0,-3.0023406,-2.3752982E-4,0.0034874678,89.0,89.0,89.0,89.0,21.02244,21.02244,23.278507,23.278507,0.019663455,0.01974809,-5.00476E-4,-5.0549937E-4,1179.0525,0.0,0.0,0.0,0.0,0.0,0.0,0.0,0.0,0.0,0.0,0.0,0.0,0.0,-10.923651,-0.046862848,-77.69965,-0.0014989683,-0.0027465785,-0.0016708837,549939.94,119984.9,0.011442406,0.018799277,7512.0,7456.713,6451.707,6380.4766,0.30652905,0.0,0.0,0.0
116.05573,116.05573,1.549,0.0,0.0,283.1087,11410.0,100.0,0.0,0.09280819,0.0,7.0,1.0,0.0,4000000.0,110.0,1.0,0.0,0.0,10.0,0.0,0.0,705.70654,-11.906435,-51.66514,-0.041213162,0.35942265,-0.019670255,288.7011,288.71173,282.97742,282.9551,258.0,257.0,354.0,349.0,89.0,89.0,89.0,89.0,0.0,0.0,0.0,0.0,0.040119223,0.039908443,0.053213328,0.05304631,0.0,0.0,0.0,0.0,-178.03157,-223.5889,63.59517,27.640158,0.0,0.0,0.0,2.0,1.0,-3.0024881,-2.4275364E-4,0.0037118196,89.0,89.0,89.0,89.0,21.02244,21.02244,23.278507,23.278507,0.019752085,0.01986183,-5.016299E-4,-4.968055E-4,1180.6044,0.0,0.0,0.0,0.0,0.0,0.0,0.0,0.0,0.0,0.0,0.0,0.0,0.0,-10.928421,-0.05149268,-77.87825,-0.0047862185,-0.003981733,0.001541049,549409.0,119984.9,0.01168167,0.01936528,7417.597,7357.22,6460.6074,6382.957,0.30702782,0.0,0.0,0.0
119.99283,119.99283,1.599,0.0,0.0,283.73907,11435.0,100.0,0.0,0.21247967,0.0,7.0,1.0,0.0,4000000.0,110.0,1.0,0.0,0.0,10.0,0.0,0.0,705.1605,-11.909338,-55.563725,-0.05755585,0.35575143,-0.014035169,289.32272,289.31805,283.6235,283.56808,257.0,256.0,353.0,348.0,89.0,89.0,89.0,89.0,0.0,0.0,0.0,0.0,0.039939757,0.039652415,0.053304892,0.053081818,0.0,0.0,0.0,0.0,236.23552,208.1528,102.90294,83.99336,0.0,0.0,0.0,2.0,1.0,-3.0028355,-3.3101614E-4,0.0038113594,89.0,89.0,89.0,89.0,21.02244,21.02244,23.278507,23.278507,0.01964105,0.019810423,-5.0447776E-4,-4.9250206E-4,1182.1578,0.0,0.0,0.0,0.0,0.0,0.0,0.0,0.0,0.0,0.0,0.0,0.0,0.0,-10.927641,-0.06262299,-78.05517,0.0016385295,-0.009933958,0.0023581816,548929.2,119984.9,0.011417129,0.019505156,7455.001,7372.532,6539.8877,6435.3477,0.30706024,0.0,0.0,0.0
123.938675,123.938675,1.649,0.0,0.0,284.36185,11457.0,100.0,0.0,0.22461762,0.0,7.0,1.0,0.0,4000000.0,110.0,1.0,0.0,0.0,10.0,0.0,0.0,704.6145,-11.912414,-59.471134,-0.07620334,0.35115328,0.021101685,289.88742,289.8695,284.2599,284.17578,256.0,255.0,351.0,347.0,89.0,89.0,89.0,89.0,0.0,0.0,0.0,0.0,0.040464047,0.040045243,0.05346329,0.053143855,0.0,0.0,0.0,0.0,179.65433,193.65547,-151.63867,-148.98328,0.0,0.0,0.0,2.0,1.0,-3.0034745,-4.7054383E-4,0.0035498142,89.0,89.0,89.0,89.0,21.02244,21.02244,23.278507,23.278507,0.019350067,0.019561276,-4.993041E-4,-4.954463E-4,1183.4897,0.0,0.0,0.0,0.0,0.0,0.0,0.0,0.0,0.0,0.0,0.0,0.0,0.0,-10.917153,-0.05770547,-78.23131,0.0067510046,-0.014502934,0.0013460882,548492.4,119984.9,0.010993016,0.018665245,7602.4404,7489.838,6616.789,6467.043,0.30634403,0.0,0.0,0.0
127.89312,127.89312,1.699,0.0,0.0,284.97455,11482.0,100.0,0.0,0.12054676,0.0,7.0,1.0,0.0,4000000.0,110.0,1.0,0.0,0.0,10.0,0.0,0.0,704.06903,-11.915134,-63.387306,-0.07923234,0.34463483,-0.035926785,290.516,290.50934,284.86795,284.7963,255.0,254.0,350.0,346.0,89.0,89.0,89.0,89.0,0.0,0.0,0.0,0.0,0.040718045,0.040275875,0.053380698,0.05303588,0.0,0.0,0.0,0.0,-849.6701,-792.1635,-348.4994,-301.14496,0.0,0.0,0.0,2.0,1.0,-3.00416,-5.003084E-4,0.003430605,89.0,89.0,89.0,89.0,21.02244,21.02244,23.278507,23.278507,0.019375749,0.01957289,-4.916781E-4,-5.0017907E-4,1185.0022,0.0,0.0,0.0,0.0,0.0,0.0,0.0,0.0,0.0,0.0,0.0,0.0,0.0,-10.901735,-0.05761038,-78.4053,-0.0033498714,-0.011840385,-2.9643788E-4,547997.56,119984.9,0.01088871,0.018119566,7527.791,7411.074,6477.79,6321.246,0.30589867,0.0,0.0,0.0
131.85605,131.85605,1.749,0.0,0.0,285.58142,11505.0,100.0,0.0,0.009977048,0.0,7.0,1.0,0.0,4000000.0,110.0,1.0,0.0,0.0,10.0,0.0,0.0,703.5241,-11.918246,-67.312126,-0.06418501,0.34110367,-0.003541229,291.09814,291.11267,285.45468,285.42374,254.0,253.0,349.0,344.0,89.0,89.0,89.0,89.0,0.0,0.0,0.0,0.0,0.04061226,0.040246293,0.05345612,0.0531696,0.0,0.0,0.0,0.0,-34.68096,-46.2681,27.05007,24.42149,0.0,0.0,0.0,2.0,1.0,-3.0045614,-4.1038424E-4,0.0036730766,89.0,89.0,89.0,89.0,21.02244,21.02244,23.278507,23.278507,0.019320639,0.019456116,-4.881067E-4,-4.9974304E-4,1186.3723,0.0,0.0,0.0,0.0,0.0,0.0,0.0,0.0,0.0,0.0,0.0,0.0,0.0,-10.890833,-0.063998334,-78.576996,-0.0029671155,-0.0047448827,-0.0019323664,547534.4,119984.9,0.010436885,0.018004438,7558.083,7464.551,6640.22,6512.9194,0.3057127,0.0,0.0,0.0
135.8274,135.8274,1.799,0.0,0.0,286.17886,11528.0,100.0,0.0,-0.0039687464,0.0,7.0,1.0,0.0,4000000.0,110.0,1.0,0.0,0.0,10.0,0.0,0.0,702.9792,-11.921539,-71.24542,-0.044655092,0.3367901,-0.019642066,291.66925,291.69257,286.0392,286.0345,252.0,252.0,348.0,343.0,89.0,89.0,89.0,89.0,0.0,0.0,0.0,0.0,0.04067734,0.04042239,0.053400565,0.05319582,0.0,0.0,0.0,0.0,35.4588,44.752632,-193.64206,-180.40535,0.0,0.0,0.0,2.0,1.0,-3.004677,-2.8693784E-4,0.0037021637,89.0,89.0,89.0,89.0,21.02244,21.02244,23.278507,23.278507,0.019226206,0.019312384,-4.8986863E-4,-4.946129E-4,1187.7677,0.0,0.0,0.0,0.0,0.0,0.0,0.0,0.0,0.0,0.0,0.0,0.0,0.0,-10.888174,-0.0694337,-78.7449,-0.0032392845,-5.426142E-4,-0.0023533904,547084.7,119984.91,0.010814096,0.017882928,7585.621,7521.685,6536.8413,6450.1357,0.30537987,0.0,0.0,0.0
139.80692,139.80692,1.849,0.0,0.0,286.7642,11553.0,100.0,0.0,-0.011412142,0.0,7.0,1.0,0.0,4000000.0,110.0,1.0,0.0,0.0,10.0,0.0,0.0,702.43427,-11.925613,-75.18698,-0.023538755,0.32879466,-0.06721897,292.31357,292.33344,286.61996,286.62842,251.0,251.0,346.0,342.0,89.0,89.0,89.0,89.0,0.0,0.0,0.0,0.0,0.040363997,0.04021502,0.0532481,0.053138703,0.0,0.0,0.0,0.0,-306.37524,-316.23242,-42.74099,-66.43831,0.0,0.0,0.0,2.0,1.0,-3.0046334,-1.5178508E-4,0.0042169094,89.0,89.0,89.0,89.0,21.02244,21.02244,23.278507,23.278507,0.019399019,0.019435136,-4.877588E-4,-4.883935E-4,1189.2538,0.0,0.0,0.0,0.0,0.0,0.0,0.0,0.0,0.0,0.0,0.0,0.0,0.0,-10.896109,-0.095280275,-78.90791,-0.013028397,0.0015033758,-3.030143E-4,546583.8,119984.9,0.01146405,0.01877688,7433.959,7405.589,6467.4233,6423.131,0.3057871,0.0,0.0,0.0
143.7944,143.7944,1.899,0.0,0.0,287.33362,11576.0,100.0,0.0,0.038346406,0.0,7.0,1.0,0.0,4000000.0,110.0,1.0,0.0,0.0,10.0,0.0,0.0,701.88934,-11.930343,-79.13658,-0.015787179,0.31706658,-0.023986781,292.87997,292.88965,287.19275,287.19287,250.0,250.0,345.0,341.0,89.0,89.0,89.0,89.0,0.0,0.0,0.0,0.0,0.04033133,0.04024257,0.053408206,0.05334479,0.0,0.0,0.0,0.0,-515.57416,-570.1705,169.66312,128.14252,0.0,0.0,0.0,2.0,1.0,-3.004586,-9.3533796E-5,0.0045125484,89.0,89.0,89.0,89.0,21.02244,21.02244,23.278507,23.278507,0.019336864,0.019371193,-4.8576976E-4,-4.8085817E-4,1190.6654,0.0,0.0,0.0,0.0,0.0,0.0,0.0,0.0,0.0,0.0,0.0,0.0,0.0,-10.909311,-0.09854705,-79.06576,-5.526935E-4,-1.6642307E-4,-1.2700172E-4,546145.3,119984.9,0.012647593,0.020266367,7440.7754,7421.5107,6613.736,6585.915,0.30837345,0.0,0.0,0.0
147.78973,147.78973,1.949,0.0,0.0,287.89157,11595.0,100.0,0.0,0.08761932,0.0,7.0,1.0,0.0,4000000.0,110.0,1.0,0.0,0.0,10.0,0.0,0.0,701.3433,-11.935546,-83.09395,-0.020215185,0.3159206,0.023592917,293.36304,293.35925,287.7589,287.73822,249.0,249.0,344.0,340.0,89.0,89.0,89.0,89.0,0.0,0.0,0.0,0.0,0.040467247,0.04035551,0.053521782,0.053440675,0.0,0.0,0.0,0.0,1098.1096,1087.7562,138.64336,128.20956,0.0,0.0,0.0,2.0,1.0,-3.0046928,-1.2320153E-4,0.0040352345,89.0,89.0,89.0,89.0,21.02244,21.02244,23.278507,23.278507,0.019045157,0.01910185,-4.8813553E-4,-4.8209043E-4,1191.8042,0.0,0.0,0.0,0.0,0.0,0.0,0.0,0.0,0.0,0.0,0.0,0.0,0.0,-10.921508,-0.103087306,-79.22053,0.015531332,-0.003775341,-0.0012049361,545771.9,119984.91,0.012747622,0.020262176,7625.8916,7598.2324,6700.814,6662.7656,0.30826855,0.0,0.0,0.0
151.79271,151.79271,1.999,0.0,0.0,288.44513,11615.0,100.0,0.0,0.057680618,0.0,7.0,1.0,0.0,4000000.0,110.0,1.0,0.0,0.0,10.0,0.0,0.0,700.7972,-11.940687,-87.05902,-0.022899052,0.3182346,0.026475845,293.8808,293.87418,288.3151,288.29007,248.0,248.0,343.0,338.0,89.0,89.0,89.0,89.0,0.0,0.0,0.0,0.0,0.040922273,0.040801648,0.05351211,0.0534182,0.0,0.0,0.0,0.0,1484.2941,1480.0427,1321.5645,1315.6637,0.0,0.0,0.0,2.0,1.0,-3.0049012,-1.39383E-4,0.003452897,89.0,89.0,89.0,89.0,21.02244,21.02244,23.278507,23.278507,0.018888794,0.01894537,-4.8692053E-4,-4.871138E-4,1192.9763,0.0,0.0,0.0,0.0,0.0,0.0,0.0,0.0,0.0,0.0,0.0,0.0,0.0,-10.932153,-0.10406372,-79.374275,0.010437896,-0.004273315,-0.0011323983,545367.94,119984.9,0.011288592,0.018463748,7708.163,7675.4414,6753.9565,6710.786,0.306839,0.0,0.0,0.0
155.80347,155.80347,2.049,0.0,0.0,288.99673,11632.0,100.0,0.0,0.023931641,0.0,7.0,1.0,0.0,4000000.0,110.0,1.0,0.0,0.0,10.0,0.0,0.0,700.25006,-11.944319,-91.0318,-0.025037505,0.31103486,0.14017206,294.2973,294.29083,288.8655,288.84018,247.0,247.0,342.0,337.0,89.0,89.0,89.0,89.0,0.0,0.0,0.0,0.0,0.042768065,0.042607136,0.053906303,0.053781617,0.0,0.0,0.0,0.0,176.86476,199.2478,-608.4456,-587.9938,0.0,0.0,0.0,2.0,1.0,-3.005133,-1.7936244E-4,0.0025219917,89.0,89.0,89.0,89.0,21.02244,21.02244,23.278507,23.278507,0.018343491,0.018398622,-4.8423145E-4,-4.8960955E-4,1194.0049,0.0,0.0,0.0,0.0,0.0,0.0,0.0,0.0,0.0,0.0,0.0,0.0,0.0,-10.939743,-0.03997401,-79.52796,0.016967805,-0.0041007274,-0.0026783692,545040.44,119984.91,0.008888073,0.015630124,8051.253,8009.6035,6898.167,6840.4844,0.3046837,0.0,0.0,0.0
159.82178,159.82178,2.083,0.0,0.0,289.5444,11652.0,100.0,0.0,0.04469183,0.0,7.0,1.0,0.0,4000000.0,110.0,1.0,0.0,0.0,10.0,0.0,0.0,699.70294,-11.944633,-95.012215,-0.02751178,0.3116239,0.12917407,294.81958,294.81992,289.40887,289.3915,246.0,246.0,340.0,336.0,89.0,89.0,89.0,89.0,0.0,0.0,0.0,0.0,0.04351948,0.04338328,0.053996634,0.053887915,16.478374,16.435234,1.5831738,1.5398114,394.7273,343.77866,88.76769,56.581192,0.0,0.0,0.0,2.0,1.0,-3.005294,-1.5891019E-4,0.0017168522,89.0,89.0,89.0,89.0,21.02244,21.02244,23.278507,23.278507,0.018242639,0.018295834,-4.8830174E-4,-4.8811705E-4,1195.156,0.0,0.0,0.0,0.0,0.0,0.0,0.0,0.0,0.0,0.0,0.0,0.0,0.0,-10.947478,0.022686671,-79.680466,0.013901725,-0.002945879,-0.0016798115,544629.44,119984.9,0.006446326,0.013115093,8083.994,8045.398,6987.425,6937.746,0.30175304,0.0,0.0,0.0
163.84387,163.84387,2.149,0.0,0.0,289.17548,11386.0,100.0,0.0,0.070458315,0.0,7.0,1.0,0.0,4000000.0,110.0,1.0,0.0,0.0,10.0,0.0,0.0,699.15607,-11.941954,-98.99648,-0.029484034,-0.6579753,0.1203084,289.14648,289.13577,289.1849,289.16614,245.0,245.0,339.0,335.0,89.0,89.0,89.0,89.0,0.0,0.0,0.0,0.0,0.042216614,0.042067416,0.054092098,0.053975508,0.0,0.0,0.0,0.0,-1968.0573,-1993.9269,477.11127,455.10376,0.0,0.0,0.0,2.0,1.0,-3.0054388,-1.7110944E-4,0.0021004677,89.0,89.0,89.0,89.0,21.02244,21.02244,23.278507,23.278507,-1.15055496E-4,-7.908088E-5,-2.0163607E-5,-1.4954322E-5,1179.1705,0.0,0.0,0.0,0.0,0.0,0.0,0.0,0.0,0.0,0.0,0.0,0.0,0.0,-10.920142,0.08173312,-79.580734,-0.04207027,-0.0034028338,0.006409797,549898.4,0.0,0.0043302965,0.012626611,7953.4834,7911.7593,7124.0703,7070.255,0.2997198,0.0,0.0,0.0
167.8533,167.8533,2.199,0.0,0.0,288.4363,10935.0,100.0,0.0,0.022788709,0.0,8.0,1.0,0.0,4000000.0,110.0,1.0,0.0,0.0,10.0,0.0,0.0,698.61145,-11.93386,-102.96827,-0.021691531,-0.05351964,-0.08261067,293.61447,293.6146,288.3263,288.314,244.0,244.0,338.0,334.0,89.0,89.0,89.0,89.0,0.0,0.0,0.0,0.0,0.040156312,0.040010087,0.054376993,0.054266103,0.0,0.0,0.0,0.0,-705.4747,-604.1807,-1670.2114,-1669.0444,0.0,0.0,0.0,2.0,1.0,-3.0055838,-1.5182733E-4,0.0032631159,89.0,89.0,89.0,89.0,21.02244,21.02244,23.278507,23.278507,0.015729439,0.01575989,-3.3693836E-4,-3.3738246E-4,1129.6382,0.0,0.0,0.0,0.0,0.0,0.0,0.0,0.0,0.0,0.0,0.0,0.0,0.0,-10.880695,0.1746181,-79.37875,-0.0062263333,-0.0020384865,-7.613116E-4,548526.44,119984.89,0.008096261,0.018333523,7282.3745,7254.234,6860.757,6816.339,0.30417728,0.0,0.0,0.0
171.86456,171.86456,2.249,0.0,0.0,289.09518,10588.0,100.0,0.0,0.06306807,0.0,8.0,1.0,0.0,4000000.0,110.0,1.0,0.0,0.0,10.0,0.0,0.0,698.06714,-11.930686,-106.94178,-0.025037672,0.3989282,-0.34792662,295.3902,295.39413,288.95288,288.935,243.0,243.0,337.0,332.0,89.0,89.0,89.0,89.0,0.0,0.0,0.0,0.0,0.03786863,0.03774593,0.052701026,0.052607782,0.0,0.0,0.0,0.0,1506.905,1497.4772,1437.4625,1463.9897,0.0,0.0,0.0,2.0,1.0,-3.0057206,-1.433416E-4,0.0036709309,89.0,89.0,89.0,89.0,21.02244,21.02244,23.278507,23.278507,0.02180553,0.02186914,-5.257972E-4,-5.227684E-4,1081.7329,0.0,0.0,0.0,0.0,0.0,0.0,0.0,0.0,0.0,0.0,0.0,0.0,0.0,-10.893492,-0.026531521,-79.56191,-0.017114332,-0.0031525332,0.0029493575,542479.25,119984.9,0.011851787,0.020364845,7016.7217,6983.3877,6001.687,5958.929,0.3074484,0.0,0.0,0.0
175.88547,175.88547,2.299,0.0,0.0,289.7589,10386.0,100.0,0.0,0.033144373,0.0,8.0,1.0,0.0,4000000.0,110.0,1.0,0.0,0.0,10.0,0.0,0.0,697.5222,-11.935593,-110.92492,-0.02286123,0.33640176,-0.14527035,295.2972,295.29987,289.63113,289.61472,242.0,242.0,336.0,331.0,89.0,89.0,89.0,89.0,0.0,0.0,0.0,0.0,0.038492315,0.03836291,0.052920077,0.052819863,0.0,0.0,0.0,0.0,688.0804,695.3089,594.36395,592.8084,0.0,0.0,0.0,2.0,1.0,-3.0058684,-1.4982125E-4,0.004912257,89.0,89.0,89.0,89.0,21.02244,21.02244,23.278507,23.278507,0.019282538,0.019342862,-4.83983E-4,-4.8524843E-4,1047.1049,0.0,0.0,0.0,0.0,0.0,0.0,0.0,0.0,0.0,0.0,0.0,0.0,0.0,-10.907144,-0.1429581,-79.74601,-0.026507072,-0.0027412432,0.0034345388,535326.6,119984.9,0.012554969,0.020328,7328.41,7294.384,6427.131,6381.423,0.30787182,0.0,0.0,0.0
179.91429,179.91429,2.349,0.0,0.0,290.2647,10403.0,100.0,0.0,0.071903914,0.0,8.0,1.0,0.0,4000000.0,110.0,1.0,0.0,0.0,10.0,0.0,0.0,696.9765,-11.945036,-114.91592,-0.027542558,0.29045677,-0.1790877,295.78827,295.7908,290.1398,290.11853,241.0,241.0,334.0,330.0,89.0,89.0,89.0,89.0,0.0,0.0,0.0,0.0,0.038410693,0.038270492,0.053079486,0.052975073,0.0,0.0,0.0,0.0,944.3118,916.8996,1249.0242,1242.1577,0.0,0.0,0.0,2.0,1.0,-3.0060244,-1.6761439E-4,0.006101966,89.0,89.0,89.0,89.0,21.02244,21.02244,23.278507,23.278507,0.019080965,0.019157382,-4.738007E-4,-4.7079567E-4,1050.4878,0.0,0.0,0.0,0.0,0.0,0.0,0.0,0.0,0.0,0.0,0.0,0.0,0.0,-10.9135275,-0.23567481,-79.88673,-0.022325357,-0.003738718,0.00401647,536178.5,119984.91,0.012282213,0.020911084,7270.7725,7230.12,6467.832,6419.9414,0.3079548,0.0,0.0,0.0
183.9501,183.9501,2.383,0.0,0.0,290.76547,10414.0,100.0,0.0,0.04509679,0.0,8.0,1.0,0.0,4000000.0,110.0,1.0,0.0,0.0,10.0,0.0,0.0,696.4305,-11.957708,-118.91395,-0.026158411,0.28357002,0.047116622,296.08557,296.08426,290.63455,290.61426,240.0,240.0,333.0,329.0,89.0,89.0,89.0,89.0,0.0,0.0,0.0,0.0,0.040012255,0.039860915,0.05375926,0.053644832,59.399525,60.03789,10.893121,10.892226,2030.6866,2086.8923,-172.76103,-159.28297,0.0,0.0,0.0,2.0,1.0,-3.0062106,-1.8395936E-4,0.006094098,89.0,89.0,89.0,89.0,21.02244,21.02244,23.278507,23.278507,0.018341227,0.018398665,-4.7200915E-4,-4.7250526E-4,1052.6187,0.0,0.0,0.0,0.0,0.0,0.0,0.0,0.0,0.0,0.0,0.0,0.0,0.0,-10.9194975,-0.25277025,-80.02625,0.015953345,-0.0034266869,-0.0024426053,536698.6,119984.9,0.011127225,0.01946657,7773.296,7735.801,6945.0835,6893.2124,0.306674,0.0,0.0,0.0
187.99275,187.99275,2.449,0.0,0.0,291.25485,10430.0,100.0,0.0,0.044102807,0.0,8.0,1.0,0.0,4000000.0,110.0,1.0,0.0,0.0,10.0,0.0,0.0,695.88446,-11.969635,-122.91887,-0.027189381,0.2760386,0.07189693,296.53308,296.53204,291.12372,291.10306,239.0,239.0,332.0,328.0,89.0,89.0,89.0,89.0,0.0,0.0,0.0,0.0,0.041843295,0.041694775,0.053912014,0.053794477,0.0,0.0,0.0,0.0,-516.78107,-539.49927,-93.42133,-66.451706,0.0,0.0,0.0,2.0,1.0,-3.0063891,-1.8647514E-4,0.005228162,89.0,89.0,89.0,89.0,21.02244,21.02244,23.278507,23.278507,0.01814493,0.018204236,-4.7136573E-4,-4.7225933E-4,1055.7655,0.0,0.0,0.0,0.0,0.0,0.0,0.0,0.0,0.0,0.0,0.0,0.0,0.0,-10.924217,-0.22327682,-80.16289,0.019264193,-0.0034699114,-0.002659187,537477.4,119984.91,0.010249683,0.017589247,7858.6006,7817.624,6944.9766,6892.961,0.3056097,0.0,0.0,0.0
192.04216,192.04216,2.499,0.0,0.0,291.7434,10445.0,100.0,0.0,0.06691043,0.0,8.0,1.0,0.0,4000000.0,110.0,1.0,0.0,0.0,10.0,0.0,0.0,695.33844,-11.979713,-126.93062,-0.030917421,0.2755997,0.11467454,296.96646,296.96292,291.6139,291.58957,238.0,238.0,331.0,327.0,89.0,89.0,89.0,89.0,0.0,0.0,0.0,0.0,0.04304281,0.042868443,0.054036006,0.053904608,0.0,0.0,0.0,0.0,-323.16592,-280.62604,-22.248915,-35.297867,0.0,0.0,0.0,2.0,1.0,-3.0065827,-2.14146E-4,0.004316807,89.0,89.0,89.0,89.0,21.02244,21.02244,23.278507,23.278507,0.017910637,0.017973818,-4.7441508E-4,-4.7281914E-4,1058.7644,0.0,0.0,0.0,0.0,0.0,0.0,0.0,0.0,0.0,0.0,0.0,0.0,0.0,-10.92771,-0.17708091,-80.29949,0.017220324,-0.0041908356,-0.0018766121,538230.0,119984.91,0.008960811,0.015453704,8026.5547,7983.498,7029.31,6967.8525,0.30400562,0.0,0.0,0.0
196.09836,196.09836,2.549,0.0,0.0,292.23074,10461.0,100.0,0.0,0.09811798,0.0,8.0,1.0,0.0,4000000.0,110.0,1.0,0.0,0.0,10.0,0.0,0.0,694.7924,-11.987123,-130.9492,-0.038769152,0.275015,0.1095906,297.43854,297.42975,292.10812,292.07193,237.0,237.0,330.0,325.0,89.0,89.0,89.0,89.0,0.0,0.0,0.0,0.0,0.043810893,0.043593377,0.05405604,0.053890184,0.0,0.0,0.0,0.0,-400.3867,-421.4152,-96.774086,-95.00383,0.0,0.0,0.0,2.0,1.0,-3.0068517,-2.5588903E-4,0.003558278,89.0,89.0,89.0,89.0,21.02244,21.02244,23.278507,23.278507,0.017795164,0.017879406,-4.7461575E-4,-4.725385E-4,1061.9934,0.0,0.0,0.0,0.0,0.0,0.0,0.0,0.0,0.0,0.0,0.0,0.0,0.0,-10.927733,-0.122448415,-80.43621,0.009105073,-0.006257896,-5.921647E-4,539045.75,119984.9,0.008545037,0.013998672,8105.0684,8047.9355,6983.8223,6906.771,0.3029995,0.0,0.0,0.0
200.16129,200.16129,2.599,0.0,0.0,292.71243,10481.0,100.0,0.0,0.08251707,0.0,8.0,1.0,0.0,4000000.0,110.0,1.0,0.0,0.0,10.0,0.0,0.0,694.2464,-11.992265,-134.9746,-0.042319525,0.2710035,0.044085722,297.98795,297.98132,292.59192,292.55542,236.0,236.0,328.0,324.0,89.0,89.0,89.0,89.0,0.0,0.0,0.0,0.0,0.043585304,0.0433539,0.05396107,0.05378218,0.0,0.0,0.0,0.0,-446.03787,-417.59305,-73.304756,-44.67218,0.0,0.0,0.0,2.0,1.0,-3.0071754,-2.6917146E-4,0.0034581423,89.0,89.0,89.0,89.0,21.02244,21.02244,23.278507,23.278507,0.017987406,0.018074963,-4.7067524E-4,-4.7095105E-4,1065.9044,0.0,0.0,0.0,0.0,0.0,0.0,0.0,0.0,0.0,0.0,0.0,0.0,0.0,-10.925402,-0.090064004,-80.571594,-0.0018700425,-0.006193231,1.9174165E-4,539998.5,119984.91,0.008881712,0.014511232,7948.031,7888.5986,6913.9604,6833.2764,0.30334854,0.0,0.0,0.0
204.2309,204.2309,2.649,0.0,0.0,293.1893,10499.0,100.0,0.0,0.0915753,0.0,8.0,1.0,0.0,4000000.0,110.0,1.0,0.0,0.0,10.0,0.0,0.0,693.7004,-11.996713,-139.00671,-0.046203915,0.2693778,-0.01776394,298.5192,298.51947,293.06805,293.03406,235.0,235.0,327.0,323.0,89.0,89.0,89.0,89.0,0.0,0.0,0.0,0.0,0.04284428,0.042597495,0.053829465,0.05364934,0.0,0.0,0.0,0.0,43.317657,20.009306,60.376522,46.040123,0.0,0.0,0.0,2.0,1.0,-3.0074706,-2.9299324E-4,0.0036468506,89.0,89.0,89.0,89.0,21.02244,21.02244,23.278507,23.278507,0.018159907,0.018263033,-4.7017113E-4,-4.6860776E-4,1069.5664,0.0,0.0,0.0,0.0,0.0,0.0,0.0,0.0,0.0,0.0,0.0,0.0,0.0,-10.921344,-0.09176638,-80.70582,-0.0051321546,-0.0058281613,0.0016798843,540924.7,119984.91,0.009505503,0.015592873,7823.587,7755.073,6828.271,6745.9624,0.30411053,0.0,0.0,0.0
208.30713,208.30713,2.699,0.0,0.0,293.6615,10517.0,100.0,0.0,0.08989371,0.0,8.0,1.0,0.0,4000000.0,110.0,1.0,0.0,0.0,10.0,0.0,0.0,693.15436,-12.001682,-143.04552,-0.04696755,0.26696402,-0.027363589,299.0065,299.0067,293.53976,293.5058,234.0,234.0,326.0,322.0,89.0,89.0,89.0,89.0,0.0,0.0,0.0,0.0,0.042283867,0.04202561,0.053835772,0.05363633,0.0,0.0,0.0,0.0,293.48727,287.0634,100.9181,92.321625,0.0,0.0,0.0,2.0,1.0,-3.0077584,-3.2336576E-4,0.0038603544,89.0,89.0,89.0,89.0,21.02244,21.02244,23.278507,23.278507,0.0181974,0.018300965,-4.696054E-4,-4.682461E-4,1072.0192,0.0,0.0,0.0,0.0,0.0,0.0,0.0,0.0,0.0,0.0,0.0,0.0,0.0,-10.91631,-0.106462225,-80.838844,-0.0020663596,-0.0058122375,6.905783E-4,541237.25,119984.89,0.009581784,0.016244136,7791.7227,7723.82,6868.5566,6777.0566,0.30444908,0.0,0.0,0.0
212.38991,212.38991,2.749,0.0,0.0,294.12878,10532.0,100.0,0.0,0.13718852,0.0,8.0,1.0,0.0,4000000.0,110.0,1.0,0.0,0.0,10.0,0.0,0.0,692.6085,-12.007139,-147.09096,-0.055161543,0.26342106,0.009307988,299.4401,299.43387,294.01178,293.96634,233.0,233.0,325.0,321.0,89.0,89.0,89.0,89.0,0.0,0.0,0.0,0.0,0.04240155,0.042108007,0.053966563,0.053730343,0.0,0.0,0.0,0.0,283.40216,304.64526,6.12884,7.32243,0.0,0.0,0.0,2.0,1.0,-3.0081065,-3.640769E-4,0.0038086176,89.0,89.0,89.0,89.0,21.02244,21.02244,23.278507,23.278507,0.018035691,0.018156,-4.714024E-4,-4.6632305E-4,1074.073,0.0,0.0,0.0,0.0,0.0,0.0,0.0,0.0,0.0,0.0,0.0,0.0,0.0,-10.907776,-0.108704,-80.97097,0.00372945,-0.007934695,1.2613187E-4,541501.9,119984.9,0.009273349,0.015949445,7894.842,7818.8193,6966.0615,6857.15,0.30413532,0.0,0.0,0.0
216.47913,216.47913,2.799,0.0,0.0,294.59015,10547.0,100.0,0.0,0.22366714,0.0,8.0,1.0,0.0,4000000.0,110.0,1.0,0.0,0.0,10.0,0.0,0.0,692.0636,-12.0123825,-151.14299,-0.075049505,0.26017642,0.0180461,299.88715,299.8722,294.48578,294.41498,232.0,232.0,324.0,320.0,89.0,89.0,89.0,89.0,0.0,0.0,0.0,0.0,0.04284773,0.04246387,0.054043017,0.05374157,0.0,0.0,0.0,0.0,-51.431347,-157.67363,-1.8641351,-52.3433,0.0,0.0,0.0,2.0,1.0,-3.0086107,-4.5294073E-4,0.0036090612,89.0,89.0,89.0,89.0,21.02244,21.02244,23.278507,23.278507,0.017913047,0.018086491,-4.7309345E-4,-4.636813E-4,1076.1428,0.0,0.0,0.0,0.0,0.0,0.0,0.0,0.0,0.0,0.0,0.0,0.0,0.0,-10.891669,-0.10097214,-81.102455,0.0037728134,-0.012464822,0.0022748779,541773.75,119984.9,0.009128512,0.015425669,7962.5166,7855.289,6986.8413,6844.923,0.303833,0.0,0.0,0.0
220.57469,220.57469,2.849,0.0,0.0,295.0457,10563.0,100.0,0.0,0.2700504,0.0,8.0,1.0,0.0,4000000.0,110.0,1.0,0.0,0.0,10.0,0.0,0.0,691.5196,-12.017207,-155.20158,-0.09659858,0.2567373,0.015468583,300.34448,300.32352,294.9522,294.86032,231.0,231.0,323.0,318.0,89.0,89.0,89.0,89.0,0.0,0.0,0.0,0.0,0.043107525,0.04260454,0.054099597,0.053713605,0.0,0.0,0.0,0.0,-125.25916,-118.3927,-6.8798656,-10.983644,0.0,0.0,0.0,2.0,1.0,-3.0093286,-5.753175E-4,0.0035036802,89.0,89.0,89.0,89.0,21.02244,21.02244,23.278507,23.278507,0.017857604,0.01807226,-4.7200266E-4,-4.6254182E-4,1078.33,0.0,0.0,0.0,0.0,0.0,0.0,0.0,0.0,0.0,0.0,0.0,0.0,0.0,-10.865604,-0.092851244,-81.23363,0.0013833054,-0.016047992,0.0027064665,542052.56,119984.9,0.009169407,0.015264437,7987.825,7853.302,7011.611,6832.4272,0.30377293,0.0,0.0,0.0
224.67651,224.67651,2.899,0.0,0.0,295.49625,10580.0,100.0,0.0,0.25858417,0.0,8.0,1.0,0.0,4000000.0,110.0,1.0,0.0,0.0,10.0,0.0,0.0,690.9773,-12.022061,-159.26671,-0.11372161,0.2544488,-0.0027710046,300.80807,300.79016,295.40805,295.3064,231.0,230.0,321.0,317.0,89.0,89.0,89.0,89.0,0.0,0.0,0.0,0.0,0.043014526,0.042418275,0.054110263,0.053643174,0.0,0.0,0.0,0.0,110.15831,122.10755,90.04173,106.094765,0.0,0.0,0.0,2.0,1.0,-3.01018,-6.9303776E-4,0.0035991669,89.0,89.0,89.0,89.0,21.02244,21.02244,23.278507,23.278507,0.01786329,0.018113412,-4.6851888E-4,-4.6421617E-4,1080.6337,0.0,0.0,0.0,0.0,0.0,0.0,0.0,0.0,0.0,0.0,0.0,0.0,0.0,-10.829562,-0.09905347,-81.36469,-0.0019441438,-0.01747908,0.0022218935,542337.75,119984.9,0.0091320425,0.015341555,7973.549,7808.791,7026.923,6812.0635,0.30378437,0.0,0.0,0.0
228.78445,228.78445,2.949,0.0,0.0,295.93768,10594.0,100.0,0.0,0.26029286,0.0,8.0,1.0,0.0,4000000.0,110.0,1.0,0.0,0.0,10.0,0.0,0.0,690.43695,-12.026589,-163.3384,-0.12781194,0.24605134,0.047891106,301.23132,301.1997,295.84912,295.746,230.0,229.0,320.0,316.0,89.0,89.0,89.0,89.0,0.0,0.0,0.0,0.0,0.043519184,0.042829655,0.054325406,0.05379316,0.0,0.0,0.0,0.0,-576.52734,-536.9916,-564.8464,-571.69934,0.0,0.0,0.0,2.0,1.0,-3.011057,-7.879524E-4,0.003453374,89.0,89.0,89.0,89.0,21.02244,21.02244,23.278507,23.278507,0.017761135,0.017975755,-4.654982E-4,-4.620768E-4,1082.5743,0.0,0.0,0.0,0.0,0.0,0.0,0.0,0.0,0.0,0.0,0.0,0.0,0.0,-10.785709,-0.078515105,-81.49423,0.006298412,-0.017681597,9.1290305E-4,542593.75,119984.89,0.009456378,0.015479741,8074.177,7890.4,7136.624,6891.4746,0.30407047,0.0,0.0,0.0
232.89844,232.89844,2.999,0.0,0.0,296.37033,10610.0,100.0,0.0,0.2749873,0.0,8.0,1.0,0.0,4000000.0,110.0,1.0,0.0,0.0,10.0,0.0,0.0,689.89886,-12.030239,-167.41649,-0.13747542,0.24448714,0.010209507,301.6831,301.65585,296.28275,296.17828,229.0,228.0,319.0,315.0,89.0,89.0,89.0,89.0,0.0,0.0,0.0,0.0,0.04348776,0.042753194,0.054272365,0.053700864,0.0,0.0,0.0,0.0,-22.758535,-29.66523,79.688416,75.66511,0.0,0.0,0.0,2.0,1.0,-3.011943,-8.423432E-4,0.0031985044,89.0,89.0,89.0,89.0,21.02244,21.02244,23.278507,23.278507,0.017817594,0.018040793,-4.6639E-4,-4.6118E-4,1084.7655,0.0,0.0,0.0,0.0,0.0,0.0,0.0,0.0,0.0,0.0,0.0,0.0,0.0,-10.736134,-0.070131876,-81.622,0.004717296,-0.017961165,3.8700044E-4,542872.06,119984.91,0.009706195,0.015825467,8036.1006,7840.0664,7091.248,6830.509,0.30449295,0.0,0.0,0.0
237.01837,237.01837,3.049,0.0,0.0,296.8006,10624.0,100.0,0.0,0.33038336,0.0,8.0,1.0,0.0,4000000.0,110.0,1.0,0.0,0.0,10.0,0.0,0.0,689.3635,-12.033515,-171.50096,-0.15217839,0.24549836,0.033121705,302.08328,302.05078,296.71786,296.60016,228.0,227.0,318.0,314.0,89.0,89.0,89.0,89.0,0.0,0.0,0.0,0.0,0.043577515,0.042765915,0.05439499,0.053768214,0.0,0.0,0.0,0.0,915.7194,847.36334,292.60214,249.39175,0.0,0.0,0.0,2.0,1.0,-3.0128953,-9.295907E-4,0.0027800798,89.0,89.0,89.0,89.0,21.02244,21.02244,23.278507,23.278507,0.017688677,0.017939307,-4.7122783E-4,-4.617644E-4,1086.686,0.0,0.0,0.0,0.0,0.0,0.0,0.0,0.0,0.0,0.0,0.0,0.0,0.0,-10.680068,-0.060473446,-81.7499,0.012401369,-0.020418668,7.8963884E-4,543116.56,119984.89,0.008694492,0.0149354935,8135.765,7918.695,7213.465,6925.5874,0.30373287,0.0,0.0,0.0
241.14427,241.14427,3.099,0.0,0.0,297.23032,10638.0,100.0,0.0,0.42287996,0.0,8.0,1.0,0.0,4000000.0,110.0,1.0,0.0,0.0,10.0,0.0,0.0,688.83124,-12.035516,-175.59186,-0.17696992,0.24432373,0.0065918425,302.49075,302.4444,297.16263,297.01447,227.0,226.0,317.0,313.0,89.0,89.0,89.0,89.0,0.0,0.0,0.0,0.0,0.044489324,0.043516,0.054458946,0.053728923,0.0,0.0,0.0,0.0,-1104.2118,-1095.4944,-932.38934,-907.83374,0.0,0.0,0.0,2.0,1.0,-3.0140681,-0.0010985283,0.0020231009,89.0,89.0,89.0,89.0,21.02244,21.02244,23.278507,23.278507,0.017525574,0.01782372,-4.7354982E-4,-4.606428E-4,1088.6113,0.0,0.0,0.0,0.0,0.0,0.0,0.0,0.0,0.0,0.0,0.0,0.0,0.0,-10.61266,-0.029306265,-81.87907,0.008939522,-0.025759136,0.0022058487,543362.75,119984.9,0.0072095557,0.012835289,8210.707,7958.193,7067.318,6732.017,0.3017826,0.0,0.0,0.0
245.27618,245.27618,3.149,0.0,0.0,297.6651,10653.0,100.0,0.0,0.38004416,0.0,8.0,1.0,0.0,4000000.0,110.0,1.0,0.0,0.0,10.0,0.0,0.0,688.3027,-12.036282,-179.6893,-0.19393545,0.24633002,0.061378494,302.89697,302.84177,297.6051,297.44223,226.0,225.0,316.0,312.0,89.0,89.0,89.0,89.0,0.0,0.0,0.0,0.0,0.04507433,0.04398952,0.05460106,0.053765416,0.0,0.0,0.0,0.0,-32.012154,8.676967,-265.9544,-205.68517,0.0,0.0,0.0,2.0,1.0,-3.015445,-0.0012314114,0.0017929077,89.0,89.0,89.0,89.0,21.02244,21.02244,23.278507,23.278507,0.01737537,0.017679539,-4.6903195E-4,-4.6674925E-4,1090.642,0.0,0.0,0.0,0.0,0.0,0.0,0.0,0.0,0.0,0.0,0.0,0.0,0.0,-10.535076,-8.8879396E-4,-82.01086,0.0020891943,-0.027808763,8.101147E-4,543609.8,119984.89,0.005752482,0.010993692,8357.767,8081.1963,7293.8477,6912.5596,0.2997675,0.0,0.0,0.0
249.41408,249.41408,3.199,0.0,0.0,298.09637,10671.0,100.0,0.0,0.28432778,0.0,8.0,1.0,0.0,4000000.0,110.0,1.0,0.0,0.0,10.0,0.0,0.0,687.7781,-12.036086,-183.79332,-0.19265948,0.24266921,-0.049750324,303.3996,303.36926,298.02722,297.88998,225.0,225.0,315.0,311.0,89.0,89.0,89.0,89.0,0.0,0.0,0.0,0.0,0.04482866,0.043745797,0.054355904,0.053533204,0.0,0.0,0.0,0.0,-760.44635,-729.2389,-176.67708,-157.78093,0.0,0.0,0.0,2.0,1.0,-3.0167265,-0.001215121,0.0022119284,89.0,89.0,89.0,89.0,21.02244,21.02244,23.278507,23.278507,0.017602118,0.017897213,-4.6046832E-4,-4.6613303E-4,1093.117,0.0,0.0,0.0,0.0,0.0,0.0,0.0,0.0,0.0,0.0,0.0,0.0,0.0,-10.455354,-0.001855475,-82.14182,-0.017735805,-0.02304951,0.0012123979,543924.4,119984.9,0.0063587045,0.011340204,8139.532,7867.385,7052.054,6681.521,0.29973507,0.0,0.0,0.0
253.55783,253.55783,3.249,0.0,0.0,298.51242,10690.0,100.0,0.0,0.21032165,0.0,8.0,1.0,0.0,4000000.0,110.0,1.0,0.0,0.0,10.0,0.0,0.0,687.2574,-12.03633,-187.90376,-0.17694044,0.2319552,-0.15541281,303.92752,303.9244,298.42978,298.32474,224.0,224.0,314.0,310.0,89.0,89.0,89.0,89.0,0.0,0.0,0.0,0.0,0.043874033,0.04285145,0.054163408,0.0533859,0.0,0.0,0.0,0.0,-1158.0033,-1125.4683,-404.66483,-374.034,0.0,0.0,0.0,2.0,1.0,-3.0177407,-0.0011462552,0.0032311678,89.0,89.0,89.0,89.0,21.02244,21.02244,23.278507,23.278507,0.017990006,0.018276196,-4.520945E-4,-4.5909875E-4,1095.7283,0.0,0.0,0.0,0.0,0.0,0.0,0.0,0.0,0.0,0.0,0.0,0.0,0.0,-10.379586,-0.029462755,-82.267914,-0.025551703,-0.017497705,6.0904445E-4,544254.7,119984.9,0.008765506,0.014505413,7824.26,7571.857,6872.6475,6524.6387,0.30245495,0.0,0.0,0.0
257.7073,257.7073,3.299,0.0,0.0,298.92188,10706.0,100.0,0.0,0.19711317,0.0,8.0,1.0,0.0,4000000.0,110.0,1.0,0.0,0.0,10.0,0.0,0.0,686.7401,-12.040315,-192.02042,-0.15520208,0.23150758,-0.16798198,304.37857,304.38913,298.8232,298.74677,223.0,223.0,312.0,308.0,89.0,89.0,89.0,89.0,0.0,0.0,0.0,0.0,0.04209885,0.04122473,0.054030403,0.053366706,0.0,0.0,0.0,0.0,693.5387,665.0538,-156.19843,-186.96336,0.0,0.0,0.0,2.0,1.0,-3.0184684,-9.887432E-4,0.00436604,89.0,89.0,89.0,89.0,21.02244,21.02244,23.278507,23.278507,0.018205414,0.018457163,-4.568016E-4,-4.5613406E-4,1097.934,0.0,0.0,0.0,0.0,0.0,0.0,0.0,0.0,0.0,0.0,0.0,0.0,0.0,-10.315024,-0.120063744,-82.39057,-0.01377062,-0.012940249,-7.877421E-4,544535.25,119984.89,0.010127024,0.017089553,7690.2104,7475.5,6946.771,6651.0234,0.3048067,0.0,0.0,0.0
261.86237,261.86237,3.333,0.0,0.0,299.32602,10716.0,100.0,0.0,0.23631847,0.0,8.0,1.0,0.0,4000000.0,110.0,1.0,0.0,0.0,10.0,0.0,0.0,686.2259,-12.047863,-196.14313,-0.14122857,0.22765341,-0.061266117,304.67026,304.68747,299.22467,299.14774,222.0,222.0,311.0,307.0,89.0,89.0,89.0,89.0,0.0,0.0,0.0,0.0,0.042139087,0.041365046,0.054248385,0.053650983,11.515841,13.359188,6.302744,7.551312,574.8375,563.5052,89.210266,91.18168,0.0,0.0,0.0,2.0,1.0,-3.0191112,-8.9598814E-4,0.0046077967,89.0,89.0,89.0,89.0,21.02244,21.02244,23.278507,23.278507,0.017817428,0.018098451,-4.6307265E-4,-4.5502587E-4,1099.3278,0.0,0.0,0.0,0.0,0.0,0.0,0.0,0.0,0.0,0.0,0.0,0.0,0.0,-10.258158,-0.16952746,-82.51071,0.004036288,-0.013351067,-0.0018776685,544717.7,119984.91,0.00986018,0.01706775,7916.6143,7718.572,7158.323,6891.747,0.30504513,0.0,0.0,0.0
266.023,266.023,3.399,0.0,0.0,299.72595,10727.0,100.0,0.0,0.1891662,0.0,8.0,1.0,0.0,4000000.0,110.0,1.0,0.0,0.0,10.0,0.0,0.0,685.7143,-12.056811,-200.27179,-0.12581265,0.22805107,0.005069592,304.98743,304.99042,299.62277,299.54623,221.0,221.0,310.0,306.0,89.0,89.0,89.0,89.0,0.0,0.0,0.0,0.0,0.04317522,0.04247898,0.05440306,0.05386117,0.0,0.0,0.0,0.0,777.693,812.37396,627.4089,651.0927,0.0,0.0,0.0,2.0,1.0,-3.0197837,-8.0854003E-4,0.0041718483,89.0,89.0,89.0,89.0,21.02244,21.02244,23.278507,23.278507,0.017515277,0.017749319,-4.6311782E-4,-4.6119202E-4,1100.8433,0.0,0.0,0.0,0.0,0.0,0.0,0.0,0.0,0.0,0.0,0.0,0.0,0.0,-10.208089,-0.18336052,-82.62883,0.011427281,-0.013043596,-0.0035143145,544909.3,119984.89,0.0083796065,0.0149433045,8139.116,7962.1094,7269.4233,7028.4395,0.30346203,0.0,0.0,0.0
270.18915,270.18915,3.449,0.0,0.0,300.1241,10737.0,100.0,0.0,0.19429386,0.0,8.0,1.0,0.0,4000000.0,110.0,1.0,0.0,0.0,10.0,0.0,0.0,685.2052,-12.06491,-204.40633,-0.121362865,0.2243751,0.16976944,305.27405,305.2487,300.021,299.9411,220.0,220.0,309.0,305.0,89.0,89.0,89.0,89.0,0.0,0.0,0.0,0.0,0.045329757,0.04465103,0.05477926,0.05425571,0.0,0.0,0.0,0.0,816.5313,798.3327,105.6388,106.48369,0.0,0.0,0.0,2.0,1.0,-3.020465,-7.8231347E-4,0.0032980442,89.0,89.0,89.0,89.0,21.02244,21.02244,23.278507,23.278507,0.01709062,0.017240064,-4.6521422E-4,-4.6333284E-4,1102.2122,0.0,0.0,0.0,0.0,0.0,0.0,0.0,0.0,0.0,0.0,0.0,0.0,0.0,-10.160576,-0.13066332,-82.74622,0.0187879,-0.013635003,-0.002973897,545078.75,119984.9,0.0073170876,0.012177199,8568.948,8395.42,7530.879,7294.5146,0.3014469,0.0,0.0,0.0
274.36078,274.36078,3.499,0.0,0.0,300.5124,10753.0,100.0,0.0,0.18240994,0.0,8.0,1.0,0.0,4000000.0,110.0,1.0,0.0,0.0,10.0,0.0,0.0,684.6983,-12.069907,-208.54666,-0.11402041,0.21821032,0.06604845,305.72604,305.7073,300.4076,300.33905,219.0,219.0,308.0,304.0,89.0,89.0,89.0,89.0,0.0,0.0,0.0,0.0,0.045920048,0.045291513,0.054579005,0.054101422,0.0,0.0,0.0,0.0,-946.8867,-962.3764,4.4658847,1.2204121,0.0,0.0,0.0,2.0,1.0,-3.0210876,-7.1494794E-4,0.0028465986,89.0,89.0,89.0,89.0,21.02244,21.02244,23.278507,23.278507,0.017271675,0.017405456,-4.604151E-4,-4.566608E-4,1104.4177,0.0,0.0,0.0,0.0,0.0,0.0,0.0,0.0,0.0,0.0,0.0,0.0,0.0,-10.117727,-0.080976255,-82.86019,2.816178E-4,-0.011764167,-7.0928584E-4,545356.8,119984.9,0.008301473,0.0123731345,8349.411,8196.69,7252.56,7039.8975,0.3021183,0.0,0.0,0.0
278.53772,278.53772,3.549,0.0,0.0,300.89307,10768.0,100.0,0.0,0.13958532,0.0,8.0,1.0,0.0,4000000.0,110.0,1.0,0.0,0.0,10.0,0.0,0.0,684.1935,-12.073615,-212.69261,-0.10187094,0.21487679,0.016158737,306.14883,306.15244,300.78354,300.72495,218.0,218.0,307.0,303.0,89.0,89.0,89.0,89.0,0.0,0.0,0.0,0.0,0.04510779,0.044519052,0.05448725,0.054042883,0.0,0.0,0.0,0.0,37.014538,71.73568,37.60456,68.42314,0.0,0.0,0.0,2.0,1.0,-3.0216305,-6.6144404E-4,0.0029176474,89.0,89.0,89.0,89.0,21.02244,21.02244,23.278507,23.278507,0.017427742,0.0176026,-4.575415E-4,-4.5647137E-4,1106.4965,0.0,0.0,0.0,0.0,0.0,0.0,0.0,0.0,0.0,0.0,0.0,0.0,0.0,-10.079036,-0.069908366,-82.971436,6.9809664E-4,-0.009946732,-0.0015494075,545622.1,119984.9,0.00901375,0.013955176,8170.592,8032.152,7250.958,7053.3604,0.30323982,0.0,0.0,0.0
282.71957,282.71957,3.599,0.0,0.0,301.2744,10780.0,100.0,0.0,0.112944156,0.0,8.0,1.0,0.0,4000000.0,110.0,1.0,0.0,0.0,10.0,0.0,0.0,683.6904,-12.077788,-216.84412,-0.08989509,0.21585415,0.043884613,306.49988,306.50458,301.1578,301.10904,218.0,217.0,306.0,302.0,89.0,89.0,89.0,89.0,0.0,0.0,0.0,0.0,0.044468474,0.04395679,0.05453373,0.054139767,0.0,0.0,0.0,0.0,992.49774,1030.9606,196.83388,207.79071,0.0,0.0,0.0,2.0,1.0,-3.0220835,-5.7834695E-4,0.0027604103,89.0,89.0,89.0,89.0,21.02244,21.02244,23.278507,23.278507,0.017338876,0.01749252,-4.6017955E-4,-4.602017E-4,1108.1687,0.0,0.0,0.0,0.0,0.0,0.0,0.0,0.0,0.0,0.0,0.0,0.0,0.0,-10.045815,-0.08055771,-83.08216,0.010853837,-0.008235466,-0.0032451306,545838.44,119984.9,0.007815675,0.013495821,8240.682,8116.252,7382.701,7207.9097,0.30237293,0.0,0.0,0.0
