LapDistance [m],TotalDistance [m],LapTime [s],Sector1Time [s],Sector2Time [s],Speed [km/h],EngineRevs [rpm],ThrottlePercentage [%],BrakePercentage [%],Steer [%],Clutch [%],Gear [int],DRS [0/1],CanUseDRS [0/1],KERSLevel [J],EngineTemperature [C],RacePosition [int],Sector [int],InPits [int],FuelRemaining [kg],CurrentFlag [int],CurrentLapInvalid [int],X [m],Y [m],Z [m],GForceLatitudinal [G],GForceLongitudinal [G],GForceVertical [G],WheelSpeedRearLeft [km/h],WheelSpeedRearRight [km/h],WheelSpeedFrontLeft [km/h],WheelSpeedFrontRight [km/h],BrakeTemperatureRearLeft [C],BrakeTemperatureRearRight [C],BrakeTemperatureFrontLeft [C],BrakeTemperatureFrontRight [C],TyreTemperatureRearLeft [C],TyreTemperatureRearRight [C],TyreTemperatureFrontLeft [C],TyreTemperatureFrontRight [C],TyreWearRearLeft [%],TyreWearRearRight [%],TyreWearFrontLeft [%],TyreWearFrontRight [%],SuspensionPositionRearLeft [m],SuspensionPositionRearRight [m],SuspensionPositionFrontLeft [m],SuspensionPositionFrontRight [m],SuspensionVelocityRearLeft [m/s],SuspensionVelocityRearRight [m/s],SuspensionVelocityFrontLeft [m/s],SuspensionVelocityFrontRight [m/s],SuspensionAccelerationRearLeft [m/s^2],SuspensionAccelerationRearRight [m/s^2],SuspensionAccelerationFrontLeft [m/s^2],SuspensionAccelerationFrontRight [m/s^2],MGUKHarvested [J],MGUHHarvested [J],ERSSpent [J],ERSMode [int],FuelMixMode [int],Yaw [rad],Roll [rad],Pitch [rad],TyreCarcassTemperatureRearLeft [C],TyreCarcassTemperatureRearRight [C],TyreCarcassTemperatureFrontLeft [C],TyreCarcassTemperatureFrontRight [C],TyrePressureRearLeft [PSI],TyrePressureRearRight [PSI],TyrePressureFrontLeft [PSI],TyrePressureFrontRight [PSI],WheelSlipRearLeft [%],WheelSlipRearRight [%],WheelSlipFrontLeft [%],WheelSlipFrontRight [%],Torque [Nm],Handbrake [%],RearLeftInside [C],RearLeftMiddle [C],RearLeftOutside [C],RearRightInside [C],RearRightMiddle [C],RearRightOutside [C],FrontLeftInside [C],FrontLeftMiddle [C],FrontLeftOutside [C],FrontRightInside [C],FrontRightMiddle [C],FrontRightOutside [C],WoldSpeedX [km/h],WoldSpeedY [km/h],WoldSpeedZ [km/h],LocalAngularVelocityX [rad/s],LocalAngularVelocityY [rad/s],LocalAngularVelocityZ [rad/s],IcePower [W],MgukPower [W],FrontRideHeight [m],RearRideHeight [m],LoadRearLeft [N],LoadRearRight [N],LoadFrontLeft [N],LoadFrontRight [N],Extra1 [m],Extra2 [],Extra3 [],Extra4 []
2.8553576,2.8553576,0.033,0.0,0.0,228.34761,10682.0,100.0,0.0,0.17114723,0.0,6.0,1.0,0.0,4000000.0,110.0,1.0,0.0,0.0,10.0,0.0,0.0,-236.4498,13.601887,-675.2131,-0.08256507,0.83152163,-0.0065973587,234.7494,234.76123,228.21931,228.14299,545.0,544.0,605.0,603.0,93.0,93.0,93.0,93.0,0.0,0.0,0.0,0.0,0.036828943,0.036647458,0.049668077,0.04911401,10.607689,9.617507,2.522394,2.8815863,461.4606,324.30585,-92.99218,-82.38405,0.0,0.0,0.0,2.0,1.0,-2.5417457,-0.017100079,-0.015701413,93.0,93.0,93.0,93.0,21.980246,21.980246,24.842789,24.842789,0.027964558,0.028329924,-7.119696E-4,-7.327964E-4,1094.6367,0.0,0.0,0.0,0.0,0.0,0.0,0.0,0.0,0.0,0.0,0.0,0.0,0.0,-35.85136,1.1347973,-52.313892,-0.0046998537,-0.011948917,-0.009855425,544119.7,113985.65,0.022762714,0.0287591,5571.027,5482.949,4175.3467,3919.1287,0.3178234,0.0,0.0,0.0
6.0355396,6.0355396,0.083,0.0,0.0,229.79977,10745.0,100.0,0.0,0.14387083,0.0,6.0,1.0,0.0,4000000.0,110.0,1.0,0.0,0.0,10.0,0.0,0.0,-238.24748,13.658829,-677.83813,-0.075008124,0.8186333,0.015001688,236.14618,236.14894,229.66684,229.60205,543.0,542.0,603.0,601.0,93.0,93.0,93.0,93.0,0.0,0.0,0.0,0.0,0.037344214,0.03721882,0.04977669,0.049243968,9.849741,12.060105,2.7331707,2.4379044,-114.342606,93.43477,-34.131115,-46.91183,0.0,0.0,0.0,2.0,1.0,-2.5422993,-0.016566169,-0.015840769,93.0,93.0,93.0,93.0,21.980246,21.980246,24.842789,24.842789,0.027553642,0.02779811,-7.023387E-4,-7.1959523E-4,1103.3295,0.0,0.0,0.0,0.0,0.0,0.0,0.0,0.0,0.0,0.0,0.0,0.0,0.0,-36.047195,1.1446109,-52.66855,-0.0025049052,-0.010052191,-0.012124692,545225.06,113985.65,0.022349382,0.028152393,5618.1597,5560.8203,4243.758,4000.4656,0.31741047,0.0,0.0,0.0
9.235902,9.235902,0.133,0.0,0.0,231.23589,10808.0,100.0,0.0,0.1069398,0.0,6.0,1.0,0.0,4000000.0,110.0,1.0,0.0,0.0,10.0,0.0,0.0,-240.05501,13.716328,-680.4808,-0.06468436,0.8109897,0.015716512,237.5182,237.53171,231.09546,231.04654,541.0,540.0,601.0,599.0,93.0,93.0,93.0,93.0,0.0,0.0,0.0,0.0,0.03778951,0.03772122,0.04977637,0.04931376,12.692659,11.203139,0.11935829,1.25885,311.40445,-13.411044,-24.475153,-54.502476,0.0,0.0,0.0,2.0,1.0,-2.5427384,-0.015994325,-0.016051292,93.0,93.0,93.0,93.0,21.980246,21.980246,24.842789,24.842789,0.027128987,0.027377613,-7.00046E-4,-7.154158E-4,1112.0245,0.0,0.0,0.0,0.0,0.0,0.0,0.0,0.0,0.0,0.0,0.0,0.0,0.0,-36.24473,1.1562254,-53.01657,-0.0042717457,-0.007442579,-0.010700809,546318.7,113985.65,0.022182874,0.027503962,5698.5967,5630.437,4225.9883,4013.62,0.31695938,0.0,0.0,0.0
12.456109,12.456109,0.2,0.0,0.0,232.65292,10873.0,100.0,0.0,0.12137151,0.0,6.0,1.0,0.0,4000000.0,110.0,1.0,0.0,0.0,10.0,0.0,0.0,-241.87242,13.774439,-683.1407,-0.057963133,0.7995626,0.017415602,238.94739,238.94193,232.51146,232.46642,539.0,538.0,599.0,597.0,93.0,93.0,93.0,93.0,0.0,0.0,0.0,0.0,0.037976656,0.037987463,0.049849506,0.049406834,0.0,0.0,0.0,0.0,-91.63766,64.238884,119.59968,36.008648,0.0,0.0,0.0,2.0,1.0,-2.5431015,-0.01543717,-0.016160965,93.0,93.0,93.0,93.0,21.980246,21.980246,24.842789,24.842789,0.02702084,0.02715001,-6.937403E-4,-7.016794E-4,1121.0198,0.0,0.0,0.0,0.0,0.0,0.0,0.0,0.0,0.0,0.0,0.0,0.0,0.0,-36.442257,1.1685703,-53.358147,-0.0034302473,-0.0070317914,-0.010688197,547445.5,113985.66,0.02179453,0.027185945,5677.5312,5650.9033,4299.6807,4095.8613,0.3165903,0.0,0.0,0.0
15.695829,15.695829,0.233,0.0,0.0,234.05623,10934.0,100.0,0.0,0.1422399,0.0,6.0,1.0,0.0,4000000.0,110.0,1.0,0.0,0.0,10.0,0.0,0.0,-243.69972,13.833374,-685.8175,-0.056926757,0.7916703,0.013224723,240.3042,240.30557,233.9168,233.86758,537.0,536.0,597.0,595.0,93.0,93.0,93.0,93.0,0.0,0.0,0.0,0.0,0.03834921,0.03835957,0.049875535,0.049474537,6.2982736,4.9019604,-2.138391,0.4289299,95.91579,-141.21828,-227.14284,-54.582943,0.0,0.0,0.0,2.0,1.0,-2.5434797,-0.014896671,-0.016332746,93.0,93.0,93.0,93.0,21.980246,21.980246,24.842789,24.842789,0.02664606,0.026839688,-6.928744E-4,-6.988707E-4,1129.5327,0.0,0.0,0.0,0.0,0.0,0.0,0.0,0.0,0.0,0.0,0.0,0.0,0.0,-36.638702,1.1861513,-53.69571,-0.003610788,-0.0078737615,-0.009107572,548525.44,113985.65,0.021773271,0.026784344,5750.997,5700.72,4273.6807,4100.5215,0.31625175,0.0,0.0,0.0
18.954983,18.954983,0.283,0.0,0.0,235.44067,10998.0,100.0,0.0,0.12668103,0.0,6.0,1.0,0.0,4000000.0,110.0,1.0,0.0,0.0,10.0,0.0,0.0,-245.53676,13.892989,-688.5111,-0.054784656,0.7803352,0.009308017,241.71523,241.68968,235.30492,235.2504,535.0,534.0,595.0,593.0,93.0,93.0,93.0,93.0,0.0,0.0,0.0,0.0,0.038459297,0.038431037,0.049951173,0.049503237,-0.359863,2.2899358,1.6231834,1.7128139,-333.0096,76.73799,-40.756165,152.02759,0.0,0.0,0.0,2.0,1.0,-2.5439155,-0.014401216,-0.016411543,93.0,93.0,93.0,93.0,21.980246,21.980246,24.842789,24.842789,0.026579166,0.026681188,-6.8073143E-4,-6.913862E-4,1138.4417,0.0,0.0,0.0,0.0,0.0,0.0,0.0,0.0,0.0,0.0,0.0,0.0,0.0,-36.831936,1.1976961,-54.029236,-0.0050204108,-0.008570848,-0.01122471,549634.6,113985.65,0.021501264,0.02670291,5720.701,5703.2397,4352.255,4146.455,0.31608582,0.0,0.0,0.0
22.233261,22.233261,0.35,0.0,0.0,236.81201,11058.0,100.0,0.0,0.13124214,0.0,6.0,1.0,0.0,4000000.0,110.0,1.0,0.0,0.0,10.0,0.0,0.0,-247.38342,13.953205,-691.22125,-0.05597356,0.77323115,0.009417757,243.03716,243.01549,236.67459,236.62251,532.0,532.0,593.0,591.0,93.0,93.0,93.0,93.0,0.0,0.0,0.0,0.0,0.03857838,0.03871829,0.050012782,0.04956157,0.0,0.0,0.0,0.0,-134.84804,10.769061,-86.12572,18.520649,0.0,0.0,0.0,2.0,1.0,-2.5443416,-0.013750782,-0.01662445,93.0,93.0,93.0,93.0,21.980246,21.980246,24.842789,24.842789,0.026266985,0.026345262,-6.7934E-4,-6.8696367E-4,1144.8301,0.0,0.0,0.0,0.0,0.0,0.0,0.0,0.0,0.0,0.0,0.0,0.0,0.0,-37.0235,1.2100831,-54.359463,-0.0034123915,-0.00819717,-0.013115283,549719.9,113985.65,0.021217069,0.026226355,5770.709,5762.6084,4376.4854,4172.3975,0.31559086,0.0,0.0,0.0
25.530485,25.530485,0.383,0.0,0.0,238.16568,11118.0,100.0,0.0,0.13352267,0.0,6.0,1.0,0.0,4000000.0,110.0,1.0,0.0,0.0,10.0,0.0,0.0,-249.2396,14.014095,-693.9479,-0.056782782,0.76196766,0.014105438,244.3526,244.3347,238.02896,237.97762,530.0,529.0,591.0,589.0,93.0,93.0,93.0,93.0,0.0,0.0,0.0,0.0,0.03893662,0.03901557,0.05002971,0.049627457,2.9084084,4.810318,0.475198,1.2939422,-412.20184,-66.02256,10.567903,-22.919474,0.0,0.0,0.0,2.0,1.0,-2.5447602,-0.013147373,-0.016755342,93.0,93.0,93.0,93.0,21.980246,21.980246,24.842789,24.842789,0.025944771,0.026029525,-6.732576E-4,-6.7916926E-4,1151.1755,0.0,0.0,0.0,0.0,0.0,0.0,0.0,0.0,0.0,0.0,0.0,0.0,0.0,-37.211704,1.2244922,-54.685974,-0.005026547,-0.008221552,-0.00912777,549783.75,113985.65,0.021028416,0.025768617,5812.615,5799.878,4398.1553,4217.8354,0.31523895,0.0,0.0,0.0
28.84645,28.84645,0.433,0.0,0.0,239.49988,11179.0,100.0,0.0,0.14645992,0.0,6.0,1.0,0.0,4000000.0,110.0,1.0,0.0,0.0,10.0,0.0,0.0,-251.10506,14.075632,-696.69073,-0.060384184,0.7522907,0.0064126,245.67632,245.6631,239.36646,239.3104,528.0,527.0,589.0,587.0,93.0,93.0,93.0,93.0,0.0,0.0,0.0,0.0,0.03908224,0.039072998,0.050098766,0.049654655,2.9546766,0.13165174,1.3071297,0.6448477,119.02301,-72.205055,1.5020369,28.391176,0.0,0.0,0.0,2.0,1.0,-2.5452101,-0.012669297,-0.01677525,93.0,93.0,93.0,93.0,21.980246,21.980246,24.842789,24.842789,0.025710613,0.025886748,-6.66125E-4,-6.729081E-4,1157.627,0.0,0.0,0.0,0.0,0.0,0.0,0.0,0.0,0.0,0.0,0.0,0.0,0.0,-37.395355,1.2355455,-55.0091,-0.005662954,-0.0090211015,-0.008788052,549848.06,113985.65,0.020854264,0.025628125,5842.0215,5792.6934,4443.859,4234.0586,0.31515217,0.0,0.0,0.0
32.18079,32.18079,0.483,0.0,0.0,240.8169,11238.0,100.0,0.0,0.19353554,0.0,6.0,1.0,0.0,4000000.0,110.0,1.0,0.0,0.0,10.0,0.0,0.0,-252.97954,14.137602,-699.44965,-0.06840709,0.7430883,-0.0015419833,246.97414,246.96375,240.6893,240.62192,526.0,525.0,587.0,585.0,93.0,93.0,93.0,93.0,0.0,0.0,0.0,0.0,0.03916391,0.039123323,0.05013983,0.04968676,1.4182179,2.0912287,0.46715137,0.8093565,-110.06443,152.21533,-61.516453,30.805168,0.0,0.0,0.0,2.0,1.0,-2.545733,-0.012187449,-0.016802907,93.0,93.0,93.0,93.0,21.980246,21.980246,24.842789,24.842789,0.02550519,0.02568923,-6.631851E-4,-6.662855E-4,1163.87,0.0,0.0,0.0,0.0,0.0,0.0,0.0,0.0,0.0,0.0,0.0,0.0,0.0,-37.573475,1.2423632,-55.3303,-0.004550149,-0.011076734,-0.008082487,549911.06,113985.65,0.02075689,0.025501208,5856.25,5813.9365,4460.1504,4256.7812,0.314929,0.0,0.0,0.0
35.533344,35.533344,0.533,0.0,0.0,242.11725,11296.0,100.0,0.0,0.15070121,0.0,6.0,1.0,0.0,4000000.0,110.0,1.0,0.0,0.0,10.0,0.0,0.0,-254.86285,14.199824,-702.2246,-0.0677447,0.73312783,-0.0037887814,248.25958,248.236,241.9881,241.92513,524.0,523.0,585.0,583.0,93.0,93.0,93.0,93.0,0.0,0.0,0.0,0.0,0.039294276,0.039257932,0.050174017,0.049715042,2.932325,3.3442674,0.89205796,1.0724365,74.20331,-64.45346,57.868652,-16.95156,0.0,0.0,0.0,2.0,1.0,-2.546274,-0.011624604,-0.016805649,93.0,93.0,93.0,93.0,21.980246,21.980246,24.842789,24.842789,0.025286961,0.025446238,-6.541658E-4,-6.629181E-4,1170.0088,0.0,0.0,0.0,0.0,0.0,0.0,0.0,0.0,0.0,0.0,0.0,0.0,0.0,-37.748642,1.2465025,-55.64794,-0.0066904933,-0.010123161,-0.009107926,549973.1,113985.65,0.0206661,0.02531684,5881.5596,5835.2734,4490.0947,4275.471,0.3149042,0.0,0.0,0.0
38.90386,38.90386,0.6,0.0,0.0,243.40005,11353.0,100.0,0.0,0.089382336,0.0,6.0,1.0,0.0,4000000.0,110.0,1.0,0.0,0.0,10.0,0.0,0.0,-256.75488,14.262558,-705.01526,-0.059559792,0.7222435,0.0051759817,249.49443,249.4943,243.26292,243.21695,522.0,521.0,583.0,581.0,93.0,93.0,93.0,93.0,0.0,0.0,0.0,0.0,0.03959052,0.03958597,0.05023246,0.04982706,0.0,0.0,0.0,0.0,-191.60356,-82.799774,-111.888336,21.09557,0.0,0.0,0.0,2.0,1.0,-2.5467114,-0.011054868,-0.016896486,93.0,93.0,93.0,93.0,21.980246,21.980246,24.842789,24.842789,0.02500578,0.025152404,-6.4624276E-4,-6.5769634E-4,1176.042,0.0,0.0,0.0,0.0,0.0,0.0,0.0,0.0,0.0,0.0,0.0,0.0,0.0,-37.92309,1.2598908,-55.95995,-0.004454702,-0.0070841396,-0.0100763915,550033.56,113985.65,0.020810522,0.025242709,5924.3257,5879.527,4513.369,4337.6074,0.31486893,0.0,0.0,0.0
42.292057,42.292057,0.633,0.0,0.0,244.66437,11409.0,100.0,0.0,0.10038575,0.0,6.0,1.0,0.0,4000000.0,110.0,1.0,0.0,0.0,10.0,0.0,0.0,-258.65564,14.3257065,-707.82135,-0.054394037,0.7131816,9.4152335E-4,250.74664,250.72624,244.52432,244.48523,520.0,519.0,581.0,579.0,93.0,93.0,93.0,93.0,0.0,0.0,0.0,0.0,0.03966827,0.03971289,0.050259475,0.049854025,1.985952,3.23005,1.4016776,0.73783094,48.990543,55.37421,69.06687,-63.179417,0.0,0.0,0.0,2.0,1.0,-2.547041,-0.01050932,-0.016971707,93.0,93.0,93.0,93.0,21.980246,21.980246,24.842789,24.842789,0.02484877,0.024908822,-6.4390415E-4,-6.499226E-4,1180.5525,0.0,0.0,0.0,0.0,0.0,0.0,0.0,0.0,0.0,0.0,0.0,0.0,0.0,-38.096935,1.2659414,-56.266315,-0.004443021,-0.0061226897,-0.009989863,549433.0,113985.65,0.02083716,0.025226295,5930.6006,5913.079,4551.08,4360.716,0.31498432,0.0,0.0,0.0
45.6977,45.6977,0.683,0.0,0.0,245.90973,11465.0,100.0,0.0,0.120708905,0.0,6.0,1.0,0.0,4000000.0,110.0,1.0,0.0,0.0,10.0,0.0,0.0,-260.56503,14.38932,-710.64264,-0.05192381,0.70011955,-0.0018351367,251.95888,251.94751,245.77077,245.72998,518.0,517.0,579.0,577.0,93.0,93.0,93.0,93.0,0.0,0.0,0.0,0.0,0.039824717,0.039916415,0.050332982,0.049958892,-1.0518728,1.4573334,-1.2121348,1.1799483,-428.52304,-348.2714,-250.78651,-23.522972,0.0,0.0,0.0,2.0,1.0,-2.5473564,-0.009967459,-0.017225504,93.0,93.0,93.0,93.0,21.980246,21.980246,24.842789,24.842789,0.024596909,0.024679251,-6.3762674E-4,-6.4071803E-4,1183.9845,0.0,0.0,0.0,0.0,0.0,0.0,0.0,0.0,0.0,0.0,0.0,0.0,0.0,-38.269394,1.2766551,-56.567146,6.1105564E-4,-0.0064444537,-0.01205053,548338.8,113985.65,0.020265099,0.024774164,5932.1245,5915.931,4578.49,4418.582,0.31457806,0.0,0.0,0.0
49.120487,49.120487,0.733,0.0,0.0,247.1437,11515.0,100.0,0.0,0.10790193,0.0,6.0,1.0,0.0,4000000.0,110.0,1.0,0.0,0.0,10.0,0.0,0.0,-262.48303,14.453697,-713.47876,-0.048615664,0.69597346,0.05711153,253.06454,253.03697,247.00676,246.96504,515.0,514.0,577.0,575.0,93.0,93.0,93.0,93.0,0.0,0.0,0.0,0.0,0.04053542,0.04068891,0.05049541,0.050073594,19.6816,22.10453,2.4821608,2.6207416,321.55652,534.1485,-73.29135,-20.478657,0.0,0.0,0.0,2.0,1.0,-2.5476897,-0.009388737,-0.017660618,93.0,93.0,93.0,93.0,21.980246,21.980246,24.842789,24.842789,0.023947775,0.02396721,-6.2852126E-4,-6.3540274E-4,1187.0051,0.0,0.0,0.0,0.0,0.0,0.0,0.0,0.0,0.0,0.0,0.0,0.0,0.0,-38.44109,1.3016995,-56.86433,-6.550527E-4,-0.006436827,-0.015726462,547350.7,113985.65,0.019529916,0.023521518,6136.3022,6142.154,4713.0654,4524.0254,0.31352806,0.0,0.0,0.0
52.560333,52.560333,0.799,0.0,0.0,248.35286,11569.0,100.0,0.0,0.0857224,0.0,6.0,1.0,0.0,4000000.0,110.0,1.0,0.0,0.0,10.0,0.0,0.0,-264.40955,14.519602,-716.32965,-0.046175808,0.6807484,0.03571397,254.2669,254.23651,248.21548,248.17604,513.0,512.0,575.0,573.0,93.0,93.0,93.0,93.0,0.0,0.0,0.0,0.0,0.040943917,0.041132845,0.050509725,0.050108276,0.0,0.0,0.0,0.0,-275.50305,-514.6086,-73.43887,-128.26321,0.0,0.0,0.0,2.0,1.0,-2.548019,-0.008698012,-0.017919421,93.0,93.0,93.0,93.0,21.980246,21.980246,24.842789,24.842789,0.023779197,0.023815237,-6.2178384E-4,-6.317832E-4,1190.219,0.0,0.0,0.0,0.0,0.0,0.0,0.0,0.0,0.0,0.0,0.0,0.0,0.0,-38.60955,1.3306717,-57.155273,-0.00633621,-0.005968873,-0.013327096,546270.9,113985.65,0.019405078,0.023018368,6113.1895,6105.314,4696.3965,4505.9346,0.3132496,0.0,0.0,0.0
56.016796,56.016796,0.849,0.0,0.0,249.5417,11624.0,100.0,0.0,0.10287184,0.0,6.0,1.0,0.0,4000000.0,110.0,1.0,0.0,0.0,10.0,0.0,0.0,-266.34442,14.58659,-719.195,-0.04725045,0.66919893,0.008817134,255.47403,255.45305,249.40665,249.36572,511.0,510.0,573.0,571.0,93.0,93.0,93.0,93.0,0.0,0.0,0.0,0.0,0.040821787,0.041041028,0.050494425,0.050116368,0.0,0.0,0.0,0.0,-129.99323,-44.336914,43.82729,166.99431,0.0,0.0,0.0,2.0,1.0,-2.5483408,-0.00802198,-0.017930746,93.0,93.0,93.0,93.0,21.980246,21.980246,24.842789,24.842789,0.023735767,0.023774555,-6.157093E-4,-6.221062E-4,1193.4929,0.0,0.0,0.0,0.0,0.0,0.0,0.0,0.0,0.0,0.0,0.0,0.0,0.0,-38.774807,1.3453543,-57.441887,-0.0078162365,-0.0063997526,-0.010136158,545181.7,113985.65,0.019354682,0.023196237,6059.3535,6059.1772,4694.507,4527.6323,0.31319427,0.0,0.0,0.0
59.489723,59.489723,0.883,0.0,0.0,250.71437,11677.0,100.0,0.0,0.10617545,0.0,6.0,1.0,0.0,4000000.0,110.0,1.0,0.0,0.0,10.0,0.0,0.0,-268.28748,14.654014,-722.0746,-0.046586335,0.6620195,-0.005143695,256.6368,256.59598,250.57858,250.53986,509.0,508.0,571.0,569.0,93.0,93.0,93.0,93.0,0.0,0.0,0.0,0.0,0.040682975,0.040895894,0.05050195,0.050135527,-1.6538053,-0.7425248,0.16406177,0.115782015,154.91096,193.80298,32.481544,-118.45975,0.0,0.0,0.0,2.0,1.0,-2.5486557,-0.0072979154,-0.017891526,93.0,93.0,93.0,93.0,21.980246,21.980246,24.842789,24.842789,0.02359935,0.023582717,-6.139018E-4,-6.1816355E-4,1196.6548,0.0,0.0,0.0,0.0,0.0,0.0,0.0,0.0,0.0,0.0,0.0,0.0,0.0,-38.938175,1.3504848,-57.724567,-0.00815641,-0.0060922597,-0.010897915,544144.94,113985.66,0.01934608,0.0232691,6068.209,6083.2764,4698.4453,4526.0176,0.3133669,0.0,0.0,0.0
62.9788,62.9788,0.933,0.0,0.0,251.86928,11728.0,100.0,0.0,0.09012981,0.0,6.0,1.0,0.0,4000000.0,110.0,1.0,0.0,0.0,10.0,0.0,0.0,-270.23862,14.721677,-724.9682,-0.046426177,0.65050787,-0.0043956246,257.75223,257.7318,251.73479,251.69356,507.0,506.0,569.0,567.0,93.0,93.0,93.0,93.0,0.0,0.0,0.0,0.0,0.040721465,0.04091429,0.05055297,0.050170314,1.9025801,0.40568408,0.0411272,0.48056242,-2.735853,-124.89705,-112.03586,43.036037,0.0,0.0,0.0,2.0,1.0,-2.548986,-0.0066753505,-0.017927289,93.0,93.0,93.0,93.0,21.980246,21.980246,24.842789,24.842789,0.023346294,0.023407076,-6.059805E-4,-6.147741E-4,1199.645,0.0,0.0,0.0,0.0,0.0,0.0,0.0,0.0,0.0,0.0,0.0,0.0,0.0,-39.098095,1.3552747,-58.00362,-0.0064808507,-0.006338351,-0.011346765,543132.5,113985.65,0.01937632,0.023227684,6098.892,6083.6006,4731.591,4560.459,0.31331158,0.0,0.0,0.0
66.48295,66.48295,0.983,0.0,0.0,252.62012,11637.0,100.0,0.0,0.10585483,0.0,6.0,1.0,0.0,4000000.0,110.0,1.0,0.0,0.0,10.0,0.0,0.0,-272.19727,14.789668,-727.875,-0.04912383,-0.016811721,0.06110064,252.87569,252.84734,252.6413,252.60342,505.0,504.0,567.0,565.0,93.0,93.0,93.0,93.0,0.0,0.0,0.0,0.0,0.04042051,0.04060062,0.050672065,0.05030872,-26.34242,-25.673208,5.4191794,5.774572,-1854.278,-1649.1425,305.0476,292.10593,0.0,0.0,0.0,2.0,1.0,-2.5493205,-0.006036585,-0.017769933,93.0,93.0,93.0,93.0,21.980246,21.980246,24.842789,24.842789,7.5544044E-4,7.720261E-4,-4.5458703E-5,-4.528182E-5,1194.289,0.0,0.0,0.0,0.0,0.0,0.0,0.0,0.0,0.0,0.0,0.0,0.0,0.0,-39.194847,1.3693789,-58.18964,-0.028182887,-0.006590069,0.0044925595,544935.9,113985.66,0.018911125,0.02337347,6159.5156,6166.4175,4868.405,4705.213,0.31316662,0.0,0.0,0.0
69.98434,69.98434,1.049,0.0,0.0,251.92459,11134.0,100.0,0.0,0.09284549,0.0,7.0,1.0,0.0,4000000.0,110.0,1.0,0.0,0.0,10.0,0.0,0.0,-274.1533,14.859233,-730.78015,-0.04794041,-0.26397097,0.035334393,254.7893,254.76097,251.88664,251.8511,503.0,502.0,565.0,563.0,93.0,93.0,93.0,93.0,0.0,0.0,0.0,0.0,0.037066728,0.037226606,0.05145804,0.051077627,0.0,0.0,0.0,0.0,560.3265,450.67792,-680.18134,-754.0493,0.0,0.0,0.0,2.0,1.0,-2.549646,-0.005414404,-0.015925646,93.0,93.0,93.0,93.0,21.980246,21.980246,24.842789,24.842789,0.008614306,0.008636751,-1.4198331E-4,-1.3421923E-4,1152.8666,0.0,0.0,0.0,0.0,0.0,0.0,0.0,0.0,0.0,0.0,0.0,0.0,0.0,-39.067104,1.4045299,-58.04185,-0.02318931,-0.006128149,-5.729366E-4,549800.1,113985.65,0.018114751,0.027312458,5733.9053,5724.452,5435.918,5254.5825,0.31446362,0.0,0.0,0.0
73.487366,73.487366,1.083,0.0,0.0,252.90097,10723.0,100.0,0.0,0.09356015,0.0,7.0,1.0,0.0,4000000.0,110.0,1.0,0.0,0.0,10.0,0.0,0.0,-276.10925,14.928509,-733.6873,-0.045493037,0.7476032,-0.15012248,259.63025,259.61365,252.74272,252.70303,501.0,500.0,563.0,561.0,93.0,93.0,93.0,93.0,0.0,0.0,0.0,0.0,0.037736062,0.037924334,0.05062748,0.050305255,46.696808,47.751812,-23.812426,-21.37631,1526.3242,1603.9072,-181.45132,-18.104895,0.0,0.0,0.0,2.0,1.0,-2.549965,-0.0047851745,-0.017011404,93.0,93.0,93.0,93.0,21.980246,21.980246,24.842789,24.842789,0.026731258,0.026789967,-6.7684514E-4,-6.812025E-4,1100.3035,0.0,0.0,0.0,0.0,0.0,0.0,0.0,0.0,0.0,0.0,0.0,0.0,0.0,-39.200016,1.3571937,-58.280506,0.024369083,-0.006130572,-0.029661916,544845.25,113985.65,0.020346483,0.026791506,5852.8564,5843.734,4501.5464,4364.748,0.31540012,0.0,0.0,0.0
77.008026,77.008026,1.133,0.0,0.0,254.21706,10382.0,100.0,0.0,0.111763425,0.0,7.0,1.0,0.0,4000000.0,110.0,1.0,0.0,0.0,10.0,0.0,0.0,-278.07416,14.995277,-736.6097,-0.04745236,0.74478346,-0.008194331,260.6888,260.666,254.06433,254.02574,499.0,498.0,561.0,559.0,93.0,93.0,93.0,93.0,0.0,0.0,0.0,0.0,0.04045572,0.040623758,0.05042105,0.05006575,53.01207,54.25326,6.2088666,4.8105416,-9.199904,214.33524,537.4073,483.48154,0.0,0.0,0.0,2.0,1.0,-2.5502682,-0.004236397,-0.018159986,93.0,93.0,93.0,93.0,21.980246,21.980246,24.842789,24.842789,0.025502263,0.025529759,-6.659877E-4,-6.6975417E-4,1046.3281,0.0,0.0,0.0,0.0,0.0,0.0,0.0,0.0,0.0,0.0,0.0,0.0,0.0,-39.385468,1.3295327,-58.59706,0.005898894,-0.0060553206,-0.017366283,535135.6,113985.65,0.019394593,0.023215426,6221.275,6227.7144,4705.3584,4539.49,0.31332397,0.0,0.0,0.0
80.5463,80.5463,1.183,0.0,0.0,255.39278,10313.0,100.0,0.0,0.08060096,0.0,7.0,1.0,0.0,4000000.0,110.0,1.0,0.0,0.0,10.0,0.0,0.0,-280.04797,15.062667,-739.5473,-0.045332506,0.609779,0.09791048,260.95123,260.92957,255.2623,255.22556,497.0,496.0,559.0,557.0,93.0,93.0,93.0,93.0,0.0,0.0,0.0,0.0,0.042433545,0.04255171,0.050782852,0.050445054,28.591005,26.435627,6.586387,7.334947,-665.1206,-807.76056,-100.18051,-59.35727,0.0,0.0,0.0,2.0,1.0,-2.5505896,-0.0036733316,-0.018541217,93.0,93.0,93.0,93.0,21.980246,21.980246,24.842789,24.842789,0.021734737,0.021785242,-5.778428E-4,-5.837656E-4,1032.7057,0.0,0.0,0.0,0.0,0.0,0.0,0.0,0.0,0.0,0.0,0.0,0.0,0.0,-39.548126,1.3708336,-58.880356,-0.006351034,-0.005722213,-0.010326978,531702.3,113985.65,0.017907578,0.02063904,6435.84,6419.7437,4958.9404,4803.752,0.3112383,0.0,0.0,0.0
84.099724,84.099724,1.249,0.0,0.0,256.45117,10358.0,100.0,0.0,0.08611362,0.0,7.0,1.0,0.0,4000000.0,110.0,1.0,0.0,0.0,10.0,0.0,0.0,-282.0292,15.13242,-742.49805,-0.04376729,0.59686416,0.03631716,262.0949,262.07892,256.31766,256.28632,494.0,494.0,557.0,555.0,93.0,93.0,93.0,93.0,0.0,0.0,0.0,0.0,0.042531867,0.04268246,0.05086067,0.05056333,0.0,0.0,0.0,0.0,-511.47037,-498.97128,-212.042,-210.40585,0.0,0.0,0.0,2.0,1.0,-2.550852,-0.0030896077,-0.018507838,93.0,93.0,93.0,93.0,21.980246,21.980246,24.842789,24.842789,0.021970984,0.02200508,-5.7617575E-4,-5.78492E-4,1041.5696,0.0,0.0,0.0,0.0,0.0,0.0,0.0,0.0,0.0,0.0,0.0,0.0,0.0,-39.694084,1.4098377,-59.135624,-0.007029494,-0.0049676807,-0.0074720047,533936.25,113985.65,0.017974954,0.02083577,6293.6523,6289.5366,4916.8394,4782.8335,0.31122112,0.0,0.0,0.0
87.66777,87.66777,1.283,0.0,0.0,257.50146,10403.0,100.0,0.0,0.087162875,0.0,7.0,1.0,0.0,4000000.0,110.0,1.0,0.0,0.0,10.0,0.0,0.0,-284.01776,15.203048,-745.46155,-0.042039037,0.5933881,-0.023703728,263.22934,263.2198,257.3686,257.3361,492.0,491.0,555.0,553.0,93.0,93.0,93.0,93.0,0.0,0.0,0.0,0.0,0.041997448,0.04209676,0.05072693,0.050468285,-10.992362,-13.339071,-1.5936791,-1.1377035,31.12707,-36.49143,142.17046,37.309525,0.0,0.0,0.0,2.0,1.0,-2.5511136,-0.002651191,-0.018334985,93.0,93.0,93.0,93.0,21.980246,21.980246,24.842789,24.842789,0.022205612,0.022264395,-5.7530846E-4,-5.776689E-4,1050.4377,0.0,0.0,0.0,0.0,0.0,0.0,0.0,0.0,0.0,0.0,0.0,0.0,0.0,-39.839436,1.4109949,-59.389477,-0.0072960583,-0.0052387486,-0.0039364505,536153.0,113985.65,0.018438062,0.021751717,6193.67,6172.9805,4836.574,4717.8,0.31201267,0.0,0.0,0.0
91.25035,91.25035,1.333,0.0,0.0,258.5479,10444.0,100.0,0.0,0.11368741,0.0,7.0,1.0,0.0,4000000.0,110.0,1.0,0.0,0.0,10.0,0.0,0.0,-286.01352,15.273366,-748.43774,-0.045627087,0.59204435,-0.018908283,264.27112,264.25613,258.41772,258.37833,490.0,489.0,553.0,551.0,93.0,93.0,93.0,93.0,0.0,0.0,0.0,0.0,0.04171383,0.041731585,0.050764997,0.050486624,-1.5120952,-2.2698193,1.8520652,1.0268389,319.93387,295.7135,39.267536,28.94103,0.0,0.0,0.0,2.0,1.0,-2.5514185,-0.002311994,-0.018238902,93.0,93.0,93.0,93.0,21.980246,21.980246,24.842789,24.842789,0.022109812,0.022194585,-5.752306E-4,-5.760334E-4,1058.5654,0.0,0.0,0.0,0.0,0.0,0.0,0.0,0.0,0.0,0.0,0.0,0.0,0.0,-39.98305,1.4037017,-59.64339,-0.0035326218,-0.00647248,-0.0054958486,538180.4,113985.65,0.018324334,0.021944793,6238.3843,6210.507,4893.3145,4761.327,0.3120346,0.0,0.0,0.0
94.84745,94.84745,1.383,0.0,0.0,259.58774,10484.0,100.0,0.0,0.10808872,0.0,7.0,1.0,0.0,4000000.0,110.0,1.0,0.0,0.0,10.0,0.0,0.0,-288.01642,15.343591,-751.4266,-0.04811661,0.58766294,0.0063184304,265.27463,265.2649,259.4597,259.4158,488.0,487.0,551.0,550.0,93.0,93.0,93.0,93.0,0.0,0.0,0.0,0.0,0.042016283,0.041984893,0.050851636,0.05057976,9.417683,8.440017,1.7827748,2.7709453,140.41365,199.74405,17.635523,80.479675,0.0,0.0,0.0,2.0,1.0,-2.5517752,-0.0020049596,-0.01831901,93.0,93.0,93.0,93.0,21.980246,21.980246,24.842789,24.842789,0.021881105,0.021985313,-5.711161E-4,-5.7494605E-4,1066.4967,0.0,0.0,0.0,0.0,0.0,0.0,0.0,0.0,0.0,0.0,0.0,0.0,0.0,-40.124226,1.40725,-59.896473,-0.0010637731,-0.007143547,-0.0058589843,540143.94,113985.65,0.018016623,0.021434285,6331.041,6294.415,4956.314,4835.927,0.3116026,0.0,0.0,0.0
98.459015,98.459015,1.433,0.0,0.0,260.6185,10524.0,100.0,0.0,0.14481325,0.0,7.0,1.0,0.0,4000000.0,110.0,1.0,0.0,0.0,10.0,0.0,0.0,-290.0263,15.414218,-754.4281,-0.054546252,0.58197093,0.0034652986,266.30795,266.28842,260.4923,260.44434,486.0,485.0,549.0,548.0,93.0,93.0,93.0,93.0,0.0,0.0,0.0,0.0,0.042347316,0.042345334,0.050939742,0.0506111,3.1692533,5.6053696,1.5138834,-0.018998979,-228.6851,-141.88882,56.862823,-56.755535,0.0,0.0,0.0,2.0,1.0,-2.5521505,-0.0016760983,-0.018457294,93.0,93.0,93.0,93.0,21.980246,21.980246,24.842789,24.842789,0.021799196,0.02188027,-5.7093974E-4,-5.697574E-4,1072.999,0.0,0.0,0.0,0.0,0.0,0.0,0.0,0.0,0.0,0.0,0.0,0.0,0.0,-40.2623,1.4164753,-60.14845,-0.001191647,-0.007984223,-0.006779447,541371.6,113985.65,0.017661147,0.020915061,6341.984,6320.9385,4994.8843,4836.4824,0.3112936,0.0,0.0,0.0
102.08483,102.08483,1.483,0.0,0.0,261.64044,10564.0,100.0,0.0,0.18292567,0.0,7.0,1.0,0.0,4000000.0,110.0,1.0,0.0,0.0,10.0,0.0,0.0,-292.04297,15.48526,-757.4422,-0.0654307,0.57703906,0.0019235965,267.30334,267.29797,261.52158,261.45984,484.0,483.0,547.0,546.0,93.0,93.0,93.0,93.0,0.0,0.0,0.0,0.0,0.042704992,0.042569112,0.050952997,0.05062325,8.579939,2.9551237,-0.20250677,-0.3967434,205.2426,-109.62187,-14.068185,-56.782352,0.0,0.0,0.0,2.0,1.0,-2.5526145,-0.0014026588,-0.018533826,93.0,93.0,93.0,93.0,21.980246,21.980246,24.842789,24.842789,0.02157715,0.021771062,-5.6908163E-4,-5.6846056E-4,1078.4525,0.0,0.0,0.0,0.0,0.0,0.0,0.0,0.0,0.0,0.0,0.0,0.0,0.0,-40.394974,1.4240286,-60.401123,-0.0031301836,-0.010356466,-0.0032572753,542062.9,113985.65,0.01758317,0.020445498,6424.1304,6344.2334,4988.9873,4836.6304,0.3108902,0.0,0.0,0.0
105.724686,105.724686,1.533,0.0,0.0,262.64963,10605.0,100.0,0.0,0.24191087,0.0,7.0,1.0,0.0,4000000.0,110.0,1.0,0.0,0.0,10.0,0.0,0.0,-294.066,15.556593,-760.46893,-0.082249805,0.5692103,-0.005049946,268.34085,268.32104,262.5426,262.45822,482.0,481.0,545.0,544.0,93.0,93.0,93.0,93.0,0.0,0.0,0.0,0.0,0.042802382,0.042561375,0.051049314,0.050633118,-0.98526466,-1.5874206,2.1978467,0.83550805,-146.50223,-60.57768,-46.44244,78.226616,0.0,0.0,0.0,2.0,1.0,-2.5532436,-0.0012100097,-0.018431544,93.0,93.0,93.0,93.0,21.980246,21.980246,24.842789,24.842789,0.02155938,0.021773087,-5.639647E-4,-5.628043E-4,1084.0563,0.0,0.0,0.0,0.0,0.0,0.0,0.0,0.0,0.0,0.0,0.0,0.0,0.0,-40.51904,1.428254,-60.655346,-0.0029339488,-0.014227823,-0.0026580621,542772.94,113985.66,0.017446812,0.020498395,6392.941,6313.632,5064.2314,4874.921,0.3109703,0.0,0.0,0.0
109.378586,109.378586,1.583,0.0,0.0,263.6489,10644.0,100.0,0.0,0.2617364,0.0,7.0,1.0,0.0,4000000.0,110.0,1.0,0.0,0.0,10.0,0.0,0.0,-296.0951,15.628012,-763.5085,-0.09742132,0.5639854,-0.013513869,269.32855,269.312,263.5479,263.45203,480.0,479.0,543.0,542.0,93.0,93.0,93.0,93.0,0.0,0.0,0.0,0.0,0.04295107,0.042568423,0.051056217,0.05063004,3.588572,1.304224,-0.20831822,0.597462,7.4297185,116.3542,39.75033,52.62493,0.0,0.0,0.0,2.0,1.0,-2.5540125,-9.961942E-4,-0.018380046,93.0,93.0,93.0,93.0,21.980246,21.980246,24.842789,24.842789,0.021415744,0.02167207,-5.613059E-4,-5.6212884E-4,1089.4105,0.0,0.0,0.0,0.0,0.0,0.0,0.0,0.0,0.0,0.0,0.0,0.0,0.0,-40.635235,1.4277085,-60.9116,-0.0032951038,-0.016115047,-0.0010933318,543455.1,113985.65,0.017513204,0.020435082,6438.4473,6335.413,5048.539,4856.6484,0.31089878,0.0,0.0,0.0
113.046326,113.046326,1.633,0.0,0.0,264.63718,10682.0,100.0,0.0,0.25822598,0.0,7.0,1.0,0.0,4000000.0,110.0,1.0,0.0,0.0,10.0,0.0,0.0,-298.1297,15.699417,-766.56085,-0.11003341,0.5585181,-0.0037299301,270.3055,270.28268,264.5398,264.4353,478.0,477.0,541.0,540.0,93.0,93.0,93.0,93.0,0.0,0.0,0.0,0.0,0.04307478,0.04264027,0.05122626,0.050659306,4.0597467,4.4088807,3.2781062,-0.19893049,186.45374,226.41864,-47.82377,-94.82948,0.0,0.0,0.0,2.0,1.0,-2.5548692,-8.7557826E-4,-0.018415213,93.0,93.0,93.0,93.0,21.980246,21.980246,24.842789,24.842789,0.021294368,0.021570345,-5.5575784E-4,-5.6166924E-4,1094.6509,0.0,0.0,0.0,0.0,0.0,0.0,0.0,0.0,0.0,0.0,0.0,0.0,0.0,-40.74327,1.4293753,-61.16952,0.0010459344,-0.01733487,-0.0056477673,544126.75,113985.65,0.0172032,0.020224104,6475.415,6358.513,5170.122,4898.927,0.31064796,0.0,0.0,0.0
116.72774,116.72774,1.683,0.0,0.0,265.61646,10720.0,100.0,0.0,0.2631451,0.0,7.0,1.0,0.0,4000000.0,110.0,1.0,0.0,0.0,10.0,0.0,0.0,-300.1696,15.770977,-769.62616,-0.11976199,0.55230534,0.003267222,271.24112,271.2512,265.51886,265.41656,476.0,475.0,540.0,538.0,93.0,93.0,93.0,93.0,0.0,0.0,0.0,0.0,0.043598764,0.04298613,0.051186148,0.050693743,12.1168785,4.3487544,0.47452745,1.875311,89.61261,-240.47345,172.41237,75.62487,0.0,0.0,0.0,2.0,1.0,-2.5557334,-7.1090733E-4,-0.018483996,93.0,93.0,93.0,93.0,21.980246,21.980246,24.842789,24.842789,0.021043124,0.021420576,-5.5342977E-4,-5.58689E-4,1099.8706,0.0,0.0,0.0,0.0,0.0,0.0,0.0,0.0,0.0,0.0,0.0,0.0,0.0,-40.845978,1.4336027,-61.427887,-0.0021594395,-0.01701669,-2.2341352E-4,544783.3,113985.66,0.017216714,0.019683028,6573.042,6391.0015,5139.4424,4914.878,0.31037235,0.0,0.0,0.0
120.42268,120.42268,1.733,0.0,0.0,266.58295,10758.0,100.0,0.0,0.25683904,0.0,7.0,1.0,0.0,4000000.0,110.0,1.0,0.0,0.0,10.0,0.0,0.0,-302.21442,15.842847,-772.70435,-0.12226325,0.5460391,-0.005924185,272.22363,272.22052,266.48398,266.38348,474.0,473.0,538.0,536.0,93.0,93.0,93.0,93.0,0.0,0.0,0.0,0.0,0.043692015,0.04307681,0.05130696,0.050750446,-0.54180616,3.4034996,0.41641292,-0.6113201,-59.062233,127.98159,-215.48866,-129.87254,0.0,0.0,0.0,2.0,1.0,-2.5565817,-6.278322E-4,-0.018524766,93.0,93.0,93.0,93.0,21.980246,21.980246,24.842789,24.842789,0.021040978,0.021355622,-5.5029936E-4,-5.5537635E-4,1105.1323,0.0,0.0,0.0,0.0,0.0,0.0,0.0,0.0,0.0,0.0,0.0,0.0,0.0,-40.944466,1.4395514,-61.684704,0.00187836,-0.016685411,-0.0031161215,545456.06,113985.66,0.016911857,0.019593736,6541.5615,6399.6943,5197.205,4943.7607,0.30981445,0.0,0.0,0.0
124.13146,124.13146,1.799,0.0,0.0,267.54193,10795.0,100.0,0.0,0.26418552,0.0,7.0,1.0,0.0,4000000.0,110.0,1.0,0.0,0.0,10.0,0.0,0.0,-304.2642,15.914901,-775.79535,-0.124314815,0.5408901,0.0050566215,273.14792,273.15817,267.4425,267.3453,472.0,471.0,536.0,534.0,93.0,93.0,93.0,93.0,0.0,0.0,0.0,0.0,0.04414334,0.043345682,0.051272415,0.05077785,0.0,0.0,0.0,0.0,118.271996,-139.7833,107.154236,138.29468,0.0,0.0,0.0,2.0,1.0,-2.557402,-5.9913634E-4,-0.018551588,93.0,93.0,93.0,93.0,21.980246,21.980246,24.842789,24.842789,0.020821128,0.021185674,-5.487566E-4,-5.513697E-4,1110.2388,0.0,0.0,0.0,0.0,0.0,0.0,0.0,0.0,0.0,0.0,0.0,0.0,0.0,-41.040947,1.443755,-61.940315,-0.0023649982,-0.016252257,0.0011031034,546098.2,113985.66,0.016935594,0.019167187,6643.1323,6448.836,5191.295,4971.84,0.30959988,0.0,0.0,0.0
127.85424,127.85424,1.849,0.0,0.0,268.48804,10833.0,100.0,0.0,0.25371528,0.0,7.0,1.0,0.0,4000000.0,110.0,1.0,0.0,0.0,10.0,0.0,0.0,-306.31873,15.987368,-778.89905,-0.121954694,0.5349926,0.008039507,274.10965,274.08618,268.38666,268.29068,470.0,469.0,534.0,532.0,93.0,93.0,93.0,93.0,0.0,0.0,0.0,0.0,0.044145424,0.04352916,0.05149259,0.050853875,0.0,0.0,0.0,0.0,-4.4658704,344.93204,-131.18681,-173.49866,0.0,0.0,0.0,2.0,1.0,-2.558205,-4.3167148E-4,-0.018661499,93.0,93.0,93.0,93.0,21.980246,21.980246,24.842789,24.842789,0.020840764,0.021074144,-5.4584804E-4,-5.477947E-4,1115.4761,0.0,0.0,0.0,0.0,0.0,0.0,0.0,0.0,0.0,0.0,0.0,0.0,0.0,-41.135696,1.4539099,-62.192593,0.002958177,-0.015927665,-0.0095529435,546749.7,113985.66,0.01645707,0.019032145,6596.2676,6490.913,5335.552,5029.166,0.30909157,0.0,0.0,0.0
131.59035,131.59035,1.899,0.0,0.0,269.42715,10869.0,100.0,0.0,0.23909013,0.0,7.0,1.0,0.0,4000000.0,110.0,1.0,0.0,0.0,10.0,0.0,0.0,-308.37802,16.060265,-782.0153,-0.120229304,0.5294313,0.010650029,275.00717,275.00833,269.32544,269.23325,468.0,467.0,532.0,530.0,93.0,93.0,93.0,93.0,0.0,0.0,0.0,0.0,0.04465088,0.044003185,0.051368844,0.050869457,0.0,0.0,0.0,0.0,-41.574265,-405.77795,242.55212,115.965294,0.0,0.0,0.0,2.0,1.0,-2.558993,-1.7901143E-4,-0.018828511,93.0,93.0,93.0,93.0,21.980246,21.980246,24.842789,24.842789,0.020584121,0.020904629,-5.430541E-4,-5.47069E-4,1120.4675,0.0,0.0,0.0,0.0,0.0,0.0,0.0,0.0,0.0,0.0,0.0,0.0,0.0,-41.22979,1.4621291,-62.442963,-0.003281694,-0.015295178,-0.0018920961,547377.2,113985.65,0.01651022,0.018353833,6710.0933,6533.7725,5245.9385,5025.52,0.30864525,0.0,0.0,0.0
135.33928,135.33928,1.933,0.0,0.0,270.3543,10906.0,100.0,0.0,0.2251032,0.0,7.0,1.0,0.0,4000000.0,110.0,1.0,0.0,0.0,10.0,0.0,0.0,-310.44193,16.133564,-785.1439,-0.11775172,0.52469677,0.004117855,275.95795,275.9264,270.2527,270.15915,466.0,465.0,530.0,528.0,93.0,93.0,93.0,93.0,0.0,0.0,0.0,0.0,0.04456694,0.044124026,0.051549524,0.0508678,-0.9506195,6.3843274,3.3279507,-1.611784,188.15695,306.34845,1.823902,-187.15111,0.0,0.0,0.0,2.0,1.0,-2.5597758,9.444824E-5,-0.01885295,93.0,93.0,93.0,93.0,21.980246,21.980246,24.842789,24.842789,0.020619448,0.02081684,-5.403018E-4,-5.4558564E-4,1125.605,0.0,0.0,0.0,0.0,0.0,0.0,0.0,0.0,0.0,0.0,0.0,0.0,0.0,-41.32233,1.4692985,-62.690342,-0.0025714547,-0.015357829,-0.009326392,548021.4,113985.65,0.016243283,0.018299224,6661.982,6570.0625,5364.0615,5032.416,0.3082142,0.0,0.0,0.0
139.10123,139.10123,1.983,0.0,0.0,271.2723,10941.0,100.0,0.0,0.24200608,0.0,7.0,1.0,0.0,4000000.0,110.0,1.0,0.0,0.0,10.0,0.0,0.0,-312.5105,16.207304,-788.2849,-0.12046486,0.51668084,0.022288982,276.8536,276.8342,271.17148,271.07797,464.0,463.0,528.0,527.0,93.0,93.0,93.0,93.0,0.0,0.0,0.0,0.0,0.044970784,0.04447794,0.051568437,0.050949205,8.019581,3.4318862,2.6115773,0.38221475,-154.89755,-493.78116,108.8172,-274.0547,0.0,0.0,0.0,2.0,1.0,-2.560551,5.999233E-4,-0.018913865,93.0,93.0,93.0,93.0,21.980246,21.980246,24.842789,24.842789,0.020439755,0.020699797,-5.3753756E-4,-5.3911534E-4,1130.4987,0.0,0.0,0.0,0.0,0.0,0.0,0.0,0.0,0.0,0.0,0.0,0.0,0.0,-41.413216,1.4820263,-62.935574,-0.0055781677,-0.015461722,-0.010372208,548643.25,113985.65,0.016415084,0.018122649,6734.3994,6591.3394,5387.7793,5085.6553,0.30823326,0.0,0.0,0.0
142.87587,142.87587,2.033,0.0,0.0,272.17816,10977.0,100.0,0.0,0.2658439,0.0,7.0,1.0,0.0,4000000.0,110.0,1.0,0.0,0.0,10.0,0.0,0.0,-314.5835,16.28173,-791.43805,-0.1248796,0.51202834,0.010838632,277.7533,277.73276,272.0797,271.97897,462.0,461.0,526.0,525.0,93.0,93.0,93.0,93.0,0.0,0.0,0.0,0.0,0.044896927,0.044745192,0.05164642,0.050973125,3.87758,6.9145107,-4.0351596,-0.398308,547.5863,-28.257063,-576.70166,-179.17154,0.0,0.0,0.0,2.0,1.0,-2.5613673,0.0013150588,-0.01919961,93.0,93.0,93.0,93.0,21.980246,21.980246,24.842789,24.842789,0.020366507,0.020616591,-5.3664483E-4,-5.380372E-4,1135.5,0.0,0.0,0.0,0.0,0.0,0.0,0.0,0.0,0.0,0.0,0.0,0.0,0.0,-41.50112,1.4941581,-63.178696,1.4638575E-4,-0.016681176,-0.014685639,549263.2,113985.65,0.016471535,0.018104592,6743.2314,6628.4897,5374.1846,5085.404,0.30785656,0.0,0.0,0.0
146.66318,146.66318,2.083,0.0,0.0,273.07404,11014.0,100.0,0.0,0.25197774,0.0,7.0,1.0,0.0,4000000.0,110.0,1.0,0.0,0.0,10.0,0.0,0.0,-316.6608,16.356607,-794.6034,-0.12578617,0.5020968,-0.02969087,278.69437,278.67053,272.97836,272.8764,460.0,459.0,524.0,523.0,93.0,93.0,93.0,93.0,0.0,0.0,0.0,0.0,0.045223985,0.04478347,0.051490363,0.050955195,-10.146796,-9.258761,-2.8757749,0.0,-1728.4556,-1028.8147,-135.42471,25.400517,0.0,0.0,0.0,2.0,1.0,-2.5622208,0.0017519386,-0.019243002,93.0,93.0,93.0,93.0,21.980246,21.980246,24.842789,24.842789,0.020441573,0.020665595,-5.321141E-4,-5.3523865E-4,1140.1765,0.0,0.0,0.0,0.0,0.0,0.0,0.0,0.0,0.0,0.0,0.0,0.0,0.0,-41.58577,1.4974462,-63.420776,-0.0050875805,-0.016948018,-0.0021834564,549672.5,113985.65,0.016323887,0.01788983,6631.318,6531.618,5285.791,5054.889,0.30787373,0.0,0.0,0.0
150.46295,150.46295,2.133,0.0,0.0,273.96497,11045.0,100.0,0.0,0.25187388,0.0,7.0,1.0,0.0,4000000.0,110.0,1.0,0.0,0.0,10.0,0.0,0.0,-318.74225,16.431759,-797.7808,-0.12967502,0.5035452,0.057328958,279.481,279.44504,273.86865,273.76453,458.0,457.0,522.0,521.0,93.0,93.0,93.0,93.0,0.0,0.0,0.0,0.0,0.045482837,0.04524205,0.051872604,0.051063266,19.355043,26.455296,4.408434,2.5221703,979.8511,1292.9855,-223.33408,-64.641235,0.0,0.0,0.0,2.0,1.0,-2.563086,0.002299121,-0.019517183,93.0,93.0,93.0,93.0,21.980246,21.980246,24.842789,24.842789,0.020034196,0.020214416,-5.307086E-4,-5.332213E-4,1143.4541,0.0,0.0,0.0,0.0,0.0,0.0,0.0,0.0,0.0,0.0,0.0,0.0,0.0,-41.66787,1.5150025,-63.6625,-7.166341E-4,-0.017122246,-0.019859554,549705.44,113985.65,0.015623646,0.017077437,6898.241,6821.47,5581.282,5215.7803,0.306962,0.0,0.0,0.0
154.27512,154.27512,2.183,0.0,0.0,274.84094,11080.0,100.0,0.0,0.22427575,0.0,7.0,1.0,0.0,4000000.0,110.0,1.0,0.0,0.0,10.0,0.0,0.0,-320.8278,16.50821,-800.9703,-0.12776192,0.49332356,0.052070085,280.37436,280.32483,274.74283,274.64478,456.0,455.0,520.0,519.0,93.0,93.0,93.0,93.0,0.0,0.0,0.0,0.0,0.04616054,0.045751423,0.051894702,0.05115002,5.6612487,2.9305367,8.027181,-1.1410563,-549.18225,-382.7109,449.13586,-353.95767,0.0,0.0,0.0,2.0,1.0,-2.5639231,0.0030284962,-0.019780517,93.0,93.0,93.0,93.0,21.980246,21.980246,24.842789,24.842789,0.019997524,0.020153854,-5.2619603E-4,-5.2920374E-4,1147.1554,0.0,0.0,0.0,0.0,0.0,0.0,0.0,0.0,0.0,0.0,0.0,0.0,0.0,-41.74771,1.5427315,-63.900414,-0.00523579,-0.016039511,-0.019246062,549742.75,113985.65,0.015262839,0.016546404,6858.4507,6778.146,5617.2275,5243.3486,0.3069029,0.0,0.0,0.0
158.09941,158.09941,2.249,0.0,0.0,275.70798,11113.0,100.0,0.0,0.24276128,0.0,7.0,1.0,0.0,4000000.0,110.0,1.0,0.0,0.0,10.0,0.0,0.0,-322.91727,16.585833,-804.1716,-0.12840827,0.489408,0.019657515,281.21912,281.1699,275.60947,275.5124,454.0,453.0,519.0,517.0,93.0,93.0,93.0,93.0,0.0,0.0,0.0,0.0,0.046238035,0.046125576,0.051794663,0.051069688,0.0,0.0,0.0,0.0,563.07605,-459.90488,-198.17497,66.73335,0.0,0.0,0.0,2.0,1.0,-2.5647454,0.0039062896,-0.020128965,93.0,93.0,93.0,93.0,21.980246,21.980246,24.842789,24.842789,0.01985058,0.020007968,-5.28012E-4,-5.289208E-4,1150.6466,0.0,0.0,0.0,0.0,0.0,0.0,0.0,0.0,0.0,0.0,0.0,0.0,0.0,-41.826206,1.5597836,-64.13643,-0.009165758,-0.015960602,-0.015109646,549778.4,113985.66,0.015515024,0.016079677,6918.7373,6825.1597,5444.3594,5128.4595,0.30659676,0.0,0.0,0.0
161.9357,161.9357,2.283,0.0,0.0,276.5629,11148.0,100.0,0.0,0.24478473,0.0,7.0,1.0,0.0,4000000.0,110.0,1.0,0.0,0.0,10.0,0.0,0.0,-325.01062,16.664131,-807.3846,-0.13121209,0.48191035,0.03262078,282.10776,282.0584,276.4651,276.36716,452.0,451.0,517.0,515.0,93.0,93.0,93.0,93.0,0.0,0.0,0.0,0.0,0.046144713,0.04592371,0.052009523,0.051181823,-6.0110536,-5.1107254,14.832392,0.8773058,-211.33122,6.933517,748.80566,-116.568794,0.0,0.0,0.0,2.0,1.0,-2.5655522,0.0046089487,-0.02007401,93.0,93.0,93.0,93.0,21.980246,21.980246,24.842789,24.842789,0.019922731,0.020094818,-5.2383996E-4,-5.199046E-4,1154.3491,0.0,0.0,0.0,0.0,0.0,0.0,0.0,0.0,0.0,0.0,0.0,0.0,0.0,-41.902576,1.5738541,-64.36983,-0.0049260617,-0.016300537,-0.019320244,549815.8,113985.65,0.014681667,0.016219698,6825.8765,6747.082,5752.2886,5304.634,0.30677605,0.0,0.0,0.0
165.78384,165.78384,2.333,0.0,0.0,277.41187,11179.0,100.0,0.0,0.24486867,0.0,7.0,1.0,0.0,4000000.0,110.0,1.0,0.0,0.0,10.0,0.0,0.0,-327.10776,16.743177,-810.6092,-0.13154939,0.47961354,0.014582818,282.87277,282.86368,277.315,277.2165,450.0,449.0,515.0,513.0,93.0,93.0,93.0,93.0,0.0,0.0,0.0,0.0,0.046498567,0.04643229,0.05178586,0.05113465,23.345276,8.474439,-9.29743,-0.15981494,1245.0947,-390.70395,-212.27,80.53331,0.0,0.0,0.0,2.0,1.0,-2.566394,0.005617729,-0.020385742,93.0,93.0,93.0,93.0,21.980246,21.980246,24.842789,24.842789,0.01953277,0.019844055,-5.2237645E-4,-5.2613445E-4,1157.6287,0.0,0.0,0.0,0.0,0.0,0.0,0.0,0.0,0.0,0.0,0.0,0.0,0.0,-41.977673,1.5863028,-64.60205,-0.011389084,-0.016115703,-0.011752,549848.9,113985.65,0.015342373,0.015464187,7040.021,6867.38,5421.7686,5163.0283,0.30643845,0.0,0.0,0.0
169.64378,169.64378,2.383,0.0,0.0,278.24414,11215.0,100.0,0.0,0.25949094,0.0,7.0,1.0,0.0,4000000.0,110.0,1.0,0.0,0.0,10.0,0.0,0.0,-329.20856,16.822733,-813.84534,-0.1325984,0.46938,0.004355943,283.80136,283.7386,278.14932,278.04684,448.0,447.0,513.0,511.0,93.0,93.0,93.0,93.0,0.0,0.0,0.0,0.0,0.04625649,0.04612971,0.052018907,0.051243324,-14.200061,-4.728511,5.5043397,1.7707049,-493.98236,301.05106,-334.43115,-2.5078652,0.0,0.0,0.0,2.0,1.0,-2.5672274,0.0063854437,-0.0202384,93.0,93.0,93.0,93.0,21.980246,21.980246,24.842789,24.842789,0.019850122,0.01994045,-5.1873305E-4,-5.158072E-4,1161.4368,0.0,0.0,0.0,0.0,0.0,0.0,0.0,0.0,0.0,0.0,0.0,0.0,0.0,-42.0493,1.5951912,-64.831024,-0.0038830945,-0.017089712,-0.017017167,549886.8,113985.65,0.014770541,0.016224789,6785.1484,6775.3584,5676.3037,5326.877,0.3067932,0.0,0.0,0.0
173.51523,173.51523,2.433,0.0,0.0,279.0727,11246.0,100.0,0.0,0.24407466,0.0,7.0,1.0,0.0,4000000.0,110.0,1.0,0.0,0.0,10.0,0.0,0.0,-331.3129,16.902573,-817.0929,-0.13197115,0.46674562,-0.013355242,284.55814,284.52838,278.97748,278.87708,446.0,445.0,511.0,510.0,93.0,93.0,93.0,93.0,0.0,0.0,0.0,0.0,0.04651584,0.04641073,0.051780727,0.051199432,5.483329,3.0349193,-7.070079,2.479702,-573.644,-334.92737,108.36124,230.21397,0.0,0.0,0.0,2.0,1.0,-2.5680902,0.0072126477,-0.020410776,93.0,93.0,93.0,93.0,21.980246,21.980246,24.842789,24.842789,0.019550508,0.01973364,-5.188525E-4,-5.1962555E-4,1164.7163,0.0,0.0,0.0,0.0,0.0,0.0,0.0,0.0,0.0,0.0,0.0,0.0,0.0,-42.119926,1.5969135,-65.059525,-0.009540587,-0.01662219,-0.0056707845,549919.44,113985.65,0.015036275,0.015415746,6932.9473,6860.0874,5448.578,5215.92,0.306736,0.0,0.0,0.0
177.39824,177.39824,2.499,0.0,0.0,279.88867,11277.0,100.0,0.0,0.22175942,0.0,7.0,1.0,0.0,4000000.0,110.0,1.0,0.0,0.0,10.0,0.0,0.0,-333.42072,16.982756,-820.35187,-0.1317746,0.46283925,0.029538104,285.367,285.30176,279.79108,279.69104,444.0,444.0,509.0,508.0,93.0,93.0,93.0,93.0,0.0,0.0,0.0,0.0,0.04648059,0.046601165,0.05223501,0.051266864,0.0,0.0,0.0,0.0,611.0876,1075.4047,-634.81177,-326.88077,0.0,0.0,0.0,2.0,1.0,-2.5689385,0.008111989,-0.02059555,93.0,93.0,93.0,93.0,21.980246,21.980246,24.842789,24.842789,0.019488467,0.019568056,-5.1563425E-4,-5.1684264E-4,1167.9977,0.0,0.0,0.0,0.0,0.0,0.0,0.0,0.0,0.0,0.0,0.0,0.0,0.0,-42.187965,1.6116723,-65.28516,-0.0040631145,-0.016316492,-0.029555311,549952.8,113985.65,0.014356265,0.015192735,6968.57,6969.9873,5783.429,5334.1953,0.30633068,0.0,0.0,0.0
181.29239,181.29239,2.533,0.0,0.0,280.69595,11310.0,100.0,0.0,0.22548546,0.0,7.0,1.0,0.0,4000000.0,110.0,1.0,0.0,0.0,10.0,0.0,0.0,-335.53183,17.063541,-823.622,-0.13055229,0.45114386,0.010169722,286.17966,286.147,280.59872,280.50677,442.0,442.0,507.0,506.0,93.0,93.0,93.0,93.0,0.0,0.0,0.0,0.0,0.047258314,0.04693378,0.051846094,0.05129744,6.3204017,-8.590892,0.533089,2.852976,-1250.1238,-1102.3475,560.9303,148.71506,0.0,0.0,0.0,2.0,1.0,-2.569726,0.009037579,-0.020499349,93.0,93.0,93.0,93.0,21.980246,21.980246,24.842789,24.842789,0.019382598,0.019563239,-5.10644E-4,-5.0992134E-4,1171.49,0.0,0.0,0.0,0.0,0.0,0.0,0.0,0.0,0.0,0.0,0.0,0.0,0.0,-42.255215,1.6200523,-65.50851,-0.017333133,-0.015081236,-0.0068592,549987.7,113985.65,0.0150532825,0.015075654,6973.286,6860.273,5561.386,5313.3555,0.30689812,0.0,0.0,0.0
185.1978,185.1978,2.583,0.0,0.0,281.48984,11340.0,100.0,0.0,0.19770558,0.0,7.0,1.0,0.0,4000000.0,110.0,1.0,0.0,0.0,10.0,0.0,0.0,-337.64627,17.144653,-826.9032,-0.12658423,0.45015877,0.008645946,286.96906,286.90958,281.39005,281.29578,440.0,440.0,506.0,504.0,93.0,93.0,93.0,93.0,0.0,0.0,0.0,0.0,0.046671204,0.046753675,0.052229397,0.051304515,-1.9848344,6.7578254,3.125444,-2.5192647,703.30194,694.692,-347.45334,-90.390434,0.0,0.0,0.0,2.0,1.0,-2.5705154,0.009899261,-0.020663857,93.0,93.0,93.0,93.0,21.980246,21.980246,24.842789,24.842789,0.01939377,0.019475352,-5.0989725E-4,-5.118693E-4,1174.6671,0.0,0.0,0.0,0.0,0.0,0.0,0.0,0.0,0.0,0.0,0.0,0.0,0.0,-42.321392,1.6253273,-65.728134,-0.003296446,-0.0153983645,-0.027471935,550020.4,113985.65,0.014785319,0.015468274,6960.8867,6944.8115,5772.1597,5336.452,0.30679798,0.0,0.0,0.0
189.11429,189.11429,2.649,0.0,0.0,282.2792,11371.0,100.0,0.0,0.19256674,0.0,7.0,1.0,0.0,4000000.0,110.0,1.0,0.0,0.0,10.0,0.0,0.0,-339.76416,17.225563,-830.1954,-0.12806839,0.44197732,0.036457367,287.73428,287.71768,282.18008,282.09164,439.0,438.0,504.0,502.0,93.0,93.0,93.0,93.0,0.0,0.0,0.0,0.0,0.047113266,0.046990685,0.052140992,0.0512988,0.0,0.0,0.0,0.0,92.49595,-574.8107,1499.824,46.85819,0.0,0.0,0.0,2.0,1.0,-2.5712705,0.01041955,-0.020527124,93.0,93.0,93.0,93.0,21.980246,21.980246,24.842789,24.842789,0.01917128,0.019429028,-5.0607166E-4,-5.0517335E-4,1177.9492,0.0,0.0,0.0,0.0,0.0,0.0,0.0,0.0,0.0,0.0,0.0,0.0,0.0,-42.38821,1.6223207,-65.94601,-0.012172674,-0.01461271,-0.011198804,550053.5,113985.65,0.014222046,0.014778753,7046.4253,6890.667,5877.2383,5415.125,0.30693436,0.0,0.0,0.0
193.04166,193.04166,2.683,0.0,0.0,283.058,11399.0,100.0,0.0,0.16227537,0.0,7.0,1.0,0.0,4000000.0,110.0,1.0,0.0,0.0,10.0,0.0,0.0,-341.88535,17.30706,-833.4983,-0.116829924,0.4410511,0.022752766,288.45502,288.4119,282.95172,282.87326,437.0,436.0,502.0,500.0,93.0,93.0,93.0,93.0,0.0,0.0,0.0,0.0,0.047325123,0.04755064,0.05216283,0.051441077,21.450966,20.121483,-9.161755,1.830384,1247.2539,185.36739,-498.82373,39.20048,0.0,0.0,0.0,2.0,1.0,-2.5719864,0.01184708,-0.020891428,93.0,93.0,93.0,93.0,21.980246,21.980246,24.842789,24.842789,0.018968785,0.019087683,-5.053052E-4,-5.1028957E-4,1179.9331,0.0,0.0,0.0,0.0,0.0,0.0,0.0,0.0,0.0,0.0,0.0,0.0,0.0,-42.45599,1.6366866,-66.15929,-0.01156909,-0.012459259,-0.027941015,549626.5,113985.65,0.014213858,0.014184232,7144.791,7092.2188,5667.8315,5383.6543,0.30590343,0.0,0.0,0.0
196.97974,196.97974,2.733,0.0,0.0,283.82413,11431.0,100.0,0.0,0.12010119,0.0,7.0,1.0,0.0,4000000.0,110.0,1.0,0.0,0.0,10.0,0.0,0.0,-344.00998,17.389359,-836.81177,-0.10539297,0.43125504,0.04114131,289.26636,289.19043,283.7118,283.64645,435.0,434.0,500.0,499.0,93.0,93.0,93.0,93.0,0.0,0.0,0.0,0.0,0.047527883,0.04785263,0.052367195,0.051570408,-6.7225094,2.100393,13.989508,2.1506844,-628.54877,-82.84001,682.70264,-45.704838,0.0,0.0,0.0,2.0,1.0,-2.5725784,0.013163933,-0.020989299,93.0,93.0,93.0,93.0,21.980246,21.980246,24.842789,24.842789,0.019110106,0.01905918,-5.023807E-4,-5.024126E-4,1181.9097,0.0,0.0,0.0,0.0,0.0,0.0,0.0,0.0,0.0,0.0,0.0,0.0,0.0,-42.525196,1.6560372,-66.36729,-0.0087553635,-0.01049304,-0.029700167,549006.0,113985.65,0.013121049,0.013913435,7009.3022,7065.6006,5976.0615,5560.586,0.30597687,0.0,0.0,0.0
200.92856,200.92856,2.799,0.0,0.0,284.5878,11456.0,100.0,0.0,0.09495418,0.0,7.0,1.0,0.0,4000000.0,110.0,1.0,0.0,0.0,10.0,0.0,0.0,-346.13815,17.472696,-840.1356,-0.0926726,0.43306816,0.049941093,289.9007,289.84842,284.47083,284.41577,433.0,432.0,498.0,497.0,93.0,93.0,93.0,93.0,0.0,0.0,0.0,0.0,0.04796279,0.04854833,0.052131258,0.051576328,0.0,0.0,0.0,0.0,1141.709,-190.85254,-109.50118,340.23816,0.0,0.0,0.0,2.0,1.0,-2.5730982,0.014772725,-0.021446109,93.0,93.0,93.0,93.0,21.980246,21.980246,24.842789,24.842789,0.018645672,0.018602066,-5.0344877E-4,-5.084102E-4,1183.4025,0.0,0.0,0.0,0.0,0.0,0.0,0.0,0.0,0.0,0.0,0.0,0.0,0.0,-42.598923,1.6774788,-66.57149,-0.011680326,-0.008618215,-0.015875857,548499.8,113985.65,0.013510033,0.012537708,7244.25,7315.881,5660.825,5465.664,0.3051262,0.0,0.0,0.0
204.88783,204.88783,2.849,0.0,0.0,285.32953,11491.0,100.0,0.0,0.13128279,0.0,7.0,1.0,0.0,4000000.0,110.0,1.0,0.0,0.0,10.0,0.0,0.0,-348.27005,17.556974,-843.4694,-0.09137327,0.4177496,-0.02146009,290.79053,290.70062,285.21573,285.157,431.0,430.0,496.0,495.0,93.0,93.0,93.0,93.0,0.0,0.0,0.0,0.0,0.04757318,0.04791348,0.05237828,0.051424414,0.0,0.0,0.0,0.0,-228.39001,274.6179,-310.7741,95.50004,0.0,0.0,0.0,2.0,1.0,-2.5735617,0.01605884,-0.02114439,93.0,93.0,93.0,93.0,21.980246,21.980246,24.842789,24.842789,0.019063922,0.01896012,-4.9954304E-4,-4.9555476E-4,1185.5502,0.0,0.0,0.0,0.0,0.0,0.0,0.0,0.0,0.0,0.0,0.0,0.0,0.0,-42.671925,1.6859617,-66.76921,-0.022973157,-0.009194095,-0.03361146,547821.56,113985.65,0.013469564,0.013760135,6936.5444,7037.8066,5871.5527,5423.402,0.30588245,0.0,0.0,0.0
208.85736,208.85736,2.883,0.0,0.0,286.06863,11518.0,100.0,0.0,0.08763268,0.0,7.0,1.0,0.0,4000000.0,110.0,1.0,0.0,0.0,10.0,0.0,0.0,-350.40564,17.641008,-846.8131,-0.081831425,0.41633943,-0.018124934,291.47968,291.40033,285.95285,285.89874,429.0,428.0,495.0,493.0,93.0,93.0,93.0,93.0,0.0,0.0,0.0,0.0,0.047275655,0.048085783,0.05215614,0.051494475,0.77538186,2.8082726,-2.7818975,2.4240463,220.62506,-223.34753,294.82837,55.038925,0.0,0.0,0.0,2.0,1.0,-2.5740466,0.018287597,-0.021100998,93.0,93.0,93.0,93.0,21.980246,21.980246,24.842789,24.842789,0.018868493,0.018762961,-4.9618044E-4,-4.989743E-4,1187.158,0.0,0.0,0.0,0.0,0.0,0.0,0.0,0.0,0.0,0.0,0.0,0.0,0.0,-42.747852,1.677219,-66.9646,-0.026971705,-0.008038411,-0.034735907,547278.56,113985.65,0.013784015,0.013653723,7033.2275,7121.26,5726.433,5432.368,0.30580616,0.0,0.0,0.0
212.83705,212.83705,2.933,0.0,0.0,286.79507,11546.0,100.0,0.0,0.09567987,0.0,7.0,1.0,0.0,4000000.0,110.0,1.0,0.0,0.0,10.0,0.0,0.0,-352.545,17.724873,-850.1664,-0.07986142,0.41090816,-0.0026193687,292.20572,292.08267,286.6793,286.62286,427.0,426.0,493.0,491.0,93.0,93.0,93.0,93.0,0.0,0.0,0.0,0.0,0.047064535,0.04826815,0.05242254,0.05149947,-1.431629,8.341893,2.5109944,-1.3663619,380.73953,364.7804,-392.16574,-67.698944,0.0,0.0,0.0,2.0,1.0,-2.5745084,0.020624626,-0.02113533,93.0,93.0,93.0,93.0,21.980246,21.980246,24.842789,24.842789,0.018836424,0.018586231,-4.9648964E-4,-4.951044E-4,1188.8473,0.0,0.0,0.0,0.0,0.0,0.0,0.0,0.0,0.0,0.0,0.0,0.0,0.0,-42.823086,1.6779044,-67.15599,-0.023689788,-0.0086132055,-0.046817046,546728.25,113985.65,0.013579724,0.0136816455,7012.121,7211.263,5896.7695,5472.2617,0.30615425,0.0,0.0,0.0
216.82684,216.82684,2.999,0.0,0.0,287.51273,11575.0,100.0,0.0,0.035602033,0.0,7.0,1.0,0.0,4000000.0,110.0,1.0,0.0,0.0,10.0,0.0,0.0,-354.68817,17.808575,-853.5292,-0.069550484,0.402091,4.5823364E-4,292.93228,292.79456,287.39392,287.34872,425.0,425.0,491.0,489.0,93.0,93.0,93.0,93.0,0.0,0.0,0.0,0.0,0.047301866,0.048269037,0.05230363,0.051555347,0.0,0.0,0.0,0.0,-833.21466,61.717617,184.50912,353.64923,0.0,0.0,0.0,2.0,1.0,-2.574946,0.023336492,-0.020938396,93.0,93.0,93.0,93.0,21.980246,21.980246,24.842789,24.842789,0.018800534,0.018456105,-4.8845337E-4,-4.927591E-4,1190.6094,0.0,0.0,0.0,0.0,0.0,0.0,0.0,0.0,0.0,0.0,0.0,0.0,0.0,-42.899426,1.6743513,-67.34388,-0.03421954,-0.006198566,-0.04332479,546166.8,113985.65,0.013480214,0.013569933,6973.7905,7231.21,5867.3965,5541.297,0.30634308,0.0,0.0,0.0
220.82492,220.82492,3.033,0.0,0.0,288.22015,11601.0,100.0,0.0,-0.0626373,0.0,7.0,1.0,0.0,4000000.0,110.0,1.0,0.0,0.0,10.0,0.0,0.0,-356.83524,17.892168,-856.9012,-0.05245462,0.40073484,-0.01476592,293.59955,293.49002,288.08664,288.06793,423.0,423.0,489.0,488.0,93.0,93.0,93.0,93.0,0.0,0.0,0.0,0.0,0.04711927,0.048337985,0.05235309,0.051646203,4.0713696,5.6927648,2.2163985,-0.4986673,520.14734,362.47366,251.88622,-74.12283,0.0,0.0,0.0,2.0,1.0,-2.5752149,0.025637746,-0.020941019,93.0,93.0,93.0,93.0,21.980246,21.980246,24.842789,24.842789,0.018687775,0.018353265,-4.86227E-4,-4.961886E-4,1192.1202,0.0,0.0,0.0,0.0,0.0,0.0,0.0,0.0,0.0,0.0,0.0,0.0,0.0,-42.97999,1.6692739,-67.52572,-0.022480303,-0.0018465195,-0.03873705,545634.25,113985.65,0.012799612,0.01324224,7031.457,7271.962,5876.8843,5541.7207,0.30467415,0.0,0.0,0.0
224.8285,224.8285,3.083,0.0,0.0,288.9225,11628.0,100.0,0.0,-0.20259084,0.0,7.0,1.0,0.0,4000000.0,110.0,1.0,0.0,0.0,10.0,0.0,0.0,-358.98666,17.975658,-860.2821,-0.011062741,0.395471,0.015355128,294.2609,294.156,288.7622,288.79712,422.0,421.0,487.0,486.0,93.0,93.0,93.0,93.0,0.0,0.0,0.0,0.0,0.047577925,0.048529245,0.0523828,0.051858,7.7153735,3.1059978,2.4443862,6.044134,-295.88785,-73.86802,11.359147,83.819016,0.0,0.0,0.0,2.0,1.0,-2.5751011,0.02793836,-0.020962834,93.0,93.0,93.0,93.0,21.980246,21.980246,24.842789,24.842789,0.018571122,0.018094752,-4.8287466E-4,-4.961378E-4,1193.7585,0.0,0.0,0.0,0.0,0.0,0.0,0.0,0.0,0.0,0.0,0.0,0.0,0.0,-43.074448,1.6737396,-67.69679,-0.024319038,0.007448385,-0.042320818,545115.44,113985.65,0.01155079,0.012164675,7066.9414,7370.6523,5937.702,5710.0796,0.30467224,0.0,0.0,0.0
228.84157,228.84157,3.133,0.0,0.0,289.62097,11650.0,100.0,0.0,-0.24825437,0.0,7.0,1.0,0.0,4000000.0,110.0,1.0,0.0,0.0,10.0,0.0,0.0,-361.14322,18.059765,-863.67114,0.026597336,0.3962661,0.17265436,294.801,294.7191,289.4403,289.51392,420.0,419.0,486.0,484.0,93.0,93.0,93.0,93.0,0.0,0.0,0.0,0.0,0.048648164,0.049214162,0.05275953,0.052190885,56.88138,32.50725,25.75144,12.001767,2860.4546,1707.6951,1544.5767,557.1216,0.0,0.0,0.0,2.0,1.0,-2.5746021,0.0301851,-0.021257997,93.0,93.0,93.0,93.0,21.980246,21.980246,24.842789,24.842789,0.018011002,0.017551657,-4.8300854E-4,-4.908673E-4,1195.0671,0.0,0.0,0.0,0.0,0.0,0.0,0.0,0.0,0.0,0.0,0.0,0.0,0.0,-43.183704,1.7077314,-67.856445,-0.01973401,0.013569803,-0.057206646,544682.44,113985.66,0.01057828,0.010737869,7471.496,7745.4316,6401.3745,6079.668,0.3034048,0.0,0.0,0.0
232.86041,232.86041,3.183,0.0,0.0,289.39212,11390.0,100.0,0.0,-0.16383728,0.0,7.0,1.0,0.0,4000000.0,110.0,1.0,0.0,0.0,10.0,0.0,0.0,-363.3035,18.146511,-867.0647,0.04988642,-0.5753496,0.08066413,289.35394,289.38272,289.36487,289.43323,418.0,417.0,484.0,482.0,93.0,93.0,93.0,93.0,0.0,0.0,0.0,0.0,0.04670615,0.04760117,0.05242943,0.052507292,-70.0014,-69.941055,9.117946,16.956924,-1663.3851,-1993.793,1678.8347,1066.2986,0.0,0.0,0.0,2.0,1.0,-2.5739527,0.032414213,-0.020603418,93.0,93.0,93.0,93.0,21.980246,21.980246,24.842789,24.842789,3.9408715E-6,-1.263489E-4,3.7656523E-6,7.456087E-6,1179.397,0.0,0.0,0.0,0.0,0.0,0.0,0.0,0.0,0.0,0.0,0.0,0.0,0.0,-43.166668,1.7519032,-67.790794,-0.048000418,0.013216415,0.005509421,549810.8,0.0,0.012204634,0.013101526,6984.5947,7390.2393,6148.458,6189.1055,0.30470467,0.0,0.0,0.0
236.86847,236.86847,3.233,0.0,0.0,288.81027,10920.0,100.0,0.0,-0.10157844,0.0,8.0,1.0,0.0,4000000.0,110.0,1.0,0.0,0.0,10.0,0.0,0.0,-365.45905,18.233974,-870.4486,0.054064725,0.031231044,-0.12627894,293.99146,293.9764,288.66873,288.72437,416.0,415.0,482.0,481.0,93.0,93.0,93.0,93.0,0.0,0.0,0.0,0.0,0.0434895,0.044644244,0.052315332,0.052604895,-44.7911,-40.80288,-15.106871,-7.6708937,1740.0159,1550.3164,-845.7674,-734.335,0.0,0.0,0.0,2.0,1.0,-2.5733855,0.033535425,-0.019110322,93.0,93.0,93.0,93.0,21.980246,21.980246,24.842789,24.842789,0.015826935,0.015625708,-3.3504234E-4,-3.3184627E-4,1127.5513,0.0,0.0,0.0,0.0,0.0,0.0,0.0,0.0,0.0,0.0,0.0,0.0,0.0,-43.10284,1.7297275,-67.64034,-0.010648218,0.009576482,-0.011889803,548265.2,113985.65,0.016228452,0.019356033,6452.712,6660.4795,5793.0654,5951.072,0.30956268,0.0,0.0,0.0
240.88037,240.88037,3.299,0.0,0.0,289.603,10547.0,100.0,0.0,-0.21186388,0.0,8.0,1.0,0.0,4000000.0,110.0,1.0,0.0,0.0,10.0,0.0,0.0,-367.61792,18.317987,-873.83496,0.068804756,0.47001052,-0.18439044,295.7238,295.70148,289.41687,289.4768,414.0,413.0,480.0,479.0,93.0,93.0,93.0,93.0,0.0,0.0,0.0,0.0,0.044268508,0.044985432,0.051177297,0.051688522,0.0,0.0,0.0,0.0,504.53687,633.12195,601.4048,504.5503,0.0,0.0,0.0,2.0,1.0,-2.5729604,0.03382852,-0.01969707,93.0,93.0,93.0,93.0,21.980246,21.980246,24.842789,24.842789,0.021289099,0.021031706,-5.280055E-4,-5.3468545E-4,1076.1202,0.0,0.0,0.0,0.0,0.0,0.0,0.0,0.0,0.0,0.0,0.0,0.0,0.0,-43.250645,1.6376362,-67.80961,0.007673923,0.009957095,-0.0055364473,541762.4,113985.66,0.021872161,0.021699594,6661.771,6795.607,5026.174,5264.8213,0.3137455,0.0,0.0,0.0
244.90361,244.90361,3.349,0.0,0.0,290.36996,10400.0,100.0,0.0,-0.16917554,0.0,8.0,1.0,0.0,4000000.0,110.0,1.0,0.0,0.0,10.0,0.0,0.0,-369.78458,18.39367,-877.22986,0.07311228,0.3839473,-0.019880325,295.6952,295.71274,290.19623,290.26266,412.0,412.0,478.0,477.0,93.0,93.0,93.0,93.0,0.0,0.0,0.0,0.0,0.04373695,0.044136614,0.051632114,0.051740542,0.0,0.0,0.0,0.0,4180.8525,3767.7788,2589.4446,1634.8196,0.0,0.0,0.0,2.0,1.0,-2.5723903,0.032822054,-0.019053578,93.0,93.0,93.0,93.0,21.980246,21.980246,24.842789,24.842789,0.018641688,0.018499907,-4.8045733E-4,-4.7830187E-4,1049.8751,0.0,0.0,0.0,0.0,0.0,0.0,0.0,0.0,0.0,0.0,0.0,0.0,0.0,-43.400936,1.4745562,-67.970215,0.020198584,0.010333347,0.009071786,536020.4,113985.65,0.016694073,0.019228002,6877.808,6948.648,5918.462,6074.3535,0.31025982,0.0,0.0,0.0
248.93619,248.93619,3.383,0.0,0.0,291.003,10399.0,100.0,0.0,-0.15503846,0.0,8.0,1.0,0.0,4000000.0,110.0,1.0,0.0,0.0,10.0,0.0,0.0,-371.95792,18.472948,-880.63165,0.08730538,0.36082217,0.7720906,295.66687,295.6661,290.8131,290.8901,411.0,410.0,477.0,475.0,93.0,93.0,93.0,93.0,0.0,0.0,0.0,0.0,0.051795285,0.052375704,0.053751025,0.054005403,78.74541,108.707016,10.332986,10.244473,-11768.392,-10304.24,-2694.4663,-4324.1895,0.0,0.0,0.0,2.0,1.0,-2.5718546,0.033251494,-0.022432566,93.0,93.0,93.0,93.0,21.980246,21.980246,24.842789,24.842789,0.016298948,0.016083283,-4.8301046E-4,-4.7639018E-4,1049.7006,0.0,0.0,0.0,0.0,0.0,0.0,0.0,0.0,0.0,0.0,0.0,0.0,0.0,-43.522667,1.7453383,-68.09474,0.056011565,0.010492416,-0.06831031,535982.8,113985.65,0.013445559,0.0116637,8453.724,8658.3,6998.1147,7075.6807,0.30600452,0.0,0.0,0.0
252.97678,252.97678,3.433,0.0,0.0,291.58847,10426.0,100.0,0.0,-0.18034574,0.0,8.0,1.0,0.0,4000000.0,110.0,1.0,0.0,0.0,10.0,0.0,0.0,-374.13702,18.56848,-884.0394,0.08626604,0.32305628,0.4154429,296.47812,296.4061,291.42377,291.4748,409.0,408.0,475.0,473.0,93.0,93.0,93.0,93.0,0.0,0.0,0.0,0.0,0.04997615,0.05046353,0.0533219,0.053347595,-41.70969,-52.048485,-7.4480467,-13.678818,32.56187,-384.575,143.68594,208.89049,0.0,0.0,0.0,2.0,1.0,-2.5714486,0.033977862,-0.024699569,93.0,93.0,93.0,93.0,21.980246,21.980246,24.842789,24.842789,0.01675776,0.01640108,-4.578231E-4,-4.5983517E-4,1055.0466,0.0,0.0,0.0,0.0,0.0,0.0,0.0,0.0,0.0,0.0,0.0,0.0,0.0,-43.634037,2.0247939,-68.208885,0.012431178,0.007974633,-0.028913165,537317.44,113985.65,0.015255864,0.01418965,7998.2065,8329.049,6436.9956,6421.763,0.30798054,0.0,0.0,0.0
257.02496,257.02496,3.499,0.0,0.0,292.16202,10461.0,100.0,0.0,-0.15285152,0.0,8.0,1.0,0.0,4000000.0,110.0,1.0,0.0,0.0,10.0,0.0,0.0,-376.32175,18.672829,-887.45276,0.07461363,0.3252504,-0.07642955,297.4998,297.35968,291.99213,292.04208,407.0,406.0,473.0,472.0,93.0,93.0,93.0,93.0,0.0,0.0,0.0,0.0,0.04759459,0.048284385,0.052791428,0.052447964,0.0,0.0,0.0,0.0,-2076.633,-2683.3752,-946.52466,-1714.3472,0.0,0.0,0.0,2.0,1.0,-2.5710857,0.035561055,-0.026468277,93.0,93.0,93.0,93.0,21.980246,21.980246,24.842789,24.842789,0.01838327,0.017849661,-4.6776226E-4,-4.6235305E-4,1061.9375,0.0,0.0,0.0,0.0,0.0,0.0,0.0,0.0,0.0,0.0,0.0,0.0,0.0,-43.75028,2.1041696,-68.321304,0.011860227,0.0076214657,-0.066362634,539017.4,113985.65,0.01499776,0.015808485,6750.3647,7115.3213,5847.2734,5613.1396,0.30848694,0.0,0.0,0.0
