LapDistance [m],TotalDistance [m],LapTime [s],Sector1Time [s],Sector2Time [s],Speed [km/h],EngineRevs [rpm],ThrottlePercentage [%],BrakePercentage [%],Steer [%],Clutch [%],Gear [int],DRS [0/1],CanUseDRS [0/1],KERSLevel [J],EngineTemperature [C],RacePosition [int],Sector [int],InPits [int],FuelRemaining [kg],CurrentFlag [int],CurrentLapInvalid [int],X [m],Y [m],Z [m],GForceLatitudinal [G],GForceLongitudinal [G],GForceVertical [G],WheelSpeedRearLeft [km/h],WheelSpeedRearRight [km/h],WheelSpeedFrontLeft [km/h],WheelSpeedFrontRight [km/h],BrakeTemperatureRearLeft [C],BrakeTemperatureRearRight [C],BrakeTemperatureFrontLeft [C],BrakeTemperatureFrontRight [C],TyreTemperatureRearLeft [C],TyreTemperatureRearRight [C],TyreTemperatureFrontLeft [C],TyreTemperatureFrontRight [C],TyreWearRearLeft [%],TyreWearRearRight [%],TyreWearFrontLeft [%],TyreWearFrontRight [%],SuspensionPositionRearLeft [m],SuspensionPositionRearRight [m],SuspensionPositionFrontLeft [m],SuspensionPositionFrontRight [m],SuspensionVelocityRearLeft [m/s],SuspensionVelocityRearRight [m/s],SuspensionVelocityFrontLeft [m/s],SuspensionVelocityFrontRight [m/s],SuspensionAccelerationRearLeft [m/s^2],SuspensionAccelerationRearRight [m/s^2],SuspensionAccelerationFrontLeft [m/s^2],SuspensionAccelerationFrontRight [m/s^2],MGUKHarvested [J],MGUHHarvested [J],ERSSpent [J],ERSMode [int],FuelMixMode [int],Yaw [rad],Roll [rad],Pitch [rad],TyreCarcassTemperatureRearLeft [C],TyreCarcassTemperatureRearRight [C],TyreCarcassTemperatureFrontLeft [C],TyreCarcassTemperatureFrontRight [C],TyrePressureRearLeft [PSI],TyrePressureRearRight [PSI],TyrePressureFrontLeft [PSI],TyrePressureFrontRight [PSI],WheelSlipRearLeft [%],WheelSlipRearRight [%],WheelSlipFrontLeft [%],WheelSlipFrontRight [%],Torque [Nm],Handbrake [%],RearLeftInside [C],RearLeftMiddle [C],RearLeftOutside [C],RearRightInside [C],RearRightMiddle [C],RearRightOutside [C],FrontLeftInside [C],FrontLeftMiddle [C],FrontLeftOutside [C],FrontRightInside [C],FrontRightMiddle [C],FrontRightOutside [C],WoldSpeedX [km/h],WoldSpeedY [km/h],WoldSpeedZ [km/h],LocalAngularVelocityX [rad/s],LocalAngularVelocityY [rad/s],LocalAngularVelocityZ [rad/s],IcePower [W],MgukPower [W],FrontRideHeight [m],RearRideHeight [m],LoadRearLeft [N],LoadRearRight [N],LoadFrontLeft [N],LoadFrontRight [N],Extra1 [m],Extra2 [],Extra3 [],Extra4 []
3.1566954,3.1566954,0.05,0.0,0.0,227.57478,10698.0,100.0,0.0,0.054685242,0.0,6.0,1.0,0.0,4000000.0,110.0,1.0,0.0,0.0,10.0,0.0,0.0,-236.49626,13.615164,-675.5404,-4.401803E-4,0.8274516,-0.0064412225,234.19662,234.151,227.41086,227.40382,600.0,597.0,656.0,651.0,93.0,93.0,93.0,93.0,0.0,0.0,0.0,0.0,0.035100646,0.035398774,0.04904652,0.04885063,7.0124116,5.3867693,1.0453908,-0.95240766,155.08531,140.10516,-96.92161,-234.96149,0.0,0.0,0.0,2.0,1.0,-2.5534549,-0.016364032,-0.015580535,93.0,93.0,93.0,93.0,21.980246,21.980246,24.842789,24.842789,0.02913135,0.028979484,-7.322332E-4,-7.294674E-4,1096.836,0.0,0.0,0.0,0.0,0.0,0.0,0.0,0.0,0.0,0.0,0.0,0.0,0.0,-35.07739,1.1480525,-52.577778,-0.004982092,-0.0011020438,-0.0066997116,544397.5,113985.65,0.023986954,0.030693805,5323.713,5364.732,3891.2498,3791.7686,0.3232994,0.0,0.0,0.0
6.3273563,6.3273563,0.1,0.0,0.0,229.02213,10763.0,100.0,0.0,0.078224786,0.0,6.0,1.0,0.0,4000000.0,110.0,1.0,0.0,0.0,10.0,0.0,0.0,-238.25595,13.672701,-678.17816,-0.011176825,0.81585693,0.0038762912,235.61057,235.58266,228.86867,228.84221,597.0,595.0,654.0,649.0,93.0,93.0,93.0,93.0,0.0,0.0,0.0,0.0,0.035362706,0.035614856,0.049152844,0.048922207,4.896596,4.804283,1.4550983,1.2921541,-123.327934,-15.342235,-162.52844,-51.002193,0.0,0.0,0.0,2.0,1.0,-2.5536103,-0.015955625,-0.015620589,93.0,93.0,93.0,93.0,21.980246,21.980246,24.842789,24.842789,0.028772574,0.028733252,-7.1816315E-4,-7.207345E-4,1105.7987,0.0,0.0,0.0,0.0,0.0,0.0,0.0,0.0,0.0,0.0,0.0,0.0,0.0,-35.2971,1.1544727,-52.914433,-0.0020199653,-0.0041623884,-0.0084622735,545531.4,113985.65,0.023719227,0.030486563,5356.8037,5375.559,3966.9858,3863.9102,0.32313251,0.0,0.0,0.0
9.517985,9.517985,0.15,0.0,0.0,230.45622,10825.0,100.0,0.0,0.07931884,0.0,6.0,1.0,0.0,4000000.0,110.0,1.0,0.0,0.0,10.0,0.0,0.0,-240.02649,13.730592,-680.83276,-0.019777924,0.8091971,0.012312466,236.97954,236.94397,230.30463,230.27644,595.0,592.0,651.0,647.0,93.0,93.0,93.0,93.0,0.0,0.0,0.0,0.0,0.035748627,0.035961475,0.049213827,0.048947234,11.170282,9.527205,2.2852418,0.47340986,198.92603,33.970123,120.36411,-53.09432,0.0,0.0,0.0,2.0,1.0,-2.553826,-0.015508737,-0.01577735,93.0,93.0,93.0,93.0,21.980246,21.980246,24.842789,24.842789,0.02828991,0.028268443,-7.117067E-4,-7.1612146E-4,1114.3872,0.0,0.0,0.0,0.0,0.0,0.0,0.0,0.0,0.0,0.0,0.0,0.0,0.0,-35.51162,1.162791,-53.250088,-0.003112697,-0.0044071004,-0.008581579,546619.6,113985.65,0.023472479,0.029926768,5439.774,5449.6816,4004.4473,3872.6348,0.32283592,0.0,0.0,0.0
12.728428,12.728428,0.2,0.0,0.0,231.87189,10889.0,100.0,0.0,0.04935466,0.0,6.0,1.0,0.0,4000000.0,110.0,1.0,0.0,0.0,10.0,0.0,0.0,-241.8076,13.788972,-683.5041,-0.021736056,0.7990643,0.013534988,238.36882,238.35426,231.71828,231.6937,593.0,590.0,649.0,645.0,93.0,93.0,93.0,93.0,0.0,0.0,0.0,0.0,0.035982143,0.03618127,0.049292654,0.049011625,4.854798,5.5903935,1.457557,2.1866708,-101.320435,-1.7568682,-85.26742,72.17824,0.0,0.0,0.0,2.0,1.0,-2.5540428,-0.015057125,-0.01588738,93.0,93.0,93.0,93.0,21.980246,21.980246,24.842789,24.842789,0.02804852,0.028057825,-7.0358126E-4,-7.114442E-4,1123.2634,0.0,0.0,0.0,0.0,0.0,0.0,0.0,0.0,0.0,0.0,0.0,0.0,0.0,-35.72103,1.1731641,-53.58295,-0.0028419443,-0.0036179707,-0.009705181,547735.2,113985.65,0.023186235,0.029556314,5457.4395,5460.244,4055.8914,3932.5415,0.32239246,0.0,0.0,0.0
15.958345,15.958345,0.25,0.0,0.0,233.2733,10951.0,100.0,0.0,0.085755624,0.0,6.0,1.0,0.0,4000000.0,110.0,1.0,0.0,0.0,10.0,0.0,0.0,-243.59909,13.848107,-686.19196,-0.027382076,0.79016155,0.013664824,239.73549,239.70786,233.12183,233.09486,590.0,588.0,647.0,643.0,93.0,93.0,93.0,93.0,0.0,0.0,0.0,0.0,0.036361106,0.03655739,0.049331766,0.04907138,6.3031907,5.438402,-1.4917551,0.55052334,64.627815,-63.25987,-113.122154,-44.873352,0.0,0.0,0.0,2.0,1.0,-2.5542428,-0.014556128,-0.0160352,93.0,93.0,93.0,93.0,21.980246,21.980246,24.842789,24.842789,0.027682023,0.027676342,-7.009071E-4,-7.024794E-4,1131.8949,0.0,0.0,0.0,0.0,0.0,0.0,0.0,0.0,0.0,0.0,0.0,0.0,0.0,-35.92635,1.1897767,-53.913643,-0.0032158955,-0.004304105,-0.0074024494,548819.25,113985.65,0.02308354,0.029177643,5511.375,5516.2773,4052.3708,3941.6362,0.32214355,0.0,0.0,0.0
19.207548,19.207548,0.3,0.0,0.0,234.65598,11015.0,100.0,0.0,0.12958679,0.0,6.0,1.0,0.0,4000000.0,110.0,1.0,0.0,0.0,10.0,0.0,0.0,-245.40057,13.907888,-688.8963,-0.035717577,0.77923024,0.00804195,241.13934,241.09882,234.51204,234.47156,588.0,585.0,645.0,641.0,93.0,93.0,93.0,93.0,0.0,0.0,0.0,0.0,0.03645437,0.036596652,0.049436595,0.049072437,-1.9365548,1.1683254,2.022609,2.0237265,-391.294,-39.468704,-19.969038,248.97601,0.0,0.0,0.0,2.0,1.0,-2.554524,-0.01408644,-0.016088724,93.0,93.0,93.0,93.0,21.980246,21.980246,24.842789,24.842789,0.027587699,0.027584713,-6.920703E-4,-6.93927E-4,1140.2828,0.0,0.0,0.0,0.0,0.0,0.0,0.0,0.0,0.0,0.0,0.0,0.0,0.0,-36.12551,1.2006181,-54.2423,-0.004630417,-0.006519499,-0.010297161,549673.9,113985.65,0.0228119,0.029107166,5489.025,5499.597,4143.3984,3976.0425,0.3219328,0.0,0.0,0.0
22.47585,22.47585,0.35,0.0,0.0,236.026,11075.0,100.0,0.0,0.049438357,0.0,6.0,1.0,0.0,4000000.0,110.0,1.0,0.0,0.0,10.0,0.0,0.0,-247.21194,13.968263,-691.617,-0.03311333,0.7735056,0.010208954,242.44574,242.41135,235.8817,235.84119,586.0,583.0,643.0,638.0,93.0,93.0,93.0,93.0,0.0,0.0,0.0,0.0,0.036615968,0.036822245,0.049507495,0.049115434,4.392564,6.3492355,0.49129122,0.5587935,-84.32864,291.44882,38.355583,-1.837313,0.0,0.0,0.0,2.0,1.0,-2.5548747,-0.013477819,-0.016314626,93.0,93.0,93.0,93.0,21.980246,21.980246,24.842789,24.842789,0.027208418,0.02718917,-6.8186206E-4,-6.9877587E-4,1146.6271,0.0,0.0,0.0,0.0,0.0,0.0,0.0,0.0,0.0,0.0,0.0,0.0,0.0,-36.321312,1.2130885,-54.568935,-0.0039708363,-0.005927473,-0.014736756,549737.6,113985.65,0.02254428,0.02863562,5553.085,5570.503,4171.038,3988.7446,0.32153797,0.0,0.0,0.0
25.763092,25.763092,0.4,0.0,0.0,237.37761,11135.0,100.0,0.0,0.05195476,0.0,6.0,1.0,0.0,4000000.0,110.0,1.0,0.0,0.0,10.0,0.0,0.0,-249.03311,14.029275,-694.35394,-0.03608319,0.76086366,0.009058282,243.75453,243.74725,237.23027,237.19789,583.0,580.0,641.0,636.0,93.0,93.0,93.0,93.0,0.0,0.0,0.0,0.0,0.03691685,0.0371119,0.04949722,0.049171638,2.3748724,1.2318044,0.03956258,0.88311726,-241.74744,-338.53497,-80.2785,-25.923546,0.0,0.0,0.0,2.0,1.0,-2.5551496,-0.012875047,-0.016391873,93.0,93.0,93.0,93.0,21.980246,21.980246,24.842789,24.842789,0.026862744,0.026935205,-6.7719165E-4,-6.8956544E-4,1152.974,0.0,0.0,0.0,0.0,0.0,0.0,0.0,0.0,0.0,0.0,0.0,0.0,0.0,-36.514008,1.2260926,-54.891468,-0.006052967,-0.0048190868,-0.008252648,549802.0,113985.65,0.02244802,0.02825918,5589.4756,5572.474,4167.5264,4023.0034,0.3211918,0.0,0.0,0.0
29.069017,29.069017,0.45,0.0,0.0,238.70956,11196.0,100.0,0.0,0.08387632,0.0,6.0,1.0,0.0,4000000.0,110.0,1.0,0.0,0.0,10.0,0.0,0.0,-250.86383,14.090837,-697.10693,-0.036910772,0.7506143,0.0034294575,245.10036,245.07059,238.56319,238.5315,581.0,578.0,638.0,634.0,93.0,93.0,93.0,93.0,0.0,0.0,0.0,0.0,0.03695271,0.03712646,0.04956939,0.049205415,-0.10639428,0.39383766,1.8089263,0.82924956,-56.68848,41.50718,121.39676,14.12183,0.0,0.0,0.0,2.0,1.0,-2.5554001,-0.012325926,-0.01637137,93.0,93.0,93.0,93.0,21.980246,21.980246,24.842789,24.842789,0.026745137,0.026730636,-6.71675E-4,-6.7665015E-4,1159.4274,0.0,0.0,0.0,0.0,0.0,0.0,0.0,0.0,0.0,0.0,0.0,0.0,0.0,-36.703526,1.2350179,-55.209644,-0.0063446043,-0.004924254,-0.009634011,549867.0,113985.65,0.02227331,0.028258888,5573.9688,5583.4116,4224.508,4052.9785,0.32118416,0.0,0.0,0.0
32.393272,32.393272,0.5,0.0,0.0,240.02638,11255.0,100.0,0.0,0.118162155,0.0,6.0,1.0,0.0,4000000.0,110.0,1.0,0.0,0.0,10.0,0.0,0.0,-252.70392,14.152724,-699.8757,-0.04260111,0.74363655,-0.0040490497,246.37038,246.36684,239.88432,239.84349,579.0,576.0,636.0,632.0,93.0,93.0,93.0,93.0,0.0,0.0,0.0,0.0,0.037055653,0.037164908,0.049589608,0.04924065,3.9146836,1.4276056,0.016763804,0.4070252,196.21698,40.300186,-99.77816,-21.86,0.0,0.0,0.0,2.0,1.0,-2.5556934,-0.011804905,-0.016389847,93.0,93.0,93.0,93.0,21.980246,21.980246,24.842789,24.842789,0.026417572,0.026547091,-6.7002315E-4,-6.741088E-4,1165.6697,0.0,0.0,0.0,0.0,0.0,0.0,0.0,0.0,0.0,0.0,0.0,0.0,0.0,-36.88915,1.2401305,-55.52544,-0.005041219,-0.0065343226,-0.008398416,549929.5,113985.65,0.022196418,0.028058544,5629.886,5599.107,4222.5684,4064.271,0.32092,0.0,0.0,0.0
35.73578,35.73578,0.55,0.0,0.0,241.32587,11313.0,100.0,0.0,0.11265168,0.0,6.0,1.0,0.0,4000000.0,110.0,1.0,0.0,0.0,10.0,0.0,0.0,-254.55319,14.21486,-702.6602,-0.043545425,0.7319894,-0.0030041086,247.66014,247.63568,241.18596,241.1426,576.0,573.0,634.0,630.0,93.0,93.0,93.0,93.0,0.0,0.0,0.0,0.0,0.037195843,0.03733367,0.04963013,0.04927527,1.1117755,3.763139,0.7503479,1.3010948,-196.2304,-14.913067,79.044685,11.506676,0.0,0.0,0.0,2.0,1.0,-2.5560381,-0.0112088425,-0.016386151,93.0,93.0,93.0,93.0,21.980246,21.980246,24.842789,24.842789,0.026225992,0.02625897,-6.614347E-4,-6.663594E-4,1171.8093,0.0,0.0,0.0,0.0,0.0,0.0,0.0,0.0,0.0,0.0,0.0,0.0,0.0,-37.071262,1.2448924,-55.837784,-0.006647435,-0.006933216,-0.00886438,549991.75,113985.65,0.022117648,0.027911628,5624.911,5627.6094,4258.888,4097.753,0.32079887,0.0,0.0,0.0
39.096214,39.096214,0.6,0.0,0.0,242.60866,11370.0,100.0,0.0,0.15697572,0.0,6.0,1.0,0.0,4000000.0,110.0,1.0,0.0,0.0,10.0,0.0,0.0,-256.41144,14.277487,-705.4603,-0.05247104,0.7226587,0.0050256588,248.89273,248.88469,242.47212,242.42296,574.0,571.0,632.0,628.0,93.0,93.0,93.0,93.0,0.0,0.0,0.0,0.0,0.037526704,0.037569802,0.049718063,0.049348082,5.6096163,2.2644548,0.16495584,-0.56371087,68.34268,-148.54073,-46.133987,-82.759544,0.0,0.0,0.0,2.0,1.0,-2.556413,-0.010714572,-0.016475081,93.0,93.0,93.0,93.0,21.980246,21.980246,24.842789,24.842789,0.02584455,0.026008643,-6.578985E-4,-6.58253E-4,1177.8429,0.0,0.0,0.0,0.0,0.0,0.0,0.0,0.0,0.0,0.0,0.0,0.0,0.0,-37.248226,1.2575309,-56.147793,-0.0032911943,-0.0080758035,-0.0086413575,550052.2,113985.65,0.022251705,0.027830461,5696.4375,5655.243,4302.8047,4126.982,0.3208723,0.0,0.0,0.0
42.474354,42.474354,0.65,0.0,0.0,243.87239,11427.0,100.0,0.0,0.34281138,0.0,6.0,1.0,0.0,4000000.0,110.0,1.0,0.0,0.0,10.0,0.0,0.0,-258.27826,14.340527,-708.27594,-0.08252853,0.7124093,0.0032423632,250.13116,250.12471,243.75806,243.66568,572.0,569.0,630.0,626.0,93.0,93.0,93.0,93.0,0.0,0.0,0.0,0.0,0.037701596,0.037605803,0.049808227,0.049317677,4.0981917,0.4948675,2.788156,-0.16473232,-36.02205,22.23551,23.536375,21.471079,0.0,0.0,0.0,2.0,1.0,-2.5570092,-0.010386814,-0.016556263,93.0,93.0,93.0,93.0,21.980246,21.980246,24.842789,24.842789,0.025557104,0.025858974,-6.5803627E-4,-6.459595E-4,1181.668,0.0,0.0,0.0,0.0,0.0,0.0,0.0,0.0,0.0,0.0,0.0,0.0,0.0,-37.412643,1.2642183,-56.45989,-8.1377313E-4,-0.015925882,-0.0050836243,549085.8,113985.65,0.022250222,0.027820118,5722.6597,5655.758,4366.8013,4136.001,0.32083607,0.0,0.0,0.0
45.869892,45.869892,0.7,0.0,0.0,245.11806,11482.0,100.0,0.0,0.39437068,0.0,6.0,1.0,0.0,4000000.0,110.0,1.0,0.0,0.0,10.0,0.0,0.0,-260.1528,14.403941,-711.1073,-0.1133762,0.704415,0.01120294,251.34337,251.31645,245.02812,244.88777,569.0,566.0,628.0,623.0,93.0,93.0,93.0,93.0,0.0,0.0,0.0,0.0,0.03793605,0.03761364,0.049991157,0.049306016,7.7093387,2.878457,6.2390413,0.55052334,533.2365,322.28076,403.0287,121.249245,0.0,0.0,0.0,2.0,1.0,-2.5580468,-0.010138942,-0.016774297,93.0,93.0,93.0,93.0,21.980246,21.980246,24.842789,24.842789,0.02518681,0.025636408,-6.425731E-4,-6.461888E-4,1185.0084,0.0,0.0,0.0,0.0,0.0,0.0,0.0,0.0,0.0,0.0,0.0,0.0,0.0,-37.560287,1.2721705,-56.777016,0.0021931417,-0.023490552,-0.009233271,548000.44,113985.65,0.02162029,0.02733838,5791.863,5670.941,4498.296,4161.4507,0.3204832,0.0,0.0,0.0
49.28269,49.28269,0.749,0.0,0.0,246.35109,11532.0,100.0,0.0,0.26001346,0.0,6.0,1.0,0.0,4000000.0,110.0,1.0,0.0,0.0,10.0,0.0,0.0,-262.0345,14.468204,-713.9545,-0.12230478,0.69500977,0.052008457,252.43448,252.4247,246.25821,246.12541,567.0,564.0,625.0,621.0,93.0,93.0,93.0,93.0,0.0,0.0,0.0,0.0,0.038727738,0.03837628,0.050149735,0.049400683,17.810091,19.405334,-0.13455747,2.3187695,145.05391,291.60974,-313.72455,74.00214,0.0,0.0,0.0,2.0,1.0,-2.559222,-0.009620264,-0.017203212,93.0,93.0,93.0,93.0,21.980246,21.980246,24.842789,24.842789,0.024515338,0.02494647,-6.2492635E-4,-6.5172464E-4,1188.0105,0.0,0.0,0.0,0.0,0.0,0.0,0.0,0.0,0.0,0.0,0.0,0.0,0.0,-37.698338,1.299483,-57.095787,-0.0012753112,-0.02118557,-0.015329121,547006.7,113985.65,0.021049397,0.02615858,5957.8027,5823.448,4549.418,4221.332,0.3194132,0.0,0.0,0.0
51.567326,51.567326,0.799,0.0,0.0,247.1587,11569.0,100.0,0.0,0.21138121,0.0,6.0,1.0,0.0,4000000.0,110.0,1.0,0.0,0.0,10.0,0.0,0.0,-263.29276,14.51187,-715.86145,-0.1211731,0.6843979,0.04146586,253.22948,253.23763,247.05283,246.94823,565.0,563.0,624.0,620.0,93.0,93.0,93.0,93.0,0.0,0.0,0.0,0.0,0.038972892,0.038708385,0.050147988,0.049435273,0.0,0.0,0.0,0.0,-219.43149,-351.195,-82.169464,80.37238,0.0,0.0,0.0,2.0,1.0,-2.5598485,-0.009135931,-0.017362475,93.0,93.0,93.0,93.0,21.980246,21.980246,24.842789,24.842789,0.024418822,0.024811963,-6.2205386E-4,-6.441492E-4,1190.241,0.0,0.0,0.0,0.0,0.0,0.0,0.0,0.0,0.0,0.0,0.0,0.0,0.0,-37.788612,1.3182204,-57.304615,-0.0054418556,-0.016534742,-0.013246612,546281.0,113985.65,0.020903016,0.025831537,5933.785,5805.0635,4548.9346,4231.2617,0.3191986,0.0,0.0,0.0
56.158905,56.158905,0.849,0.0,0.0,248.74713,11643.0,100.0,0.0,0.2749981,0.0,6.0,1.0,0.0,4000000.0,110.0,1.0,0.0,0.0,10.0,0.0,0.0,-265.81815,14.600546,-719.6961,-0.12125249,0.6695122,0.0030039977,254.84587,254.85583,248.63788,248.54243,562.0,559.0,621.0,617.0,93.0,93.0,93.0,93.0,0.0,0.0,0.0,0.0,0.03883116,0.038574904,0.050140426,0.049422223,-2.9517708,-5.2385774,-0.10482966,0.017434357,73.41204,-155.27306,6.9737425,50.841267,0.0,0.0,0.0,2.0,1.0,-2.5608804,-0.008243555,-0.017374039,93.0,93.0,93.0,93.0,21.980246,21.980246,24.842789,24.842789,0.024365311,0.024763534,-6.2271336E-4,-6.28285E-4,1194.6539,0.0,0.0,0.0,0.0,0.0,0.0,0.0,0.0,0.0,0.0,0.0,0.0,0.0,-37.964878,1.3370934,-57.71652,-0.008259062,-0.015617644,-0.010587671,544821.5,113985.65,0.020913798,0.026033685,5867.586,5742.935,4543.884,4212.404,0.31929874,0.0,0.0,0.0
59.6218,59.6218,0.899,0.0,0.0,249.9195,11695.0,100.0,0.0,0.37878,0.0,6.0,1.0,0.0,4000000.0,110.0,1.0,0.0,0.0,10.0,0.0,0.0,-267.71973,14.667581,-722.5901,-0.13344419,0.6612836,-0.0047705392,256.00122,256.00317,249.82423,249.70135,560.0,557.0,619.0,615.0,93.0,93.0,93.0,93.0,0.0,0.0,0.0,0.0,0.038747344,0.03843137,0.050170854,0.049437888,-0.9571015,-1.7738341,0.29258427,0.17099081,10.406967,169.97156,-33.433735,36.706024,0.0,0.0,0.0,2.0,1.0,-2.5617979,-0.0076575256,-0.017352581,93.0,93.0,93.0,93.0,21.980246,21.980246,24.842789,24.842789,0.024168279,0.02459914,-6.211594E-4,-6.2020647E-4,1197.7,0.0,0.0,0.0,0.0,0.0,0.0,0.0,0.0,0.0,0.0,0.0,0.0,0.0,-38.090256,1.3428798,-58.023743,-0.005822018,-0.020567052,-0.008545343,543782.0,113985.65,0.020901281,0.026118599,5881.2266,5757.4395,4561.191,4227.877,0.31919765,0.0,0.0,0.0
63.096756,63.096756,0.949,0.0,0.0,250.06061,11413.0,100.0,0.0,0.37225026,0.0,6.0,1.0,0.0,4000000.0,110.0,1.0,0.0,0.0,10.0,0.0,0.0,-269.6251,14.73511,-725.4959,-0.14623068,-0.42939752,0.08545722,250.07857,250.01492,250.1337,250.00812,558.0,555.0,617.0,613.0,93.0,93.0,93.0,93.0,0.0,0.0,0.0,0.0,0.03717129,0.036794167,0.050579827,0.04975396,-66.71235,-67.38312,18.328651,15.66611,-2280.5886,-2322.015,867.0643,698.1923,0.0,0.0,0.0,2.0,1.0,-2.5629,-0.0070874463,-0.016461372,93.0,93.0,93.0,93.0,21.980246,21.980246,24.842789,24.842789,-1.5859072E-4,5.1833922E-5,1.9460917E-5,4.0267816E-5,1180.8065,0.0,0.0,0.0,0.0,0.0,0.0,0.0,0.0,0.0,0.0,0.0,0.0,0.0,-38.053265,1.3655312,-58.094353,-0.04611352,-0.022183983,0.015879948,549358.6,0.0,0.020217298,0.027655834,5855.757,5715.835,5026.2114,4635.536,0.31960964,0.0,0.0,0.0
66.56524,66.56524,0.999,0.0,0.0,249.79944,10939.0,100.0,0.0,0.21145111,0.0,7.0,1.0,0.0,4000000.0,110.0,1.0,0.0,0.0,10.0,0.0,0.0,-271.524,14.80416,-728.39825,-0.12769312,0.25282106,-0.036166336,255.63383,255.62862,249.72707,249.61786,555.0,553.0,615.0,611.0,93.0,93.0,93.0,93.0,0.0,0.0,0.0,0.0,0.03430512,0.033931877,0.051027067,0.05025367,-28.280764,-27.699617,-5.7314334,-2.7988849,2340.4553,2321.4248,-1070.389,-857.35455,0.0,0.0,0.0,2.0,1.0,-2.5639243,-0.0063932077,-0.01518786,93.0,93.0,93.0,93.0,21.980246,21.980246,24.842789,24.842789,0.02010686,0.020421937,-4.0853757E-4,-4.2240717E-4,1130.2255,0.0,0.0,0.0,0.0,0.0,0.0,0.0,0.0,0.0,0.0,0.0,0.0,0.0,-37.95735,1.3813876,-58.070023,0.003222159,-0.017506698,-0.021724734,548610.94,113985.65,0.020535942,0.03141184,5425.1484,5280.287,5072.8,4730.6924,0.3214922,0.0,0.0,0.0
68.88191,68.88191,1.049,0.0,0.0,250.64557,10681.0,100.0,0.0,0.21466638,0.0,7.0,1.0,0.0,4000000.0,110.0,1.0,0.0,0.0,10.0,0.0,0.0,-272.79083,14.849501,-730.33765,-0.121172845,0.77054846,-0.16649783,257.77454,257.81683,250.50879,250.41469,554.0,551.0,613.0,609.0,93.0,93.0,93.0,93.0,0.0,0.0,0.0,0.0,0.0353659,0.03509474,0.050212342,0.049512126,0.0,0.0,0.0,0.0,1831.7876,1493.5879,-300.76947,-399.39432,0.0,0.0,0.0,2.0,1.0,-2.5644515,-0.0058362223,-0.01637876,93.0,93.0,93.0,93.0,21.980246,21.980246,24.842789,24.842789,0.028457664,0.028982237,-6.962596E-4,-7.152028E-4,1094.4971,0.0,0.0,0.0,0.0,0.0,0.0,0.0,0.0,0.0,0.0,0.0,0.0,0.0,-38.0531,1.3381841,-58.28928,0.024683114,-0.014551529,-0.035656843,544101.2,113985.65,0.022304587,0.030182602,5593.957,5462.5596,4274.313,3951.7056,0.32194042,0.0,0.0,0.0
73.54033,73.54033,1.099,0.0,0.0,252.3888,10394.0,100.0,0.0,0.08038311,0.0,7.0,1.0,0.0,4000000.0,110.0,1.0,0.0,0.0,10.0,0.0,0.0,-275.3351,14.936975,-734.2395,-0.090146184,0.6638995,0.04641536,258.26544,258.24747,252.25845,252.20975,551.0,548.0,610.0,606.0,93.0,93.0,93.0,93.0,0.0,0.0,0.0,0.0,0.038827967,0.038798768,0.050045464,0.04945243,39.982124,45.409794,9.668468,13.031511,-775.8691,-676.17163,280.97476,528.3951,0.0,0.0,0.0,2.0,1.0,-2.5651984,-0.0047452776,-0.017578721,93.0,93.0,93.0,93.0,21.980246,21.980246,24.842789,24.842789,0.023412542,0.023516942,-6.053668E-4,-6.2298885E-4,1048.6489,0.0,0.0,0.0,0.0,0.0,0.0,0.0,0.0,0.0,0.0,0.0,0.0,0.0,-38.26135,1.3142405,-58.73222,-0.0071156863,-0.0071242396,-0.016236374,535703.44,113985.65,0.020718433,0.025474444,6038.185,5996.869,4608.914,4351.8564,0.3191061,0.0,0.0,0.0
77.053535,77.053535,1.149,0.0,0.0,253.49518,10436.0,100.0,0.0,0.11732338,0.0,7.0,1.0,0.0,4000000.0,110.0,1.0,0.0,0.0,10.0,0.0,0.0,-277.25168,15.004019,-737.18353,-0.07744068,0.62311924,0.09099568,259.30563,259.29434,253.36479,253.31992,548.0,546.0,608.0,604.0,93.0,93.0,93.0,93.0,0.0,0.0,0.0,0.0,0.03998442,0.039930075,0.050408825,0.04994309,16.625895,13.464018,2.356097,5.7461853,-382.84512,-389.1482,-353.0859,-300.36716,0.0,0.0,0.0,2.0,1.0,-2.5655596,-0.0040403917,-0.017766118,93.0,93.0,93.0,93.0,21.980246,21.980246,24.842789,24.842789,0.0228804,0.023000859,-5.9004873E-4,-5.9812254E-4,1056.961,0.0,0.0,0.0,0.0,0.0,0.0,0.0,0.0,0.0,0.0,0.0,0.0,0.0,-38.39371,1.3650609,-59.011677,-0.0017376165,-0.0069241105,-0.013776325,537776.6,113985.65,0.019534908,0.024039144,6110.4116,6060.3647,4785.8857,4581.281,0.31767464,0.0,0.0,0.0
80.58187,80.58187,1.199,0.0,0.0,254.5868,10483.0,100.0,0.0,0.15677115,0.0,7.0,1.0,0.0,4000000.0,110.0,1.0,0.0,0.0,10.0,0.0,0.0,-279.17493,15.073091,-740.1413,-0.06991096,0.61578155,0.01861965,260.48428,260.472,254.45807,254.41116,546.0,543.0,606.0,602.0,93.0,93.0,93.0,93.0,0.0,0.0,0.0,0.0,0.0399933,0.040012043,0.050279323,0.049847167,-6.6905465,-2.890527,-2.6880202,-2.352744,-353.43463,-215.79709,77.55606,-7.4565406,0.0,0.0,0.0,2.0,1.0,-2.5659146,-0.0034213257,-0.017840505,93.0,93.0,93.0,93.0,21.980246,21.980246,24.842789,24.842789,0.023087006,0.023175824,-5.9407053E-4,-5.940098E-4,1066.3367,0.0,0.0,0.0,0.0,0.0,0.0,0.0,0.0,0.0,0.0,0.0,0.0,0.0,-38.529617,1.3906654,-59.284477,-0.008013601,-0.0076715737,-0.0065216953,540114.44,113985.65,0.01992236,0.024217172,5999.4453,5981.162,4626.705,4430.322,0.31786442,0.0,0.0,0.0
84.12536,84.12536,1.249,0.0,0.0,255.67006,10530.0,100.0,0.0,0.1351896,0.0,7.0,1.0,0.0,4000000.0,110.0,1.0,0.0,0.0,10.0,0.0,0.0,-281.10498,15.142626,-743.1127,-0.06432141,0.6133982,-0.026335038,261.65054,261.61896,255.54375,255.49002,544.0,541.0,604.0,600.0,93.0,93.0,93.0,93.0,0.0,0.0,0.0,0.0,0.039465953,0.039484352,0.05022249,0.04976701,-10.115503,-9.154602,-0.96492463,-1.5632807,115.026566,82.786385,16.160305,-100.582825,0.0,0.0,0.0,2.0,1.0,-2.566342,-0.0027982672,-0.017658114,93.0,93.0,93.0,93.0,21.980246,21.980246,24.842789,24.842789,0.023330268,0.023417518,-5.925062E-4,-5.9798354E-4,1073.7932,0.0,0.0,0.0,0.0,0.0,0.0,0.0,0.0,0.0,0.0,0.0,0.0,0.0,-38.666164,1.388352,-59.554714,-0.01018483,-0.008588144,-0.009922054,541463.6,113985.65,0.020298095,0.02498327,5912.2393,5887.5757,4609.427,4393.0938,0.31840706,0.0,0.0,0.0
87.68396,87.68396,1.299,0.0,0.0,256.74615,10572.0,100.0,0.0,0.15279879,0.0,7.0,1.0,0.0,4000000.0,110.0,1.0,0.0,0.0,10.0,0.0,0.0,-283.04187,15.211895,-746.09753,-0.0680193,0.60688674,-0.011505858,262.69257,262.69525,256.62216,256.5645,542.0,539.0,602.0,598.0,93.0,93.0,93.0,93.0,0.0,0.0,0.0,0.0,0.03926515,0.039321784,0.05024101,0.04986363,0.66764647,-2.5780497,1.1137872,2.6337056,304.43066,-66.03597,78.03886,-103.03705,0.0,0.0,0.0,2.0,1.0,-2.5668056,-0.0021995637,-0.017560601,93.0,93.0,93.0,93.0,21.980246,21.980246,24.842789,24.842789,0.023113064,0.023304556,-5.870883E-4,-5.9209974E-4,1079.557,0.0,0.0,0.0,0.0,0.0,0.0,0.0,0.0,0.0,0.0,0.0,0.0,0.0,-38.8014,1.3844701,-59.823452,-0.004035682,-0.009351742,-0.0071400367,542207.4,113985.65,0.020143365,0.025134215,5966.08,5902.3203,4663.2314,4489.3374,0.31841183,0.0,0.0,0.0
91.25729,91.25729,1.349,0.0,0.0,257.81244,10613.0,100.0,0.0,0.12591007,0.0,7.0,1.0,0.0,4000000.0,110.0,1.0,0.0,0.0,10.0,0.0,0.0,-284.98547,15.281159,-749.0957,-0.06541689,0.60129553,0.0055259205,263.71832,263.7086,257.68692,257.63303,539.0,537.0,600.0,596.0,93.0,93.0,93.0,93.0,0.0,0.0,0.0,0.0,0.03956704,0.039570615,0.050315205,0.04992665,6.7088747,10.293647,1.8382071,1.9698588,29.397009,168.79138,74.40447,64.74852,0.0,0.0,0.0,2.0,1.0,-2.5672638,-0.0017077145,-0.017658353,93.0,93.0,93.0,93.0,21.980246,21.980246,24.842789,24.842789,0.022862338,0.022988433,-5.81476E-4,-5.8970944E-4,1085.175,0.0,0.0,0.0,0.0,0.0,0.0,0.0,0.0,0.0,0.0,0.0,0.0,0.0,-38.93516,1.3879976,-60.089706,-0.0028905245,-0.008580673,-0.0084186,542923.5,113985.65,0.019804135,0.024623238,6031.923,5995.83,4706.532,4530.8584,0.31789684,0.0,0.0,0.0
93.64772,93.64772,1.399,0.0,0.0,258.51654,10641.0,100.0,0.0,0.13151915,0.0,7.0,1.0,0.0,4000000.0,110.0,1.0,0.0,0.0,10.0,0.0,0.0,-286.2849,15.327527,-751.1018,-0.064359084,0.5967105,0.013830464,264.4042,264.4007,258.3886,258.34012,538.0,535.0,598.0,594.0,93.0,93.0,93.0,93.0,0.0,0.0,0.0,0.0,0.039820917,0.039801903,0.050365463,0.04997715,0.0,0.0,0.0,0.0,-53.885563,66.170074,-6.155669,194.03098,0.0,0.0,0.0,2.0,1.0,-2.567535,-0.0013769967,-0.017722487,93.0,93.0,93.0,93.0,21.980246,21.980246,24.842789,24.842789,0.022734987,0.02287039,-5.8023084E-4,-5.846134E-4,1089.0076,0.0,0.0,0.0,0.0,0.0,0.0,0.0,0.0,0.0,0.0,0.0,0.0,0.0,-39.02392,1.3943381,-60.265144,-0.0034879085,-0.0077721365,-0.009389883,543407.3,113985.65,0.019662287,0.024332462,6063.7515,6020.724,4742.27,4573.5376,0.3176546,0.0,0.0,0.0
98.448105,98.448105,1.449,0.0,0.0,259.90915,10697.0,100.0,0.0,0.16791786,0.0,7.0,1.0,0.0,4000000.0,110.0,1.0,0.0,0.0,10.0,0.0,0.0,-288.89255,15.420902,-755.1316,-0.068761915,0.5879499,-0.002662682,265.7999,265.78186,259.78748,259.72708,535.0,532.0,596.0,592.0,93.0,93.0,93.0,93.0,0.0,0.0,0.0,0.0,0.040076513,0.040066544,0.050411195,0.049991403,-0.13031064,0.49173826,0.1374632,1.1520087,-223.29387,-268.01968,-34.680958,178.90332,0.0,0.0,0.0,2.0,1.0,-2.5681376,-7.0602633E-4,-0.017787337,93.0,93.0,93.0,93.0,21.980246,21.980246,24.842789,24.842789,0.022608584,0.022746388,-5.782399E-4,-5.8126217E-4,1096.7025,0.0,0.0,0.0,0.0,0.0,0.0,0.0,0.0,0.0,0.0,0.0,0.0,0.0,-39.19679,1.4045984,-60.61389,-0.0056987777,-0.009868095,-0.0083722435,544382.1,113985.66,0.019440228,0.023923455,6070.1367,6027.801,4745.986,4562.049,0.31742287,0.0,0.0,0.0
102.065186,102.065186,1.499,0.0,0.0,260.94162,10738.0,100.0,0.0,0.14014444,0.0,7.0,1.0,0.0,4000000.0,110.0,1.0,0.0,0.0,10.0,0.0,0.0,-290.8557,15.491297,-758.1691,-0.0685779,0.583753,-0.0037631597,266.81842,266.79453,260.8197,260.75928,532.0,530.0,594.0,590.0,93.0,93.0,93.0,93.0,0.0,0.0,0.0,0.0,0.040207732,0.04016017,0.05043978,0.05004059,3.9893384,2.8100607,-0.8377432,-0.10639428,110.58747,226.28453,-88.03009,-150.48532,0.0,0.0,0.0,2.0,1.0,-2.5686486,-2.0735746E-4,-0.017825603,93.0,93.0,93.0,93.0,21.980246,21.980246,24.842789,24.842789,0.022475174,0.022585122,-5.742603E-4,-5.816523E-4,1102.3483,0.0,0.0,0.0,0.0,0.0,0.0,0.0,0.0,0.0,0.0,0.0,0.0,0.0,-39.32369,1.4099492,-60.8733,-0.0046422756,-0.009721365,-0.008751558,545095.3,113985.66,0.01934633,0.02368551,6110.1914,6071.7197,4760.3516,4577.8,0.31695175,0.0,0.0,0.0
105.69661,105.69661,1.549,0.0,0.0,261.96283,10779.0,100.0,0.0,0.10707252,0.0,7.0,1.0,0.0,4000000.0,110.0,1.0,0.0,0.0,10.0,0.0,0.0,-292.82526,15.5619135,-761.21954,-0.06516023,0.5754544,2.3506535E-4,267.83594,267.83072,261.83545,261.78796,530.0,528.0,591.0,588.0,93.0,93.0,93.0,93.0,0.0,0.0,0.0,0.0,0.040383324,0.040281333,0.050455313,0.050112925,1.1837481,0.15221535,1.6591697,2.49356,-144.58447,-246.72296,109.957146,117.53438,0.0,0.0,0.0,2.0,1.0,-2.5690844,2.179407E-4,-0.017792583,93.0,93.0,93.0,93.0,21.980246,21.980246,24.842789,24.842789,0.02237255,0.022521155,-5.6793104E-4,-5.753875E-4,1108.0206,0.0,0.0,0.0,0.0,0.0,0.0,0.0,0.0,0.0,0.0,0.0,0.0,0.0,-39.450073,1.4144628,-61.12931,-0.0043977657,-0.0075541064,-0.0060112495,545816.1,113985.65,0.019151222,0.023548685,6117.287,6056.99,4805.2646,4648.853,0.3168192,0.0,0.0,0.0
109.34213,109.34213,1.599,0.0,0.0,262.974,10819.0,100.0,0.0,-0.05833289,0.0,7.0,1.0,0.0,4000000.0,110.0,1.0,0.0,0.0,10.0,0.0,0.0,-294.80115,15.632712,-764.28265,-0.038729414,0.5712135,-0.008407252,268.83023,268.8281,262.83057,262.81555,528.0,525.0,589.0,585.0,93.0,93.0,93.0,93.0,0.0,0.0,0.0,0.0,0.040487975,0.040427458,0.050434295,0.05015123,2.583861,4.934147,-0.72531396,0.2854317,100.83763,256.51303,-2.0116565,-48.561382,0.0,0.0,0.0,2.0,1.0,-2.5693407,6.153657E-4,-0.017768383,93.0,93.0,93.0,93.0,21.980246,21.980246,24.842789,24.842789,0.022281755,0.02232212,-5.6000927E-4,-5.818288E-4,1113.5571,0.0,0.0,0.0,0.0,0.0,0.0,0.0,0.0,0.0,0.0,0.0,0.0,0.0,-39.581738,1.4165258,-61.378647,-0.0070592472,-0.001462823,-0.00796216,546515.4,113985.66,0.01921901,0.023406217,6142.8994,6114.673,4770.0586,4638.9897,0.31670475,0.0,0.0,0.0
113.00154,113.00154,1.649,0.0,0.0,263.97375,10859.0,100.0,0.0,-0.36674818,0.0,7.0,1.0,0.0,4000000.0,110.0,1.0,0.0,0.0,10.0,0.0,0.0,-296.78415,15.703588,-767.3578,0.024750158,0.5645106,-0.0058460967,269.82208,269.8353,263.78555,263.8597,526.0,523.0,587.0,583.0,93.0,93.0,93.0,93.0,0.0,0.0,0.0,0.0,0.04037615,0.040710676,0.05037836,0.05033977,-2.3858247,7.076114,-2.2000818,4.348978,23.134058,37.738693,-87.19861,53.778275,0.0,0.0,0.0,2.0,1.0,-2.5690258,0.0013534182,-0.017766595,93.0,93.0,93.0,93.0,21.980246,21.980246,24.842789,24.842789,0.022347026,0.022115221,-5.497056E-4,-5.8350485E-4,1119.1093,0.0,0.0,0.0,0.0,0.0,0.0,0.0,0.0,0.0,0.0,0.0,0.0,0.0,-39.733524,1.4183474,-61.611233,-0.007846605,0.014257153,-0.015411947,547217.1,113985.65,0.019060746,0.02332429,6095.665,6164.1226,4762.9194,4765.716,0.31652546,0.0,0.0,0.0
116.6749,116.6749,1.699,0.0,0.0,264.9644,10898.0,100.0,0.0,-0.37381408,0.0,7.0,1.0,0.0,4000000.0,110.0,1.0,0.0,0.0,10.0,0.0,0.0,-298.7754,15.774592,-770.4441,0.07720846,0.55851305,0.0033064373,270.78287,270.81195,264.7444,264.88358,523.0,521.0,585.0,581.0,93.0,93.0,93.0,93.0,0.0,0.0,0.0,0.0,0.040459868,0.041177906,0.050245345,0.050548665,3.2586603,8.22924,-1.1347978,4.305616,59.786434,-31.998764,127.632904,41.574238,0.0,0.0,0.0,2.0,1.0,-2.5679977,0.0020873467,-0.017821312,93.0,93.0,93.0,93.0,21.980246,21.980246,24.842789,24.842789,0.022244852,0.021849377,-5.610937E-4,-5.6344434E-4,1124.5248,0.0,0.0,0.0,0.0,0.0,0.0,0.0,0.0,0.0,0.0,0.0,0.0,0.0,-39.90872,1.4224825,-61.82564,-0.0054373248,0.023978118,-0.009453108,547897.4,113985.65,0.018894205,0.022967132,6106.635,6256.0117,4715.8745,4870.712,0.31614113,0.0,0.0,0.0
120.361755,120.361755,1.749,0.0,0.0,265.9441,10937.0,100.0,0.0,-0.21588539,0.0,7.0,1.0,0.0,4000000.0,110.0,1.0,0.0,0.0,10.0,0.0,0.0,-300.77576,15.845878,-773.54065,0.099632666,0.553587,0.0032502194,271.77066,271.75687,265.73505,265.85226,521.0,519.0,583.0,579.0,93.0,93.0,93.0,93.0,0.0,0.0,0.0,0.0,0.040591657,0.041447926,0.050266106,0.050644685,4.0065494,6.0083714,0.53130084,1.2628733,167.2357,118.17812,6.4641213,-58.76719,0.0,0.0,0.0,2.0,1.0,-2.566898,0.0024997275,-0.017885923,93.0,93.0,93.0,93.0,21.980246,21.980246,24.842789,24.842789,0.022144297,0.021700524,-5.701064E-4,-5.505991E-4,1129.9467,0.0,0.0,0.0,0.0,0.0,0.0,0.0,0.0,0.0,0.0,0.0,0.0,0.0,-40.09526,1.4287311,-62.02904,-0.0019493159,0.019205593,-0.0066410345,548575.94,113985.65,0.018650576,0.022650592,6118.4033,6311.181,4734.368,4910.4688,0.3158102,0.0,0.0,0.0
124.06249,124.06249,1.799,0.0,0.0,266.91406,10976.0,100.0,0.0,-0.11304863,0.0,7.0,1.0,0.0,4000000.0,110.0,1.0,0.0,0.0,10.0,0.0,0.0,-302.78546,15.917487,-776.6476,0.09438932,0.5474349,-0.0014509452,272.7409,272.70285,266.73047,266.79727,519.0,517.0,581.0,577.0,93.0,93.0,93.0,93.0,0.0,0.0,0.0,0.0,0.04088853,0.041630287,0.050281733,0.050655007,5.410909,1.5489756,1.0205804,-1.0161101,-80.33217,-217.78194,83.02777,-119.80085,0.0,0.0,0.0,2.0,1.0,-2.5661802,0.0027504195,-0.017932773,93.0,93.0,93.0,93.0,21.980246,21.980246,24.842789,24.842789,0.021967208,0.021629613,-5.667506E-4,-5.498559E-4,1135.3667,0.0,0.0,0.0,0.0,0.0,0.0,0.0,0.0,0.0,0.0,0.0,0.0,0.0,-40.281616,1.4347203,-62.229305,-0.0034518489,0.01062455,-0.0037872717,549248.75,113985.65,0.018575666,0.022326386,6158.611,6316.3193,4740.208,4898.383,0.31544685,0.0,0.0,0.0
127.77701,127.77701,1.849,0.0,0.0,267.8734,11014.0,100.0,0.0,-0.06871453,0.0,7.0,1.0,0.0,4000000.0,110.0,1.0,0.0,0.0,10.0,0.0,0.0,-304.80426,15.9894,-779.7644,0.07462184,0.54182416,0.0017919503,273.69916,273.6529,267.707,267.7394,517.0,514.0,579.0,575.0,93.0,93.0,93.0,93.0,0.0,0.0,0.0,0.0,0.04097924,0.0417322,0.05041336,0.050673902,2.0277498,2.082735,2.0277498,-0.24296342,81.00269,-14.51075,-87.48025,-45.691425,0.0,0.0,0.0,2.0,1.0,-2.5658228,0.0030088504,-0.017959833,93.0,93.0,93.0,93.0,21.980246,21.980246,24.842789,24.842789,0.021850483,0.021578327,-5.5951125E-4,-5.5051036E-4,1140.1775,0.0,0.0,0.0,0.0,0.0,0.0,0.0,0.0,0.0,0.0,0.0,0.0,0.0,-40.460056,1.4411902,-62.43114,-0.0010528895,0.005089332,-0.0058560222,549673.0,113985.65,0.018320974,0.022166625,6179.7026,6320.381,4823.828,4937.2812,0.31524277,0.0,0.0,0.0
131.50464,131.50464,1.899,0.0,0.0,268.823,11052.0,100.0,0.0,-0.14234225,0.0,7.0,1.0,0.0,4000000.0,110.0,1.0,0.0,0.0,10.0,0.0,0.0,-306.83185,16.061632,-782.89124,0.066547364,0.5352311,0.0027003977,274.6239,274.58298,268.65527,268.69183,515.0,512.0,577.0,573.0,93.0,93.0,93.0,93.0,0.0,0.0,0.0,0.0,0.041262884,0.04194196,0.050455734,0.050667167,5.1011143,3.6761906,1.4439224,-0.6412714,-117.266174,-62.119972,68.852295,-61.717617,0.0,0.0,0.0,2.0,1.0,-2.5655599,0.003337573,-0.018044233,93.0,93.0,93.0,93.0,21.980246,21.980246,24.842789,24.842789,0.021678772,0.021411458,-5.500808E-4,-5.5302767E-4,1144.194,0.0,0.0,0.0,0.0,0.0,0.0,0.0,0.0,0.0,0.0,0.0,0.0,0.0,-40.63226,1.4476994,-62.633766,-0.0041984464,0.006351438,-0.0072431755,549712.75,113985.65,0.018201634,0.021804169,6223.228,6353.032,4841.7793,4926.222,0.31500912,0.0,0.0,0.0
135.24553,135.24553,1.949,0.0,0.0,269.76053,11089.0,100.0,0.0,-0.1681448,0.0,7.0,1.0,0.0,4000000.0,110.0,1.0,0.0,0.0,10.0,0.0,0.0,-308.86792,16.13414,-786.0284,0.06357685,0.5291001,-0.005211171,275.55246,275.5214,269.58652,269.6363,512.0,510.0,575.0,571.0,93.0,93.0,93.0,93.0,0.0,0.0,0.0,0.0,0.04132933,0.042077836,0.05049647,0.05066723,1.9311904,0.7309019,0.42490658,-0.5458295,87.74846,-144.93315,-115.52273,-62.160183,0.0,0.0,0.0,2.0,1.0,-2.5651867,0.003757258,-0.018012404,93.0,93.0,93.0,93.0,21.980246,21.980246,24.842789,24.842789,0.021590093,0.021319173,-5.4746616E-4,-5.5067835E-4,1148.1083,0.0,0.0,0.0,0.0,0.0,0.0,0.0,0.0,0.0,0.0,0.0,0.0,0.0,-40.800587,1.4517908,-62.834946,-0.006431471,0.008653717,-0.007558604,549752.8,113985.65,0.018206334,0.021716012,6232.2383,6360.1826,4857.0146,4930.7095,0.31500912,0.0,0.0,0.0
138.99939,138.99939,1.999,0.0,0.0,270.68552,11126.0,100.0,0.0,-0.23704913,0.0,7.0,1.0,0.0,4000000.0,110.0,1.0,0.0,0.0,10.0,0.0,0.0,-310.91238,16.206944,-789.1754,0.07531768,0.5208601,-0.0033136965,276.47195,276.44073,270.5023,270.57095,510.0,508.0,573.0,569.0,93.0,93.0,93.0,93.0,0.0,0.0,0.0,0.0,0.041422594,0.0422438,0.050517943,0.050735615,-1.0078399,1.7403065,-1.2816488,0.751689,-268.89142,-164.84856,-102.554245,16.951557,0.0,0.0,0.0,2.0,1.0,-2.5646815,0.0043707243,-0.018013358,93.0,93.0,93.0,93.0,21.980246,21.980246,24.842789,24.842789,0.02153311,0.02118524,-5.4093933E-4,-5.4799614E-4,1152.0217,0.0,0.0,0.0,0.0,0.0,0.0,0.0,0.0,0.0,0.0,0.0,0.0,0.0,-40.969738,1.4583247,-63.031364,-0.00724305,0.012088039,-0.011469566,549792.25,113985.65,0.018460838,0.021855319,6222.163,6383.245,4868.4507,4977.3667,0.3152666,0.0,0.0,0.0
142.76581,142.76581,2.049,0.0,0.0,271.5986,11163.0,100.0,0.0,-0.2930327,0.0,7.0,1.0,0.0,4000000.0,110.0,1.0,0.0,0.0,10.0,0.0,0.0,-312.96545,16.27994,-792.332,0.094876125,0.5144535,0.010675443,277.3762,277.34192,271.4022,271.49768,508.0,506.0,571.0,567.0,93.0,93.0,93.0,93.0,0.0,0.0,0.0,0.0,0.041378733,0.04243468,0.05057844,0.050852433,-0.042691823,6.832033,0.6001442,3.7642565,-9.374319,263.41974,-235.75273,49.25876,0.0,0.0,0.0,2.0,1.0,-2.5639646,0.005127869,-0.018105984,93.0,93.0,93.0,93.0,21.980246,21.980246,24.842789,24.842789,0.021476075,0.021014042,-5.3696067E-4,-5.41761E-4,1155.9343,0.0,0.0,0.0,0.0,0.0,0.0,0.0,0.0,0.0,0.0,0.0,0.0,0.0,-41.14456,1.4637438,-63.220158,-0.0039579878,0.016587485,-0.016898053,549831.0,113985.65,0.018228142,0.021871462,6216.8535,6441.3745,4937.742,5078.3887,0.3152237,0.0,0.0,0.0
146.54498,146.54498,2.099,0.0,0.0,272.50302,11198.0,100.0,0.0,-0.3186716,0.0,7.0,1.0,0.0,4000000.0,110.0,1.0,0.0,0.0,10.0,0.0,0.0,-315.0275,16.353209,-795.4978,0.11377108,0.51042473,0.01022085,278.24942,278.21286,272.29898,272.411,506.0,503.0,569.0,565.0,93.0,93.0,93.0,93.0,0.0,0.0,0.0,0.0,0.041599818,0.042783037,0.05051675,0.050886128,6.650537,7.980465,3.899708,2.6397405,108.48194,142.89467,615.0036,247.47398,0.0,0.0,0.0,2.0,1.0,-2.5630708,0.005840826,-0.018302202,93.0,93.0,93.0,93.0,21.980246,21.980246,24.842789,24.842789,0.02130786,0.02079922,-5.371748E-4,-5.378483E-4,1159.6375,0.0,0.0,0.0,0.0,0.0,0.0,0.0,0.0,0.0,0.0,0.0,0.0,0.0,-41.326042,1.467868,-63.401733,-0.006181415,0.01918126,-0.012585914,549868.44,113985.65,0.017854707,0.021158194,6267.9023,6511.0625,4927.552,5086.235,0.31494427,0.0,0.0,0.0
150.33653,150.33653,2.149,0.0,0.0,273.39758,11231.0,100.0,0.0,-0.2911997,0.0,7.0,1.0,0.0,4000000.0,110.0,1.0,0.0,0.0,10.0,0.0,0.0,-317.09872,16.427116,-798.6725,0.124947116,0.505916,0.05427946,279.0801,279.0412,273.19214,273.30646,504.0,501.0,567.0,563.0,93.0,93.0,93.0,93.0,0.0,0.0,0.0,0.0,0.042108875,0.043397147,0.050667442,0.05107966,18.22829,17.87178,1.9577888,3.2600014,782.427,437.37433,-131.21365,-84.865074,0.0,0.0,0.0,2.0,1.0,-2.5621047,0.006612785,-0.018537521,93.0,93.0,93.0,93.0,21.980246,21.980246,24.842789,24.842789,0.02099623,0.02050909,-5.372765E-4,-5.322007E-4,1163.1302,0.0,0.0,0.0,0.0,0.0,0.0,0.0,0.0,0.0,0.0,0.0,0.0,0.0,-41.512085,1.4910022,-63.57657,-0.0034967153,0.019307321,-0.017355219,549904.06,113985.65,0.01744596,0.020467779,6405.08,6652.4604,5019.117,5207.4585,0.31441498,0.0,0.0,0.0
154.14035,154.14035,2.199,0.0,0.0,274.2779,11267.0,100.0,0.0,-0.24974181,0.0,7.0,1.0,0.0,4000000.0,110.0,1.0,0.0,0.0,10.0,0.0,0.0,-319.1792,16.502298,-801.8558,0.12564547,0.49689022,0.026505059,279.98083,279.93048,274.0806,274.17944,501.0,499.0,564.0,561.0,93.0,93.0,93.0,93.0,0.0,0.0,0.0,0.0,0.042357452,0.043700032,0.050667826,0.051074747,0.03866851,2.2193043,-0.5757808,-0.7950514,-368.2538,-223.81691,-213.43677,-26.889141,0.0,0.0,0.0,2.0,1.0,-2.5612233,0.007377295,-0.018776774,93.0,93.0,93.0,93.0,21.980246,21.980246,24.842789,24.842789,0.02098716,0.020491187,-5.3569087E-4,-5.291878E-4,1166.94,0.0,0.0,0.0,0.0,0.0,0.0,0.0,0.0,0.0,0.0,0.0,0.0,0.0,-41.697388,1.5134195,-63.747116,-0.005817812,0.01660063,-0.015538473,549942.44,113985.65,0.017421901,0.020266175,6344.4863,6610.6597,4977.502,5167.0474,0.3143711,0.0,0.0,0.0
157.95645,157.95645,2.249,0.0,0.0,275.14853,11302.0,100.0,0.0,-0.18809068,0.0,7.0,1.0,0.0,4000000.0,110.0,1.0,0.0,0.0,10.0,0.0,0.0,-321.26886,16.578365,-805.04767,0.11463529,0.49106625,0.012126413,280.84906,280.79822,274.96133,275.0405,499.0,497.0,562.0,559.0,93.0,93.0,93.0,93.0,0.0,0.0,0.0,0.0,0.042366806,0.043725446,0.05065162,0.051044956,0.48570332,-0.5129724,-1.6216187,-0.33840534,-221.92595,-119.49239,-74.06919,68.26221,0.0,0.0,0.0,2.0,1.0,-2.5604994,0.008157323,-0.018941283,93.0,93.0,93.0,93.0,21.980246,21.980246,24.842789,24.842789,0.02089331,0.02044709,-5.35531E-4,-5.2604557E-4,1170.6442,0.0,0.0,0.0,0.0,0.0,0.0,0.0,0.0,0.0,0.0,0.0,0.0,0.0,-41.878735,1.527141,-63.917187,-0.007109846,0.013143449,-0.01288427,549979.6,113985.65,0.017493876,0.02018035,6348.8936,6601.918,4963.3906,5150.8223,0.31429863,0.0,0.0,0.0
161.78445,161.78445,2.299,0.0,0.0,276.00916,11337.0,100.0,0.0,-0.101780556,0.0,7.0,1.0,0.0,4000000.0,110.0,1.0,0.0,0.0,10.0,0.0,0.0,-323.36743,16.654953,-808.24805,0.093317136,0.48536035,0.019711247,281.72595,281.65134,275.83563,275.88852,497.0,495.0,560.0,557.0,93.0,93.0,93.0,93.0,0.0,0.0,0.0,0.0,0.042342737,0.04364473,0.050799534,0.051049676,-0.764206,0.54538244,5.676224,0.636354,-89.9881,154.69638,223.57549,19.325314,0.0,0.0,0.0,2.0,1.0,-2.5599673,0.008907167,-0.019003153,93.0,93.0,93.0,93.0,21.980246,21.980246,24.842789,24.842789,0.020841874,0.02040473,-5.322449E-4,-5.196217E-4,1174.3486,0.0,0.0,0.0,0.0,0.0,0.0,0.0,0.0,0.0,0.0,0.0,0.0,0.0,-42.05156,1.5374349,-64.089554,-0.0053432113,0.008545795,-0.015346938,550016.75,113985.65,0.017060649,0.02008685,6340.779,6601.794,5103.8936,5205.5767,0.31418896,0.0,0.0,0.0
165.62433,165.62433,2.349,0.0,0.0,276.86072,11370.0,100.0,0.0,-0.07264677,0.0,7.0,1.0,0.0,4000000.0,110.0,1.0,0.0,0.0,10.0,0.0,0.0,-325.4743,16.732296,-811.45715,0.07165,0.4796345,0.017758789,282.55124,282.47797,276.69882,276.72998,495.0,493.0,558.0,555.0,93.0,93.0,93.0,93.0,0.0,0.0,0.0,0.0,0.04273686,0.043885164,0.050829124,0.051040467,8.7692585,1.5597044,-0.6372481,-0.7040798,101.78984,-91.7986,12.244284,-3.8355587,0.0,0.0,0.0,2.0,1.0,-2.5596564,0.009680189,-0.019200087,93.0,93.0,93.0,93.0,21.980246,21.980246,24.842789,24.842789,0.02061656,0.020266218,-5.2826095E-4,-5.196179E-4,1177.8429,0.0,0.0,0.0,0.0,0.0,0.0,0.0,0.0,0.0,0.0,0.0,0.0,0.0,-42.213875,1.5536803,-64.265625,-0.0068008755,0.0050389897,-0.013433158,550052.2,113985.65,0.017108869,0.019770907,6429.1772,6631.667,5066.924,5161.989,0.3142252,0.0,0.0,0.0
169.476,169.476,2.399,0.0,0.0,277.70062,11404.0,100.0,0.0,-0.018392507,0.0,7.0,1.0,0.0,4000000.0,110.0,1.0,0.0,0.0,10.0,0.0,0.0,-327.58902,16.810251,-814.67523,0.045817196,0.47370625,0.010114317,283.3968,283.32013,277.54877,277.56058,493.0,490.0,556.0,553.0,93.0,93.0,93.0,93.0,0.0,0.0,0.0,0.0,0.042785056,0.04382199,0.050946254,0.05101026,-0.8127093,-1.4021246,3.9111073,-0.64820045,27.586514,14.819204,42.191147,-0.75101846,0.0,0.0,0.0,2.0,1.0,-2.5594907,0.010373187,-0.019241333,93.0,93.0,93.0,93.0,21.980246,21.980246,24.842789,24.842789,0.020548072,0.02026749,-5.247936E-4,-5.1663764E-4,1180.2513,0.0,0.0,0.0,0.0,0.0,0.0,0.0,0.0,0.0,0.0,0.0,0.0,0.0,-42.364666,1.5636991,-64.44552,-0.005734193,0.0017750849,-0.01301757,549533.7,113985.65,0.016892739,0.019776246,6422.1973,6599.4404,5163.5796,5172.5093,0.3142519,0.0,0.0,0.0
173.33923,173.33923,2.449,0.0,0.0,278.531,11436.0,100.0,0.0,-0.04083371,0.0,7.0,1.0,0.0,4000000.0,110.0,1.0,0.0,0.0,10.0,0.0,0.0,-329.71103,16.888615,-817.9023,0.030596629,0.4689981,0.0049819984,284.17813,284.13428,278.3824,278.38815,491.0,488.0,554.0,551.0,93.0,93.0,93.0,93.0,0.0,0.0,0.0,0.0,0.042973958,0.043840677,0.050969496,0.05097175,7.046833,1.4647095,0.73045486,0.16607343,276.8844,113.63177,69.536255,105.00847,0.0,0.0,0.0,2.0,1.0,-2.559447,0.011146156,-0.019340634,93.0,93.0,93.0,93.0,21.980246,21.980246,24.842789,24.842789,0.02032549,0.020156454,-5.197062E-4,-5.198663E-4,1182.1959,0.0,0.0,0.0,0.0,0.0,0.0,0.0,0.0,0.0,0.0,0.0,0.0,0.0,-42.50627,1.5702446,-64.628365,-0.009164095,0.0012068807,-0.014535108,548898.9,113985.65,0.016830755,0.019403033,6507.0254,6618.048,5149.252,5147.5444,0.314085,0.0,0.0,0.0
177.21399,177.21399,2.499,0.0,0.0,279.3494,11468.0,100.0,0.0,-0.078672744,0.0,7.0,1.0,0.0,4000000.0,110.0,1.0,0.0,0.0,10.0,0.0,0.0,-331.83997,16.96743,-821.13855,0.02640009,0.46253526,0.025863772,284.9725,284.922,279.1959,279.21115,488.0,486.0,552.0,549.0,93.0,93.0,93.0,93.0,0.0,0.0,0.0,0.0,0.043093298,0.04410099,0.051114053,0.05105494,5.7470794,10.108798,1.0279565,2.3531911,354.06497,414.40125,-252.9591,50.96196,0.0,0.0,0.0,2.0,1.0,-2.5593581,0.012168523,-0.019482732,93.0,93.0,93.0,93.0,21.980246,21.980246,24.842789,24.842789,0.02020812,0.019970138,-5.1432813E-4,-5.177627E-4,1184.1444,0.0,0.0,0.0,0.0,0.0,0.0,0.0,0.0,0.0,0.0,0.0,0.0,0.0,-42.642845,1.5833458,-64.81036,-0.006989768,0.0029967017,-0.02091444,548269.4,113985.65,0.016569693,0.019166851,6531.9043,6689.6396,5248.9316,5234.919,0.3135605,0.0,0.0,0.0
181.10007,181.10007,2.549,0.0,0.0,280.15582,11501.0,100.0,0.0,-0.068573296,0.0,7.0,1.0,0.0,4000000.0,110.0,1.0,0.0,0.0,10.0,0.0,0.0,-333.97565,17.04688,-824.38385,0.023276255,0.45321214,0.0073893378,285.77945,285.73453,280.0025,280.02072,486.0,484.0,550.0,547.0,93.0,93.0,93.0,93.0,0.0,0.0,0.0,0.0,0.043443087,0.04426089,0.0510184,0.051051453,1.5062838,-1.2242048,-0.18708406,0.8578598,-678.26355,-252.38243,124.25332,79.28609,0.0,0.0,0.0,2.0,1.0,-2.5592146,0.013071282,-0.019537807,93.0,93.0,93.0,93.0,21.980246,21.980246,24.842789,24.842789,0.02013297,0.019902863,-5.117738E-4,-5.124149E-4,1186.1576,0.0,0.0,0.0,0.0,0.0,0.0,0.0,0.0,0.0,0.0,0.0,0.0,0.0,-42.775356,1.5932846,-64.991135,-0.010984191,0.0034094965,-0.01245197,547625.7,113985.65,0.016798086,0.019081952,6507.0303,6656.0186,5179.906,5198.878,0.3137951,0.0,0.0,0.0
184.9972,184.9972,2.599,0.0,0.0,280.9502,11532.0,100.0,0.0,-0.05568029,0.0,7.0,1.0,0.0,4000000.0,110.0,1.0,0.0,0.0,10.0,0.0,0.0,-336.1178,17.126738,-827.6381,0.022155166,0.44857347,0.009233727,286.56253,286.50992,280.79538,280.81497,484.0,482.0,548.0,545.0,93.0,93.0,93.0,93.0,0.0,0.0,0.0,0.0,0.043306608,0.044223044,0.051163908,0.051076423,-0.58650964,3.022626,2.2163985,-0.1964718,151.57161,276.79053,-13.759731,-90.91346,0.0,0.0,0.0,2.0,1.0,-2.5590527,0.01397727,-0.019624114,93.0,93.0,93.0,93.0,21.980246,21.980246,24.842789,24.842789,0.020065507,0.019807115,-5.115393E-4,-5.087229E-4,1188.0082,0.0,0.0,0.0,0.0,0.0,0.0,0.0,0.0,0.0,0.0,0.0,0.0,0.0,-42.906055,1.6010256,-65.16914,-0.006884952,0.003489685,-0.01970888,547005.6,113985.65,0.016659878,0.019170934,6516.9756,6683.8003,5279.2427,5231.1846,0.31377125,0.0,0.0,0.0
188.90533,188.90533,2.649,0.0,0.0,281.73596,11563.0,100.0,0.0,-0.09612549,0.0,7.0,1.0,0.0,4000000.0,110.0,1.0,0.0,0.0,10.0,0.0,0.0,-338.26654,17.206743,-830.9012,0.02705805,0.442962,0.01381504,287.32605,287.27457,281.57938,281.6046,482.0,480.0,546.0,543.0,93.0,93.0,93.0,93.0,0.0,0.0,0.0,0.0,0.043496177,0.044341974,0.05112685,0.051092412,8.26925,4.2302904,5.2922215,1.4338641,227.78656,25.46758,374.6107,3.2588837,0.0,0.0,0.0,2.0,1.0,-2.558871,0.014856701,-0.019676924,93.0,93.0,93.0,93.0,21.980246,21.980246,24.842789,24.842789,0.019909525,0.019672444,-5.0635263E-4,-5.078739E-4,1189.878,0.0,0.0,0.0,0.0,0.0,0.0,0.0,0.0,0.0,0.0,0.0,0.0,0.0,-43.03672,1.6030434,-65.34445,-0.010588426,0.004627595,-0.016408898,546397.8,113985.65,0.016386563,0.018710874,6568.9487,6708.5576,5291.48,5254.588,0.31359768,0.0,0.0,0.0
192.82437,192.82437,2.699,0.0,0.0,282.50986,11593.0,100.0,0.0,-0.0921484,0.0,7.0,1.0,0.0,4000000.0,110.0,1.0,0.0,0.0,10.0,0.0,0.0,-340.42184,17.287304,-834.173,0.029935956,0.43633556,0.0153743215,288.07645,288.0281,282.35086,282.3808,480.0,478.0,544.0,541.0,93.0,93.0,93.0,93.0,0.0,0.0,0.0,0.0,0.043715663,0.044707518,0.05120199,0.05119404,5.48847,5.597323,-0.8708238,0.67770475,237.4023,-197.27641,-143.16289,-57.922295,0.0,0.0,0.0,2.0,1.0,-2.558632,0.015945993,-0.019818783,93.0,93.0,93.0,93.0,21.980246,21.980246,24.842789,24.842789,0.019776566,0.019538982,-5.047785E-4,-5.046156E-4,1191.659,0.0,0.0,0.0,0.0,0.0,0.0,0.0,0.0,0.0,0.0,0.0,0.0,0.0,-43.16699,1.617349,-65.51576,-0.009181712,0.00535323,-0.020318758,545799.56,113985.65,0.016108982,0.018424995,6597.6943,6747.8003,5293.7847,5290.925,0.31322575,0.0,0.0,0.0
196.75409,196.75409,2.749,0.0,0.0,283.2739,11623.0,100.0,0.0,-0.10576058,0.0,7.0,1.0,0.0,4000000.0,110.0,1.0,0.0,0.0,10.0,0.0,0.0,-342.5836,17.368502,-837.45325,0.03424655,0.43036836,0.0222204,288.8246,288.78293,283.11484,283.14536,478.0,476.0,542.0,539.0,93.0,93.0,93.0,93.0,0.0,0.0,0.0,0.0,0.04391467,0.044919685,0.05126116,0.05127202,2.1788476,2.119392,2.955347,3.036931,-116.27375,-117.48075,97.45805,196.56567,0.0,0.0,0.0,2.0,1.0,-2.5583794,0.017000578,-0.019979,93.0,93.0,93.0,93.0,21.980246,21.980246,24.842789,24.842789,0.019679831,0.019441234,-5.0071586E-4,-5.025304E-4,1193.4342,0.0,0.0,0.0,0.0,0.0,0.0,0.0,0.0,0.0,0.0,0.0,0.0,0.0,-43.29712,1.6305887,-65.6839,-0.007708622,0.0054997946,-0.020957662,545201.75,113985.65,0.015521302,0.017976915,6608.3745,6762.6543,5370.0107,5376.3584,0.31288338,0.0,0.0,0.0
200.6944,200.6944,2.799,0.0,0.0,284.02985,11652.0,100.0,0.0,-0.08857768,0.0,7.0,1.0,0.0,4000000.0,110.0,1.0,0.0,0.0,10.0,0.0,0.0,-344.75192,17.450535,-840.7418,0.034388453,0.4257073,0.033401046,289.5202,289.494,283.87094,283.9019,476.0,474.0,540.0,537.0,93.0,93.0,93.0,93.0,0.0,0.0,0.0,0.0,0.044391327,0.045467816,0.051258706,0.051317636,14.7347145,10.894909,-2.6672332,-0.47296283,239.50783,-199.71724,-196.84729,-168.84503,0.0,0.0,0.0,2.0,1.0,-2.5581295,0.018064858,-0.020275116,93.0,93.0,93.0,93.0,21.980246,21.980246,24.842789,24.842789,0.019413363,0.01922048,-5.006276E-4,-5.002433E-4,1195.1829,0.0,0.0,0.0,0.0,0.0,0.0,0.0,0.0,0.0,0.0,0.0,0.0,0.0,-43.426758,1.650721,-65.8495,-0.008308006,0.0054708105,-0.017621672,544641.7,113985.66,0.015506855,0.017157583,6728.765,6863.4097,5315.241,5352.696,0.31207657,0.0,0.0,0.0
204.64139,204.64139,2.849,0.0,0.0,283.87033,11382.0,100.0,0.0,-0.0899208,0.0,7.0,1.0,0.0,4000000.0,110.0,1.0,0.0,0.0,10.0,0.0,0.0,-346.92456,17.533516,-844.0355,0.03563398,-0.54101694,0.07839842,283.84924,283.8568,283.86542,283.891,474.0,471.0,538.0,535.0,93.0,93.0,93.0,93.0,0.0,0.0,0.0,0.0,0.042871986,0.043855026,0.05159823,0.05151985,-68.72579,-67.30332,20.719393,13.899653,-2349.4404,-2110.12,1143.2244,771.6044,0.0,0.0,0.0,2.0,1.0,-2.5578852,0.019209819,-0.019360423,93.0,93.0,93.0,93.0,21.980246,21.980246,24.842789,24.842789,-5.680326E-6,-6.4494416E-5,1.2224078E-5,1.36268945E-5,1178.8983,0.0,0.0,0.0,0.0,0.0,0.0,0.0,0.0,0.0,0.0,0.0,0.0,0.0,-43.41614,1.6724379,-65.802864,-0.052283056,0.0055451724,-9.900872E-4,549964.6,0.0,0.014986578,0.019026518,6522.374,6701.409,5764.135,5701.982,0.3124056,0.0,0.0,0.0
208.57861,208.57861,2.899,0.0,0.0,283.34366,10913.0,100.0,0.0,-0.06536404,0.0,8.0,1.0,0.0,4000000.0,110.0,1.0,0.0,0.0,10.0,0.0,0.0,-349.09256,17.617588,-847.32056,0.031225735,0.057575688,-0.04855811,288.58542,288.53122,283.2188,283.23917,472.0,469.0,536.0,533.0,93.0,93.0,93.0,93.0,0.0,0.0,0.0,0.0,0.039865997,0.041116957,0.051886044,0.051890634,-30.317677,-28.717516,-6.8257747,-4.1437893,2398.9673,2127.9707,-852.0438,-907.0023,0.0,0.0,0.0,2.0,1.0,-2.557662,0.020703325,-0.018067718,93.0,93.0,93.0,93.0,21.980246,21.980246,24.842789,24.842789,0.01623495,0.016009826,-3.387978E-4,-3.3860706E-4,1126.5862,0.0,0.0,0.0,0.0,0.0,0.0,0.0,0.0,0.0,0.0,0.0,0.0,0.0,-43.34941,1.6774246,-65.67145,-0.009598907,0.003729891,-0.025046404,548147.3,113985.65,0.015912678,0.022846773,6135.088,6350.095,5677.4956,5692.832,0.3145237,0.0,0.0,0.0
212.52017,212.52017,2.949,0.0,0.0,284.19098,10541.0,100.0,0.0,-0.06735083,0.0,8.0,1.0,0.0,4000000.0,110.0,1.0,0.0,0.0,10.0,0.0,0.0,-351.26367,17.69984,-850.60876,0.028032303,0.5067633,-0.13772167,290.4192,290.2864,284.0221,284.04053,470.0,467.0,534.0,531.0,93.0,93.0,93.0,93.0,0.0,0.0,0.0,0.0,0.041071977,0.04250414,0.05110214,0.050869975,34.96773,47.160385,-10.134055,-20.361319,499.293,904.54803,595.9331,-1.0594939,0.0,0.0,0.0,2.0,1.0,-2.5575166,0.02223442,-0.019322276,93.0,93.0,93.0,93.0,21.980246,21.980246,24.842789,24.842789,0.022017507,0.021502305,-5.503093E-4,-5.4818613E-4,1075.3141,0.0,0.0,0.0,0.0,0.0,0.0,0.0,0.0,0.0,0.0,0.0,0.0,0.0,-43.493313,1.6148574,-65.86011,-8.5452944E-4,0.0031225693,-0.04327214,541664.7,113985.65,0.017917275,0.021547245,6333.0293,6619.83,5041.4062,4884.96,0.3150959,0.0,0.0,0.0
216.47417,216.47417,2.999,0.0,0.0,285.0711,10273.0,100.0,0.0,-0.05895322,0.0,8.0,1.0,0.0,4000000.0,110.0,1.0,0.0,0.0,10.0,0.0,0.0,-353.44223,17.77945,-853.90686,0.020911142,0.48542354,0.010773154,290.6409,290.52292,284.91788,284.92856,468.0,465.0,532.0,529.0,93.0,93.0,93.0,93.0,0.0,0.0,0.0,0.0,0.042974737,0.04451094,0.051193353,0.050916195,44.857037,39.93474,14.200731,8.787363,571.3774,-343.42984,723.9549,130.12735,0.0,0.0,0.0,2.0,1.0,-2.5574203,0.024274066,-0.019750357,93.0,93.0,93.0,93.0,21.980246,21.980246,24.842789,24.842789,0.020102937,0.019720301,-5.3262885E-4,-5.3033815E-4,1024.8773,0.0,0.0,0.0,0.0,0.0,0.0,0.0,0.0,0.0,0.0,0.0,0.0,0.0,-43.6384,1.5890237,-66.05796,-0.021649025,0.002333214,-0.040666994,529726.4,113985.65,0.016362729,0.018695273,6633.806,6854.351,5404.8027,5236.5137,0.313282,0.0,0.0,0.0
220.43849,220.43849,3.049,0.0,0.0,285.77197,10288.0,100.0,0.0,0.010153094,0.0,8.0,1.0,0.0,4000000.0,110.0,1.0,0.0,0.0,10.0,0.0,0.0,-355.62714,17.860043,-857.214,0.0031253248,0.3906148,0.08957728,291.06613,290.98886,285.6346,285.6283,465.0,463.0,530.0,527.0,93.0,93.0,93.0,93.0,0.0,0.0,0.0,0.0,0.044484064,0.046239063,0.05160522,0.05138015,35.64946,23.129358,3.2734125,1.6488879,598.9103,-1315.8378,-264.49258,-569.0842,0.0,0.0,0.0,2.0,1.0,-2.5574276,0.026317695,-0.0201962,93.0,93.0,93.0,93.0,21.980246,21.980246,24.842789,24.842789,0.018552536,0.018351188,-4.8718796E-4,-4.8132395E-4,1027.8861,0.0,0.0,0.0,0.0,0.0,0.0,0.0,0.0,0.0,0.0,0.0,0.0,0.0,-43.74902,1.6344496,-66.217155,-0.012309251,-0.0010018303,-0.03436427,530506.94,113985.65,0.01496687,0.016518133,6874.2646,7029.4487,5571.486,5460.853,0.3117609,0.0,0.0,0.0
224.40836,224.40836,3.099,0.0,0.0,286.45544,10315.0,100.0,0.0,0.0074929674,0.0,8.0,1.0,0.0,4000000.0,110.0,1.0,0.0,0.0,10.0,0.0,0.0,-357.81732,17.942713,-860.529,-0.0052001625,0.38489962,0.037104826,291.83047,291.73596,286.3238,286.30923,463.0,461.0,528.0,525.0,93.0,93.0,93.0,93.0,0.0,0.0,0.0,0.0,0.045074783,0.046413917,0.051614188,0.051359292,-3.4879892,-5.3901224,1.2029706,0.122934565,-1282.364,-578.472,-101.38749,361.81653,0.0,0.0,0.0,2.0,1.0,-2.5575378,0.027975297,-0.020357966,93.0,93.0,93.0,93.0,21.980246,21.980246,24.842789,24.842789,0.0187445,0.018495295,-4.8174785E-4,-4.7968846E-4,1033.1401,0.0,0.0,0.0,0.0,0.0,0.0,0.0,0.0,0.0,0.0,0.0,0.0,0.0,-43.852444,1.6660967,-66.37563,-0.019283,-0.0019713605,-0.030711832,531822.9,113985.65,0.0143587105,0.016169684,6712.624,6916.242,5536.6855,5426.4043,0.31150723,0.0,0.0,0.0
228.3875,228.3875,3.149,0.0,0.0,287.13672,10338.0,100.0,0.0,-0.048432205,0.0,8.0,1.0,0.0,4000000.0,110.0,1.0,0.0,0.0,10.0,0.0,0.0,-360.01266,18.026821,-863.8519,-0.005203977,0.38475597,0.06603763,292.4517,292.39008,286.99948,286.9926,461.0,459.0,526.0,523.0,93.0,93.0,93.0,93.0,0.0,0.0,0.0,0.0,0.04533787,0.046520047,0.051690985,0.05154569,10.934918,8.984058,-6.844103,3.382042,-255.66817,616.14355,-1061.1755,-290.14795,0.0,0.0,0.0,2.0,1.0,-2.5576596,0.029803192,-0.020719886,93.0,93.0,93.0,93.0,21.980246,21.980246,24.842789,24.842789,0.01855336,0.018330643,-4.7841223E-4,-4.8449732E-4,1037.6133,0.0,0.0,0.0,0.0,0.0,0.0,0.0,0.0,0.0,0.0,0.0,0.0,0.0,-43.952618,1.7001065,-66.53545,-0.010962243,-5.86787E-4,-0.03660883,532937.2,113985.65,0.01420017,0.015696362,6854.127,7044.3633,5560.6465,5531.3477,0.31130028,0.0,0.0,0.0
232.37596,232.37596,3.199,0.0,0.0,287.81143,10363.0,100.0,0.0,-0.02267978,0.0,8.0,1.0,0.0,4000000.0,110.0,1.0,0.0,0.0,10.0,0.0,0.0,-362.21295,18.11219,-867.183,-0.010625631,0.38121778,0.031032214,293.16455,293.137,287.67282,287.67093,459.0,457.0,525.0,521.0,93.0,93.0,93.0,93.0,0.0,0.0,0.0,0.0,0.04513896,0.046431996,0.05152013,0.051447283,-7.862895,-5.4006276,2.2928414,5.613416,-220.04839,-282.3159,450.02097,733.5707,0.0,0.0,0.0,2.0,1.0,-2.5576894,0.031228377,-0.020904541,93.0,93.0,93.0,93.0,21.980246,21.980246,24.842789,24.842789,0.018670207,0.018521113,-4.788025E-4,-4.80111E-4,1042.6047,0.0,0.0,0.0,0.0,0.0,0.0,0.0,0.0,0.0,0.0,0.0,0.0,0.0,-44.05157,1.7137518,-66.69441,-0.0079573635,-3.157719E-5,-0.016716698,534209.0,113985.65,0.0150118,0.01586227,6748.6265,6914.1396,5535.997,5523.5933,0.3117094,0.0,0.0,0.0
236.37358,236.37358,3.249,0.0,0.0,288.4783,10388.0,100.0,0.0,-0.041228026,0.0,8.0,1.0,0.0,4000000.0,110.0,1.0,0.0,0.0,10.0,0.0,0.0,-364.41818,18.198162,-870.5219,-0.006622523,0.3746241,-0.011035161,293.87488,293.83795,288.34164,288.3396,457.0,455.0,523.0,519.0,93.0,93.0,93.0,93.0,0.0,0.0,0.0,0.0,0.04513932,0.04602898,0.05131864,0.05127286,-6.827339,-9.741559,-7.5162196,-2.8346477,-747.1024,-4.197635,-269.28033,75.772385,0.0,0.0,0.0,2.0,1.0,-2.5577178,0.032221343,-0.020823598,93.0,93.0,93.0,93.0,21.980246,21.980246,24.842789,24.842789,0.018727683,0.018583002,-4.7425184E-4,-4.7938435E-4,1047.5255,0.0,0.0,0.0,0.0,0.0,0.0,0.0,0.0,0.0,0.0,0.0,0.0,0.0,-44.14945,1.7206966,-66.85163,-0.01765513,4.6718883E-4,-0.0130018685,535438.6,113985.65,0.01758548,0.017466241,6721.657,6846.3843,5289.7974,5296.841,0.3138008,0.0,0.0,0.0
239.04358,239.04358,3.299,0.0,0.0,288.91367,10406.0,100.0,0.0,0.029039219,0.0,8.0,1.0,0.0,4000000.0,110.0,1.0,0.0,0.0,10.0,0.0,0.0,-365.89102,18.255365,-872.75214,-0.01467827,0.3685586,-0.043016534,294.36914,294.34677,288.77905,288.7763,456.0,454.0,521.0,518.0,93.0,93.0,93.0,93.0,0.0,0.0,0.0,0.0,0.044715177,0.0454439,0.051077925,0.051183127,0.0,0.0,0.0,0.0,69.13393,-329.6971,72.43306,13.411044,0.0,0.0,0.0,2.0,1.0,-2.557712,0.032705497,-0.02043724,93.0,93.0,93.0,93.0,21.980246,21.980246,24.842789,24.842789,0.018877776,0.018820299,-4.7643413E-4,-4.7009156E-4,1051.051,0.0,0.0,0.0,0.0,0.0,0.0,0.0,0.0,0.0,0.0,0.0,0.0,0.0,-44.213577,1.7108054,-66.9545,-0.017150728,-1.3700551E-4,3.7850486E-4,536311.4,113985.65,0.020132704,0.019853259,6635.917,6683.519,5160.477,5223.241,0.315979,0.0,0.0,0.0
244.39548,244.39548,3.349,0.0,0.0,289.78244,10440.0,100.0,0.0,0.095727734,0.0,8.0,1.0,0.0,4000000.0,110.0,1.0,0.0,0.0,10.0,0.0,0.0,-368.84302,18.363892,-877.22284,-0.030250624,0.38249537,-0.0504231,295.32928,295.31894,289.6588,289.62656,453.0,451.0,519.0,515.0,93.0,93.0,93.0,93.0,0.0,0.0,0.0,0.0,0.042039108,0.042091895,0.051127076,0.051081445,13.364329,-5.625933,44.135075,29.360128,3642.788,3453.1155,1441.9688,1305.2164,0.0,0.0,0.0,2.0,1.0,-2.5578797,0.032027557,-0.019016623,93.0,93.0,93.0,93.0,21.980246,21.980246,24.842789,24.842789,0.019246222,0.019356983,-4.8326043E-4,-4.7614114E-4,1057.7976,0.0,0.0,0.0,0.0,0.0,0.0,0.0,0.0,0.0,0.0,0.0,0.0,0.0,-44.340076,1.5633216,-67.16382,0.010810621,-0.0062899105,0.0064470535,537996.06,113985.65,0.01827159,0.022007331,6509.8047,6452.414,5669.871,5610.0776,0.3160963,0.0,0.0,0.0
248.41983,248.41983,3.399,0.0,0.0,290.42157,10445.0,100.0,0.0,0.14164369,0.0,8.0,1.0,0.0,4000000.0,110.0,1.0,0.0,0.0,10.0,0.0,0.0,-371.06207,18.446129,-880.5853,-0.04581918,0.34903082,0.47856757,295.4746,295.42734,290.3,290.2458,451.0,449.0,517.0,513.0,93.0,93.0,93.0,93.0,0.0,0.0,0.0,0.0,0.04935108,0.049328238,0.05290457,0.05272091,148.59929,159.28677,0.4148483,3.8317587,-4551.427,-3564.0918,-3942.8198,-3616.9048,0.0,0.0,0.0,2.0,1.0,-2.5583868,0.032283828,-0.02188921,93.0,93.0,93.0,93.0,21.980246,21.980246,24.842789,24.842789,0.017389448,0.017401593,-4.7375393E-4,-4.6858744E-4,1058.7731,0.0,0.0,0.0,0.0,0.0,0.0,0.0,0.0,0.0,0.0,0.0,0.0,0.0,-44.413757,1.7555021,-67.323204,0.06370458,-0.011954675,-0.058252178,538234.4,113985.65,0.016963428,0.016673261,7584.332,7608.342,6397.6484,6324.8296,0.31390858,0.0,0.0,0.0
252.45248,252.45248,3.449,0.0,0.0,291.04025,10465.0,100.0,0.0,0.14504994,0.0,8.0,1.0,0.0,4000000.0,110.0,1.0,0.0,0.0,10.0,0.0,0.0,-373.28445,18.539894,-883.9557,-0.063948594,0.34118068,0.39246735,296.0698,295.99118,290.9334,290.8655,449.0,447.0,515.0,512.0,93.0,93.0,93.0,93.0,0.0,0.0,0.0,0.0,0.049200147,0.049428906,0.052629046,0.052206527,-21.302103,-20.79539,-0.43317673,-7.3018665,-244.5236,-362.7419,315.3875,147.74945,0.0,0.0,0.0,2.0,1.0,-2.5590086,0.032975648,-0.024609447,93.0,93.0,93.0,93.0,21.980246,21.980246,24.842789,24.842789,0.017163161,0.017108183,-4.6824673E-4,-4.65589E-4,1062.7948,0.0,0.0,0.0,0.0,0.0,0.0,0.0,0.0,0.0,0.0,0.0,0.0,0.0,-44.475662,1.9724985,-67.4823,0.021054339,-0.012530861,-0.03141012,539246.3,113985.65,0.017817456,0.016630525,7733.349,7831.9136,6132.144,5912.954,0.31478024,0.0,0.0,0.0
255.14536,255.14536,3.499,0.0,0.0,291.43393,10493.0,100.0,0.0,0.096458055,0.0,8.0,1.0,0.0,4000000.0,110.0,1.0,0.0,0.0,10.0,0.0,0.0,-374.76767,18.607174,-886.207,-0.06821503,0.33173674,-0.022757333,296.84564,296.76913,291.32498,291.25864,448.0,446.0,514.0,510.0,93.0,93.0,93.0,93.0,0.0,0.0,0.0,0.0,0.0473979,0.047567576,0.052253775,0.051589083,0.0,0.0,0.0,0.0,-4117.499,-4000.5544,-1661.7623,-1839.2174,0.0,0.0,0.0,2.0,1.0,-2.5594356,0.033744097,-0.025700092,93.0,93.0,93.0,93.0,21.980246,21.980246,24.842789,24.842789,0.0184961,0.018455008,-4.6574432E-4,-4.6877243E-4,1068.2913,0.0,0.0,0.0,0.0,0.0,0.0,0.0,0.0,0.0,0.0,0.0,0.0,0.0,-44.514942,2.0286345,-67.58575,0.007573381,-0.011427391,-0.045328118,540588.75,113985.65,0.016848963,0.017100675,6680.115,6743.12,5527.609,5200.337,0.31446838,0.0,0.0,0.0
