LapDistance [m],TotalDistance [m],LapTime [s],Sector1Time [s],Sector2Time [s],Speed [km/h],EngineRevs [rpm],ThrottlePercentage [%],BrakePercentage [%],Steer [%],Clutch [%],Gear [int],DRS [0/1],CanUseDRS [0/1],KERSLevel [J],EngineTemperature [C],RacePosition [int],Sector [int],InPits [int],FuelRemaining [kg],CurrentFlag [int],CurrentLapInvalid [int],X [m],Y [m],Z [m],GForceLatitudinal [G],GForceLongitudinal [G],GForceVertical [G],WheelSpeedRearLeft [km/h],WheelSpeedRearRight [km/h],WheelSpeedFrontLeft [km/h],WheelSpeedFrontRight [km/h],BrakeTemperatureRearLeft [C],BrakeTemperatureRearRight [C],BrakeTemperatureFrontLeft [C],BrakeTemperatureFrontRight [C],TyreTemperatureRearLeft [C],TyreTemperatureRearRight [C],TyreTemperatureFrontLeft [C],TyreTemperatureFrontRight [C],TyreWearRearLeft [%],TyreWearRearRight [%],TyreWearFrontLeft [%],TyreWearFrontRight [%],SuspensionPositionRearLeft [m],SuspensionPositionRearRight [m],SuspensionPositionFrontLeft [m],SuspensionPositionFrontRight [m],SuspensionVelocityRearLeft [m/s],SuspensionVelocityRearRight [m/s],SuspensionVelocityFrontLeft [m/s],SuspensionVelocityFrontRight [m/s],SuspensionAccelerationRearLeft [m/s^2],SuspensionAccelerationRearRight [m/s^2],SuspensionAccelerationFrontLeft [m/s^2],SuspensionAccelerationFrontRight [m/s^2],MGUKHarvested [J],MGUHHarvested [J],ERSSpent [J],ERSMode [int],FuelMixMode [int],Yaw [rad],Roll [rad],Pitch [rad],TyreCarcassTemperatureRearLeft [C],TyreCarcassTemperatureRearRight [C],TyreCarcassTemperatureFrontLeft [C],TyreCarcassTemperatureFrontRight [C],TyrePressureRearLeft [PSI],TyrePressureRearRight [PSI],TyrePressureFrontLeft [PSI],TyrePressureFrontRight [PSI],WheelSlipRearLeft [%],WheelSlipRearRight [%],WheelSlipFrontLeft [%],WheelSlipFrontRight [%],Torque [Nm],Handbrake [%],RearLeftInside [C],RearLeftMiddle [C],RearLeftOutside [C],RearRightInside [C],RearRightMiddle [C],RearRightOutside [C],FrontLeftInside [C],FrontLeftMiddle [C],FrontLeftOutside [C],FrontRightInside [C],FrontRightMiddle [C],FrontRightOutside [C],WoldSpeedX [km/h],WoldSpeedY [km/h],WoldSpeedZ [km/h],LocalAngularVelocityX [rad/s],LocalAngularVelocityY [rad/s],LocalAngularVelocityZ [rad/s],IcePower [W],MgukPower [W],FrontRideHeight [m],RearRideHeight [m],LoadRearLeft [N],LoadRearRight [N],LoadFrontLeft [N],LoadFrontRight [N],Extra1 [m],Extra2 [],Extra3 [],Extra4 []
3.1201577,3.1201577,0.033,0.0,0.0,273.81366,11322.0,100.0,0.0,0.54504836,0.0,7.0,1.0,0.0,4000000.0,110.0,1.0,0.0,0.0,10.0,0.0,0.0,543.75824,0.9638906,-167.55864,-0.24761444,0.55713403,-0.7151725,281.15842,281.52542,273.76935,273.55307,473.0,471.0,543.0,537.0,97.0,97.0,97.0,97.0,0.0,0.0,0.0,0.0,0.03065747,0.028464235,0.04966346,0.04906431,-125.16325,-139.47285,41.338203,40.78254,7337.732,7676.507,2264.5486,2020.7357,0.0,0.0,0.0,2.0,1.0,0.7331387,0.005230781,0.038132668,97.0,97.0,97.0,97.0,21.710573,21.710573,24.666473,24.666473,0.02700063,0.02916449,-5.4799754E-4,-5.602674E-4,1172.7617,0.0,0.0,0.0,0.0,0.0,0.0,0.0,0.0,0.0,0.0,0.0,0.0,0.0,50.969864,-2.5549576,56.396538,0.0109251775,-0.034324907,-0.056879558,550001.2,119984.91,0.025844824,0.038490094,4724.904,4203.0635,4708.055,4423.9604,0.3244543,0.0,0.0,0.0
6.939427,6.939427,0.083,0.0,0.0,274.78244,11289.0,100.0,0.0,0.70758545,0.0,7.0,1.0,0.0,4000000.0,110.0,1.0,0.0,0.0,10.0,0.0,0.0,546.309,0.83515483,-164.73087,-0.29143298,0.5134107,0.018138302,280.4255,280.56836,274.73648,274.51926,471.0,469.0,541.0,535.0,97.0,97.0,97.0,97.0,0.0,0.0,0.0,0.0,0.03762564,0.034761664,0.05163691,0.05082082,139.70285,126.06181,7.682964,12.102126,-378.52658,-873.91064,121.46384,-386.34537,0.0,0.0,0.0,2.0,1.0,0.73134726,0.003490452,0.03638673,97.0,97.0,97.0,97.0,21.710573,21.710573,24.666473,24.666473,0.020362897,0.021608736,-5.2552624E-4,-5.2222156E-4,1169.2678,0.0,0.0,0.0,0.0,0.0,0.0,0.0,0.0,0.0,0.0,0.0,0.0,0.0,51.04603,-2.5801075,56.689327,-0.074961245,-0.03557862,0.014047567,549965.6,119984.91,0.023148157,0.033305146,6711.1807,6065.7573,5591.7266,5217.691,0.32521534,0.0,0.0,0.0
10.771508,10.771508,0.133,0.0,0.0,275.68262,11301.0,100.0,0.0,0.77901244,0.0,7.0,1.0,0.0,4000000.0,110.0,1.0,0.0,0.0,10.0,0.0,0.0,548.8631,0.70953906,-161.88895,-0.2991995,0.5184923,0.47789603,280.78366,280.81464,275.62552,275.40845,469.0,467.0,539.0,533.0,97.0,97.0,97.0,97.0,0.0,0.0,0.0,0.0,0.044445053,0.041729506,0.053279705,0.05231416,159.76443,165.461,28.673483,21.952763,2947.6807,2115.1628,-516.2447,-814.9756,0.0,0.0,0.0,2.0,1.0,0.7295459,0.0017389344,0.030819058,97.0,97.0,97.0,97.0,21.710573,21.710573,24.666473,24.666473,0.01840243,0.019255763,-5.336176E-4,-5.155915E-4,1170.5392,0.0,0.0,0.0,0.0,0.0,0.0,0.0,0.0,0.0,0.0,0.0,0.0,0.0,51.112385,-2.4195294,56.973125,-0.13546532,-0.036462117,0.07465923,549979.0,119984.9,0.010905232,0.019884503,7872.205,7296.834,6844.709,6383.9414,0.31687546,0.0,0.0,0.0
14.616919,14.616919,0.183,0.0,0.0,276.61023,11308.0,100.0,0.0,0.44433492,0.0,7.0,1.0,0.0,4000000.0,110.0,1.0,0.0,0.0,10.0,0.0,0.0,551.4208,0.599897,-159.0325,-0.24859636,0.5414835,1.3389235,280.91113,280.99304,276.5387,276.36093,467.0,465.0,537.0,531.0,97.0,97.0,97.0,97.0,0.0,0.0,0.0,0.0,0.05303339,0.05288089,0.05445949,0.05363835,-0.4148483,132.94815,-20.333155,-5.2383537,-18092.504,-11285.676,-5680.2207,-4986.158,0.0,0.0,0.0,2.0,1.0,0.72774,0.0011718147,0.023493886,97.0,97.0,97.0,97.0,21.710573,21.710573,24.666473,24.666473,0.015397259,0.01624432,-5.265268E-4,-5.518895E-4,1171.28,0.0,0.0,0.0,0.0,0.0,0.0,0.0,0.0,0.0,0.0,0.0,0.0,0.0,51.19492,-1.9150562,57.26439,-0.04545266,-0.02937848,0.08416123,549986.4,119984.91,0.0054163407,0.0024628267,10292.8545,9390.242,7143.1445,6841.757,0.30614662,0.0,0.0,0.0
18.475294,18.475294,0.233,0.0,0.0,277.44125,11392.0,100.0,0.0,0.45191357,0.0,7.0,1.0,0.0,4000000.0,110.0,1.0,0.0,0.0,10.0,0.0,0.0,553.9825,0.5139654,-156.16237,-0.22659174,0.44237816,-0.06930695,283.0339,283.0642,277.3827,277.2277,465.0,463.0,535.0,529.0,97.0,97.0,97.0,97.0,0.0,0.0,0.0,0.0,0.045943685,0.045309957,0.05244768,0.051715292,-206.24666,-212.12003,-36.30191,-41.18822,-4030.0583,-3468.6858,249.04288,279.8751,0.0,0.0,0.0,2.0,1.0,0.7264439,9.5625146E-4,0.024832368,97.0,97.0,97.0,97.0,21.710573,21.710573,24.666473,24.666473,0.019612744,0.020177102,-4.929122E-4,-4.948549E-4,1179.5406,0.0,0.0,0.0,0.0,0.0,0.0,0.0,0.0,0.0,0.0,0.0,0.0,0.0,51.265663,-1.6687799,57.518448,0.038675,-0.025514707,-0.051463787,549781.25,119984.9,0.010886564,0.0128982095,6690.745,6293.496,5557.246,5217.2886,0.30930996,0.0,0.0,0.0
22.345158,22.345158,0.283,0.0,0.0,278.297,11443.0,100.0,0.0,0.20586538,0.0,7.0,1.0,0.0,4000000.0,110.0,1.0,0.0,0.0,10.0,0.0,0.0,556.548,0.42574525,-153.28029,-0.16796684,0.49798214,-0.5362697,284.29803,284.34482,278.20267,278.1037,463.0,461.0,533.0,527.0,97.0,97.0,97.0,97.0,0.0,0.0,0.0,0.0,0.039091278,0.0381029,0.05050168,0.04957725,-108.12274,-104.36296,-41.56239,-39.601696,1925.4106,2578.8765,516.2583,988.6086,0.0,0.0,0.0,2.0,1.0,0.7254469,9.2183443E-4,0.027602434,97.0,97.0,97.0,97.0,21.710573,21.710573,24.666473,24.666473,0.021459123,0.021939399,-5.261697E-4,-5.5732427E-4,1182.6486,0.0,0.0,0.0,0.0,0.0,0.0,0.0,0.0,0.0,0.0,0.0,0.0,0.0,51.35344,-1.8815784,57.75209,0.07006412,-0.015464421,-0.0474536,548773.1,119984.9,0.020454518,0.022950523,5948.025,5735.909,4249.249,3842.1152,0.31614113,0.0,0.0,0.0
26.226515,26.226515,0.333,0.0,0.0,279.1248,11492.0,100.0,0.0,0.06754446,0.0,7.0,1.0,0.0,4000000.0,110.0,1.0,0.0,0.0,10.0,0.0,0.0,559.1184,0.32515088,-150.38731,-0.10051884,0.47459704,-0.47171292,285.55154,285.57343,278.9872,278.97833,461.0,459.0,531.0,525.0,97.0,97.0,97.0,97.0,0.0,0.0,0.0,0.0,0.034210164,0.03390394,0.050458945,0.049910493,-90.9508,-71.07764,8.055791,17.362831,1560.9781,2056.825,232.94983,510.47797,0.0,0.0,0.0,2.0,1.0,0.7251615,0.0018676467,0.03160143,97.0,97.0,97.0,97.0,21.710573,21.710573,24.666473,24.666473,0.023161883,0.023255408,-5.078873E-4,-5.122171E-4,1185.5834,0.0,0.0,0.0,0.0,0.0,0.0,0.0,0.0,0.0,0.0,0.0,0.0,0.0,51.461323,-2.1270924,57.955433,0.044346157,-0.0015147601,-0.014736868,547789.25,119984.89,0.02425978,0.032657538,5328.146,5297.329,4892.3477,4672.225,0.32356453,0.0,0.0,0.0
30.1192,30.1192,0.383,0.0,0.0,279.98468,11506.0,100.0,0.0,0.14028493,0.0,7.0,1.0,0.0,4000000.0,110.0,1.0,0.0,0.0,10.0,0.0,0.0,561.6946,0.2110652,-147.48433,-0.077754706,0.5003973,-0.18688352,285.88647,285.90314,279.84875,279.82474,459.0,457.0,529.0,523.0,97.0,97.0,97.0,97.0,0.0,0.0,0.0,0.0,0.033445314,0.033244435,0.05088438,0.050685104,53.84691,58.718246,34.934875,48.032547,4358.7505,4594.6104,1052.4718,1134.1316,0.0,0.0,0.0,2.0,1.0,0.72503823,0.0028890776,0.032797456,97.0,97.0,97.0,97.0,21.710573,21.710573,24.666473,24.666473,0.021352824,0.021480685,-5.2045536E-4,-5.143246E-4,1186.4435,0.0,0.0,0.0,0.0,0.0,0.0,0.0,0.0,0.0,0.0,0.0,0.0,0.0,51.584263,-2.359501,58.15683,-0.0074181138,-0.0045557106,0.020013731,547519.6,119984.9,0.019918013,0.030689843,6066.6187,6009.7163,5516.2944,5461.2563,0.3212433,0.0,0.0,0.0
34.023846,34.023846,0.433,0.0,0.0,280.8374,11516.0,100.0,0.0,0.44744277,0.0,7.0,1.0,0.0,4000000.0,110.0,1.0,0.0,0.0,10.0,0.0,0.0,564.2771,0.09322973,-144.57103,-0.1142163,0.48116374,0.19642805,286.1236,286.1528,280.73398,280.63632,457.0,455.0,527.0,521.0,97.0,97.0,97.0,97.0,0.0,0.0,0.0,0.0,0.041140135,0.040385805,0.051964704,0.051801823,170.7921,141.09894,16.27475,13.762637,390.4623,-640.0689,-310.31808,-652.66187,0.0,0.0,0.0,2.0,1.0,0.724523,0.0023734819,0.030436993,97.0,97.0,97.0,97.0,21.710573,21.710573,24.666473,24.666473,0.018809767,0.01923561,-5.289168E-4,-4.9936015E-4,1187.0391,0.0,0.0,0.0,0.0,0.0,0.0,0.0,0.0,0.0,0.0,0.0,0.0,0.0,51.7061,-2.3264213,58.36684,-0.06133631,-0.016950458,0.015759807,547318.8,119984.9,0.014603082,0.020524418,7245.791,7040.353,5948.159,5860.1113,0.31375504,0.0,0.0,0.0
37.940453,37.940453,0.483,0.0,0.0,281.6762,11543.0,100.0,0.0,0.39091954,0.0,7.0,1.0,0.0,4000000.0,110.0,1.0,0.0,0.0,10.0,0.0,0.0,566.8654,-0.019843036,-141.64697,-0.13205567,0.46981013,0.24808475,286.7976,286.81464,281.59488,281.4663,455.0,453.0,525.0,519.0,97.0,97.0,97.0,97.0,0.0,0.0,0.0,0.0,0.045713507,0.044567786,0.052200276,0.051789552,39.63813,45.48378,-4.405528,-2.2289155,-2874.7776,-2663.0981,-380.5786,-103.80147,0.0,0.0,0.0,2.0,1.0,0.72350514,0.0014400249,0.028647661,97.0,97.0,97.0,97.0,21.710573,21.710573,24.666473,24.666473,0.01799517,0.01845623,-5.1170064E-4,-5.0782505E-4,1188.6633,0.0,0.0,0.0,0.0,0.0,0.0,0.0,0.0,0.0,0.0,0.0,0.0,0.0,51.81852,-2.2045262,58.583355,-0.01836142,-0.021355907,-0.009065013,546785.75,119984.9,0.01302349,0.014646006,7631.6597,7382.345,5855.115,5675.447,0.3099327,0.0,0.0,0.0
41.86866,41.86866,0.533,0.0,0.0,282.48074,11586.0,100.0,0.0,0.31770673,0.0,7.0,1.0,0.0,4000000.0,110.0,1.0,0.0,0.0,10.0,0.0,0.0,569.45905,-0.12797013,-138.71216,-0.1376089,0.45071587,0.04645916,287.87482,287.89252,282.39786,282.2812,453.0,451.0,523.0,518.0,97.0,97.0,97.0,97.0,0.0,0.0,0.0,0.0,0.044789348,0.043638498,0.052019168,0.051610235,-44.34138,-40.466484,-9.800344,-7.364898,-1283.1954,-1419.7601,-442.08167,-553.50055,0.0,0.0,0.0,2.0,1.0,0.7224635,6.6081336E-4,0.029123425,97.0,97.0,97.0,97.0,21.710573,21.710573,24.666473,24.666473,0.018892081,0.019303523,-4.9779925E-4,-5.008923E-4,1191.2305,0.0,0.0,0.0,0.0,0.0,0.0,0.0,0.0,0.0,0.0,0.0,0.0,0.0,51.917942,-2.1436675,58.79611,-0.001370185,-0.018909853,-0.027045496,545932.94,119984.9,0.0143766,0.017064424,7041.0815,6799.591,5680.583,5497.542,0.31167603,0.0,0.0,0.0
45.807934,45.807934,0.583,0.0,0.0,283.2738,11625.0,100.0,0.0,0.21093492,0.0,7.0,1.0,0.0,4000000.0,110.0,1.0,0.0,0.0,10.0,0.0,0.0,572.0574,-0.23596305,-135.76677,-0.13158797,0.44908106,-0.1100153,288.82748,288.84683,283.18497,283.07974,451.0,449.0,521.0,516.0,97.0,97.0,97.0,97.0,0.0,0.0,0.0,0.0,0.042221878,0.04107497,0.051714793,0.05116176,-52.86209,-44.223587,-7.337853,-5.1422415,160.16806,645.60767,-35.244225,286.7281,0.0,0.0,0.0,2.0,1.0,0.721509,2.4561645E-5,0.029996991,97.0,97.0,97.0,97.0,21.710573,21.710573,24.666473,24.666473,0.019482749,0.019855777,-4.895474E-4,-5.077021E-4,1193.5852,0.0,0.0,0.0,0.0,0.0,0.0,0.0,0.0,0.0,0.0,0.0,0.0,0.0,52.01132,-2.18477,59.0061,0.0059919627,-0.01669053,-0.018065695,545176.94,119984.9,0.016161893,0.020788208,6661.825,6457.6543,5494.088,5251.491,0.3141861,0.0,0.0,0.0
49.75817,49.75817,0.633,0.0,0.0,284.06052,11656.0,100.0,0.0,0.20287849,0.0,7.0,1.0,0.0,4000000.0,110.0,1.0,0.0,0.0,10.0,0.0,0.0,574.6605,-0.3467289,-132.81104,-0.121458456,0.4444601,-0.09263978,289.59146,289.6207,283.9557,283.88052,449.0,447.0,519.0,514.0,97.0,97.0,97.0,97.0,0.0,0.0,0.0,0.0,0.04072233,0.03979582,0.051681463,0.051241126,-22.61035,-15.322118,-1.0778009,6.40735,514.48785,630.42633,-59.129288,269.66928,0.0,0.0,0.0,2.0,1.0,0.720797,-1.7849701E-4,0.030596018,97.0,97.0,97.0,97.0,21.710573,21.710573,24.666473,24.666473,0.0194304,0.019742047,-4.9308175E-4,-4.9985014E-4,1195.4248,0.0,0.0,0.0,0.0,0.0,0.0,0.0,0.0,0.0,0.0,0.0,0.0,0.0,52.108135,-2.2408335,59.21005,-4.7203922E-4,-0.012080065,-0.008771982,544565.0,119984.9,0.015990846,0.022089789,6667.679,6487.2773,5578.495,5401.661,0.3148861,0.0,0.0,0.0
53.703575,53.703575,0.683,0.0,0.0,283.3363,11205.0,100.0,0.0,0.23531602,0.0,7.0,1.0,0.0,4000000.0,110.0,1.0,0.0,0.0,10.0,0.0,0.0,577.2623,-0.45833135,-129.85246,-0.112798125,-0.5539341,0.085185274,283.33542,283.30573,283.36523,283.30457,447.0,445.0,518.0,512.0,97.0,97.0,97.0,97.0,0.0,0.0,0.0,0.0,0.03835525,0.037395373,0.052464385,0.052228916,-57.294888,-56.065765,18.776579,26.002226,-109.12582,-31.354979,-33.393513,128.59851,0.0,0.0,0.0,2.0,1.0,0.72026443,-6.0265796E-4,0.031939387,97.0,97.0,97.0,97.0,21.710573,21.710573,24.666473,24.666473,-6.557064E-5,9.561648E-6,-8.861505E-6,-3.3835836E-6,1160.378,0.0,0.0,0.0,0.0,0.0,0.0,0.0,0.0,0.0,0.0,0.0,0.0,0.0,51.933643,-2.2115293,59.0966,0.0111512365,-0.009847193,-0.031976745,549875.9,0.0,0.013351586,0.023545997,6694.915,6484.3335,6346.4277,6261.0957,0.31450653,0.0,0.0,0.0
57.637474,57.637474,0.733,0.0,0.0,283.41592,10803.0,100.0,0.0,0.2726569,0.0,8.0,1.0,0.0,4000000.0,110.0,1.0,0.0,0.0,10.0,0.0,0.0,579.85675,-0.56714773,-126.89806,-0.108791426,0.44404495,-0.065353364,289.39136,289.44977,283.29843,283.21246,445.0,443.0,516.0,510.0,97.0,97.0,97.0,97.0,0.0,0.0,0.0,0.0,0.0388886,0.0375887,0.052466653,0.05210647,40.080917,29.364151,-23.4244,-30.705927,1595.3241,1746.6945,-1505.3628,-1174.4989,0.0,0.0,0.0,2.0,1.0,0.7196355,-0.002332029,0.03126383,97.0,97.0,97.0,97.0,21.710573,21.710573,24.666473,24.666473,0.020930111,0.021383548,-5.275371E-4,-5.22247E-4,1111.3262,0.0,0.0,0.0,0.0,0.0,0.0,0.0,0.0,0.0,0.0,0.0,0.0,0.0,51.907936,-2.1775353,59.149887,-0.05141338,-0.013576299,0.0035812203,546228.25,119984.9,0.015003731,0.023709461,6725.125,6460.373,5768.4053,5588.381,0.3155365,0.0,0.0,0.0
61.58099,61.58099,0.783,0.0,0.0,284.33157,10479.0,100.0,0.0,0.13434936,0.0,8.0,1.0,0.0,4000000.0,110.0,1.0,0.0,0.0,10.0,0.0,0.0,582.45557,-0.6782023,-123.9347,-0.089243725,0.51952946,-0.12164577,290.23398,290.23145,284.20987,284.14178,443.0,442.0,514.0,508.0,97.0,97.0,97.0,97.0,0.0,0.0,0.0,0.0,0.040424965,0.039455667,0.051476948,0.051018383,21.758972,56.801807,-15.152692,-11.341496,-674.28033,879.7778,162.09932,365.00842,0.0,0.0,0.0,2.0,1.0,0.71896976,-0.0025493552,0.029946923,97.0,97.0,97.0,97.0,21.710573,21.710573,24.666473,24.666473,0.020719288,0.020904213,-5.3356856E-4,-5.502406E-4,1065.5271,0.0,0.0,0.0,0.0,0.0,0.0,0.0,0.0,0.0,0.0,0.0,0.0,0.0,52.037815,-2.254729,59.371532,8.782083E-4,-0.010898795,0.0066340007,539910.4,119984.9,0.01615341,0.020809447,6826.5977,6724.646,5256.3916,5060.0586,0.3134203,0.0,0.0,0.0
65.53705,65.53705,0.833,0.0,0.0,285.21442,10273.0,100.0,0.0,0.029428273,0.0,8.0,1.0,0.0,4000000.0,110.0,1.0,0.0,0.0,10.0,0.0,0.0,585.061,-0.7917202,-120.96044,-0.06694068,0.46827972,-0.031066548,290.60284,290.5834,285.09198,285.05872,441.0,440.0,512.0,506.0,97.0,97.0,97.0,97.0,0.0,0.0,0.0,0.0,0.041203316,0.040845983,0.051800083,0.051119864,-6.4927335,1.3433396,13.973861,0.23737548,-1694.6194,-1644.1,339.05798,-336.92566,0.0,0.0,0.0,2.0,1.0,0.7185812,-0.0021910782,0.030709386,97.0,97.0,97.0,97.0,21.710573,21.710573,24.666473,24.666473,0.019083984,0.019146802,-4.955052E-4,-5.0705316E-4,1024.9109,0.0,0.0,0.0,0.0,0.0,0.0,0.0,0.0,0.0,0.0,0.0,0.0,0.0,52.170204,-2.28046,59.580738,0.028797321,-0.005795017,0.0025823088,529743.75,119984.9,0.016081275,0.020516535,6755.877,6712.0117,5719.7803,5360.034,0.3136673,0.0,0.0,0.0
69.50403,69.50403,0.883,0.0,0.0,285.93652,10300.0,100.0,0.0,0.119221374,0.0,8.0,1.0,0.0,4000000.0,110.0,1.0,0.0,0.0,10.0,0.0,0.0,587.6724,-0.90704656,-117.976944,-0.057949796,0.40776277,-0.1061318,291.37753,291.3404,285.81107,285.78864,439.0,438.0,510.0,504.0,97.0,97.0,97.0,97.0,0.0,0.0,0.0,0.0,0.03997551,0.040097754,0.05188995,0.051122203,-23.816002,-22.116377,10.501518,5.700141,339.55432,56.232487,972.22015,989.7887,0.0,0.0,0.0,2.0,1.0,0.7184052,-6.625168E-4,0.031769395,97.0,97.0,97.0,97.0,21.710573,21.710573,24.666473,24.666473,0.019002818,0.018998766,-4.8390307E-4,-4.7220694E-4,1030.19,0.0,0.0,0.0,0.0,0.0,0.0,0.0,0.0,0.0,0.0,0.0,0.0,0.0,52.280304,-2.3358688,59.748913,0.042354107,-0.005705648,0.025461473,531076.5,119984.9,0.016144153,0.022253012,6522.9897,6536.7715,5759.8223,5395.643,0.3151636,0.0,0.0,0.0
73.480934,73.480934,0.933,0.0,0.0,286.65524,10321.0,100.0,0.0,0.31142336,0.0,8.0,1.0,0.0,4000000.0,110.0,1.0,0.0,0.0,10.0,0.0,0.0,590.2893,-1.0248753,-114.98501,-0.08345118,0.40663275,-2.5371462E-4,291.96103,291.9212,286.5508,286.4793,437.0,436.0,508.0,503.0,97.0,97.0,97.0,97.0,0.0,0.0,0.0,0.0,0.040120848,0.040555317,0.052044243,0.05157072,35.107433,19.001438,8.870288,4.000738,2121.1577,480.92,499.42722,-321.3152,0.0,0.0,0.0,2.0,1.0,0.71799505,7.3162944E-4,0.03171444,97.0,97.0,97.0,97.0,21.710573,21.710573,24.666473,24.666473,0.018431103,0.018556733,-4.9200014E-4,-4.670603E-4,1034.2742,0.0,0.0,0.0,0.0,0.0,0.0,0.0,0.0,0.0,0.0,0.0,0.0,0.0,52.38564,-2.3651862,59.920975,0.0022781729,-0.013623435,0.017778523,532097.1,119984.9,0.015220373,0.021343581,6880.8687,6846.6577,5871.1406,5634.3896,0.31447315,0.0,0.0,0.0
77.467735,77.467735,0.983,0.0,0.0,287.36807,10343.0,100.0,0.0,0.4733751,0.0,8.0,1.0,0.0,4000000.0,110.0,1.0,0.0,0.0,10.0,0.0,0.0,592.911,-1.1430211,-111.984116,-0.13705924,0.4040631,0.06670621,292.58722,292.543,287.30026,287.15466,436.0,434.0,506.0,501.0,97.0,97.0,97.0,97.0,0.0,0.0,0.0,0.0,0.041905526,0.041614585,0.052415375,0.05152277,50.353107,20.61501,15.527083,-5.8671083,1103.568,-35.016285,785.53845,-326.1968,0.0,0.0,0.0,2.0,1.0,0.71701276,0.0010837141,0.03110671,97.0,97.0,97.0,97.0,21.710573,21.710573,24.666473,24.666473,0.017936382,0.018316556,-4.90416E-4,-4.6817685E-4,1038.6058,0.0,0.0,0.0,0.0,0.0,0.0,0.0,0.0,0.0,0.0,0.0,0.0,0.0,52.473465,-2.3549259,60.107697,0.0016921125,-0.026110156,0.017744532,533189.06,119984.9,0.014335727,0.019224241,7172.3647,6996.6885,6083.716,5597.1323,0.312788,0.0,0.0,0.0
81.46435,81.46435,1.033,0.0,0.0,288.07327,10368.0,100.0,0.0,0.43836227,0.0,8.0,1.0,0.0,4000000.0,110.0,1.0,0.0,0.0,10.0,0.0,0.0,595.53656,-1.2603217,-108.97354,-0.17435174,0.39867887,0.05123364,293.30807,293.2743,288.01974,287.8486,434.0,432.0,504.0,499.0,97.0,97.0,97.0,97.0,0.0,0.0,0.0,0.0,0.042741638,0.042221475,0.052450623,0.051479805,22.592468,-2.5170295,8.339881,-2.7056782,779.3291,-977.8394,839.67883,-177.96454,0.0,0.0,0.0,2.0,1.0,0.7156007,0.0017499604,0.030946374,97.0,97.0,97.0,97.0,21.710573,21.710573,24.666473,24.666473,0.0178886,0.018364286,-4.7761656E-4,-4.763911E-4,1043.5883,0.0,0.0,0.0,0.0,0.0,0.0,0.0,0.0,0.0,0.0,0.0,0.0,0.0,52.543373,-2.3386128,60.307392,0.012521149,-0.029554125,0.011151854,534455.06,119984.9,0.014361571,0.018593648,7193.797,6936.6123,6061.881,5570.6416,0.31256294,0.0,0.0,0.0
85.470695,85.470695,1.083,0.0,0.0,288.77094,10395.0,100.0,0.0,0.28204098,0.0,8.0,1.0,0.0,4000000.0,110.0,1.0,0.0,0.0,10.0,0.0,0.0,598.1654,-1.3774931,-105.95283,-0.17376384,0.39632857,-3.1539332E-4,294.05603,294.03882,288.69714,288.5668,432.0,430.0,502.0,497.0,97.0,97.0,97.0,97.0,0.0,0.0,0.0,0.0,0.04235984,0.04185054,0.05221391,0.051589184,-3.660768,-3.4575908,-6.203502,9.340121,899.7334,-49.030777,453.95038,83.805595,0.0,0.0,0.0,2.0,1.0,0.7143164,0.0034893374,0.031144023,97.0,97.0,97.0,97.0,21.710573,21.710573,24.666473,24.666473,0.018128911,0.01846975,-4.6811422E-4,-4.8473553E-4,1048.8859,0.0,0.0,0.0,0.0,0.0,0.0,0.0,0.0,0.0,0.0,0.0,0.0,0.0,52.606068,-2.3482876,60.509476,0.017143799,-0.021853177,0.012457054,535772.9,119984.9,0.014686019,0.019236615,7063.642,6857.1484,5882.8135,5636.457,0.31297398,0.0,0.0,0.0
89.48662,89.48662,1.133,0.0,0.0,289.4596,10418.0,100.0,0.0,0.2051383,0.0,8.0,1.0,0.0,4000000.0,110.0,1.0,0.0,0.0,10.0,0.0,0.0,600.79736,-1.4942253,-102.92211,-0.1553726,0.38845977,0.050830297,294.66544,294.72937,289.36063,289.2775,430.0,428.0,501.0,495.0,97.0,97.0,97.0,97.0,0.0,0.0,0.0,0.0,0.042794373,0.042017378,0.052277323,0.051910363,20.792482,-3.4368036,-6.9748607,4.897937,866.3265,-359.75125,-430.10556,264.93518,0.0,0.0,0.0,2.0,1.0,0.71347004,0.0034362176,0.03074205,97.0,97.0,97.0,97.0,21.710573,21.710573,24.666473,24.666473,0.017907776,0.01835738,-4.6708886E-4,-4.8017045E-4,1053.4343,0.0,0.0,0.0,0.0,0.0,0.0,0.0,0.0,0.0,0.0,0.0,0.0,0.0,52.6715,-2.3252835,60.707012,-0.02048266,-0.012828889,-0.0046964055,536908.3,119984.9,0.0158364,0.019807376,7205.8867,6906.9194,5913.715,5797.872,0.31409168,0.0,0.0,0.0
93.512024,93.512024,1.183,0.0,0.0,290.1384,10442.0,100.0,0.0,0.17045897,0.0,8.0,1.0,0.0,4000000.0,110.0,1.0,0.0,0.0,10.0,0.0,0.0,603.43274,-1.6101204,-99.881775,-0.1253353,0.3832711,0.013194386,295.33618,295.41034,290.03067,289.96973,428.0,426.0,499.0,493.0,97.0,97.0,97.0,97.0,0.0,0.0,0.0,0.0,0.043243907,0.042142197,0.051925305,0.05170362,1.0818242,12.432932,-16.034245,-3.6296992,-404.42343,587.6987,-559.16003,152.0812,0.0,0.0,0.0,2.0,1.0,0.7128972,0.0026836365,0.030284286,97.0,97.0,97.0,97.0,21.710573,21.710573,24.666473,24.666473,0.017890738,0.018264541,-4.660212E-4,-4.7765594E-4,1058.1807,0.0,0.0,0.0,0.0,0.0,0.0,0.0,0.0,0.0,0.0,0.0,0.0,0.0,52.74416,-2.3155296,60.894043,-0.013161845,-0.008833877,-0.021007927,538087.8,119984.9,0.018533066,0.020743946,7198.687,6975.8413,5592.086,5549.1733,0.31393337,0.0,0.0,0.0
97.54668,97.54668,1.233,0.0,0.0,290.80396,10476.0,100.0,0.0,0.21627794,0.0,8.0,1.0,0.0,4000000.0,110.0,1.0,0.0,0.0,10.0,0.0,0.0,606.072,-1.7278087,-96.83248,-0.10747504,0.39011517,-0.20867358,296.29938,296.3858,290.69534,290.63885,426.0,424.0,497.0,491.0,97.0,97.0,97.0,97.0,0.0,0.0,0.0,0.0,0.04112134,0.039829105,0.0513333,0.05137742,-50.75566,-50.72191,11.718571,11.125355,2150.2463,1752.1664,3338.478,2328.5593,0.0,0.0,0.0,2.0,1.0,0.7124503,9.4088E-4,0.031306624,97.0,97.0,97.0,97.0,21.710573,21.710573,24.666473,24.666473,0.01894282,0.019376952,-4.7499E-4,-4.7183665E-4,1064.9454,0.0,0.0,0.0,0.0,0.0,0.0,0.0,0.0,0.0,0.0,0.0,0.0,0.0,52.82174,-2.410431,61.06784,-0.020757597,-0.0079014,-0.05095515,539770.2,119984.89,0.018203532,0.02328941,6582.4097,6313.775,5506.1616,5510.763,0.31672478,0.0,0.0,0.0
101.59059,101.59059,1.283,0.0,0.0,291.48492,10486.0,100.0,0.0,0.18633799,0.0,8.0,1.0,0.0,4000000.0,110.0,1.0,0.0,0.0,10.0,0.0,0.0,608.7154,-1.8478442,-93.774445,-0.09041563,0.38300294,0.16412227,296.5827,296.62784,291.37088,291.3113,424.0,422.0,495.0,490.0,97.0,97.0,97.0,97.0,0.0,0.0,0.0,0.0,0.04308642,0.04182958,0.05264849,0.05227259,64.69219,87.14541,4.289299,12.621581,1149.8762,2542.1301,-1849.423,-656.4973,0.0,0.0,0.0,2.0,1.0,0.7119467,-3.7215618E-4,0.03031969,97.0,97.0,97.0,97.0,21.710573,21.710573,24.666473,24.666473,0.017488012,0.017799072,-4.7285322E-4,-4.747982E-4,1066.8933,0.0,0.0,0.0,0.0,0.0,0.0,0.0,0.0,0.0,0.0,0.0,0.0,0.0,52.9104,-2.3703005,61.242905,-0.03807226,-0.009478774,0.01637922,540241.75,119984.89,0.0136154145,0.019443126,7467.1396,7281.6426,6255.607,6123.2217,0.31329346,0.0,0.0,0.0
105.64398,105.64398,1.333,0.0,0.0,292.16122,10503.0,100.0,0.0,0.1889125,0.0,8.0,1.0,0.0,4000000.0,110.0,1.0,0.0,0.0,10.0,0.0,0.0,611.3632,-1.9635476,-90.70769,-0.088416904,0.3850438,0.2945155,297.08737,297.10422,292.0484,291.98123,422.0,421.0,493.0,488.0,97.0,97.0,97.0,97.0,0.0,0.0,0.0,0.0,0.04619075,0.04532969,0.05305392,0.05278074,63.324944,72.64427,5.1565466,12.223944,144.12848,524.0231,-171.32605,225.2787,0.0,0.0,0.0,2.0,1.0,0.7113838,-8.3195063E-4,0.028038144,97.0,97.0,97.0,97.0,21.710573,21.710573,24.666473,24.666473,0.016839335,0.017081773,-4.7563907E-4,-4.7796886E-4,1070.1266,0.0,0.0,0.0,0.0,0.0,0.0,0.0,0.0,0.0,0.0,0.0,0.0,0.0,53.000774,-2.254088,61.41756,-0.043685637,-0.010834625,0.023929194,541001.94,119984.9,0.008829768,0.012807402,7866.0107,7708.9434,6554.896,6453.1357,0.30750656,0.0,0.0,0.0
109.70694,109.70694,1.383,0.0,0.0,292.8436,10528.0,100.0,0.0,0.18474475,0.0,8.0,1.0,0.0,4000000.0,110.0,1.0,0.0,0.0,10.0,0.0,0.0,614.01556,-2.0733507,-87.632126,-0.09461616,0.38640422,0.15722829,297.79877,297.8119,292.74188,292.66455,420.0,419.0,491.0,486.0,97.0,97.0,97.0,97.0,0.0,0.0,0.0,0.0,0.048050202,0.047070485,0.052594133,0.05226699,14.938786,16.479044,-12.427344,-15.169903,-1564.7201,-1314.6577,-51.13632,-128.49123,0.0,0.0,0.0,2.0,1.0,0.7107465,-0.0015089036,0.026787281,97.0,97.0,97.0,97.0,21.710573,21.710573,24.666473,24.666473,0.016778016,0.017051965,-4.7611215E-4,-4.825046E-4,1073.5402,0.0,0.0,0.0,0.0,0.0,0.0,0.0,0.0,0.0,0.0,0.0,0.0,0.0,53.089756,-2.1566186,61.59471,-5.9200684E-4,-0.0124288015,-0.016553566,541438.9,119984.91,0.0079649,0.008709257,7861.052,7668.3457,6003.611,5844.825,0.3025198,0.0,0.0,0.0
113.77936,113.77936,1.433,0.0,0.0,293.49503,10564.0,100.0,0.0,0.036017485,0.0,8.0,1.0,0.0,4000000.0,110.0,1.0,0.0,0.0,10.0,0.0,0.0,616.6725,-2.1780758,-84.547966,-0.06654009,0.358011,-0.10839058,298.8197,298.83484,293.37662,293.34723,419.0,417.0,490.0,484.0,97.0,97.0,97.0,97.0,0.0,0.0,0.0,0.0,0.04661293,0.046076596,0.052217335,0.0519701,-78.03708,-75.54575,-26.438532,-25.01875,-1865.892,-2932.8477,-552.763,-542.6108,0.0,0.0,0.0,2.0,1.0,0.71031374,-0.0017767184,0.027888894,97.0,97.0,97.0,97.0,21.710573,21.710573,24.666473,24.666473,0.017969329,0.018129203,-4.545802E-4,-4.6642637E-4,1078.4556,0.0,0.0,0.0,0.0,0.0,0.0,0.0,0.0,0.0,0.0,0.0,0.0,0.0,53.18047,-2.0940855,61.75764,0.029749818,-0.0044436324,-0.026757648,542064.4,119984.91,0.012511899,0.014276259,7049.957,6901.6016,5618.248,5508.209,0.30914974,0.0,0.0,0.0
117.86061,117.86061,1.483,0.0,0.0,294.14417,10594.0,100.0,0.0,-2.2454846E-4,0.0,8.0,1.0,0.0,4000000.0,110.0,1.0,0.0,0.0,10.0,0.0,0.0,619.334,-2.2863855,-81.456055,-0.04473187,0.37199283,-0.30045184,299.6475,299.69214,294.01367,294.00305,417.0,415.0,488.0,482.0,97.0,97.0,97.0,97.0,0.0,0.0,0.0,0.0,0.041954286,0.041425154,0.05151243,0.05135129,-58.653427,-63.581318,-13.316496,-11.495053,2207.538,1974.5881,10.7958975,-69.52285,0.0,0.0,0.0,2.0,1.0,0.71014047,-0.0020403266,0.029459,97.0,97.0,97.0,97.0,21.710573,21.710573,24.666473,24.666473,0.018750232,0.018924551,-4.6273606E-4,-4.7296556E-4,1082.5511,0.0,0.0,0.0,0.0,0.0,0.0,0.0,0.0,0.0,0.0,0.0,0.0,0.0,53.27463,-2.2364404,61.909607,0.020303478,-0.0012033788,-0.022796739,542582.1,119984.89,0.015800972,0.019823454,6597.4897,6462.248,5324.455,5254.881,0.31292534,0.0,0.0,0.0
120.58637,120.58637,1.533,0.0,0.0,294.57642,10608.0,100.0,0.0,0.06703776,0.0,8.0,1.0,0.0,4000000.0,110.0,1.0,0.0,0.0,10.0,0.0,0.0,621.111,-2.3623555,-79.390594,-0.039698318,0.3625062,-0.1941511,300.069,300.08633,294.4461,294.43677,415.0,414.0,487.0,481.0,97.0,97.0,97.0,97.0,0.0,0.0,0.0,0.0,0.04090454,0.040470693,0.051602505,0.051501457,0.0,0.0,0.0,0.0,184.36168,594.1226,422.67587,591.66846,0.0,0.0,0.0,2.0,1.0,0.7100978,-0.0021551822,0.030488253,97.0,97.0,97.0,97.0,21.710573,21.710573,24.666473,24.666473,0.018660126,0.018736426,-4.6307244E-4,-4.602847E-4,1084.4847,0.0,0.0,0.0,0.0,0.0,0.0,0.0,0.0,0.0,0.0,0.0,0.0,0.0,53.341232,-2.3107426,62.008034,0.015553003,-0.0014486888,-0.021935001,542833.9,119984.91,0.016089588,0.021385169,6607.714,6558.044,5624.55,5592.423,0.31435013,0.0,0.0,0.0
126.04949,126.04949,1.583,0.0,0.0,295.4272,10633.0,100.0,0.0,0.043765664,0.0,8.0,1.0,0.0,4000000.0,110.0,1.0,0.0,0.0,10.0,0.0,0.0,624.6718,-2.5198069,-75.25008,-0.02633579,0.36145145,-0.07241228,300.7539,300.7847,295.29303,295.2816,413.0,411.0,484.0,479.0,97.0,97.0,97.0,97.0,0.0,0.0,0.0,0.0,0.041123714,0.040722616,0.052012693,0.05200867,23.431107,21.914541,8.711814,8.079484,1353.1475,797.6353,747.18286,303.6797,0.0,0.0,0.0,2.0,1.0,0.7099618,-0.0027547283,0.030894041,97.0,97.0,97.0,97.0,21.710573,21.710573,24.666473,24.666473,0.018096106,0.018229773,-4.6600684E-4,-4.6610742E-4,1087.8992,0.0,0.0,0.0,0.0,0.0,0.0,0.0,0.0,0.0,0.0,0.0,0.0,0.0,53.47856,-2.3972847,62.198467,-0.013518956,-0.0014635384,-0.005795373,543262.6,119984.9,0.014670382,0.020491743,6999.586,6893.12,5913.0327,5900.1562,0.31361198,0.0,0.0,0.0
130.15709,130.15709,1.633,0.0,0.0,296.0623,10649.0,100.0,0.0,-0.035913885,0.0,8.0,1.0,0.0,4000000.0,110.0,1.0,0.0,0.0,10.0,0.0,0.0,627.3485,-2.6395497,-72.13641,-0.013649926,0.35817,0.04250349,301.21936,301.2572,295.92227,295.9183,411.0,409.0,482.0,477.0,97.0,97.0,97.0,97.0,0.0,0.0,0.0,0.0,0.04330878,0.04276221,0.052393004,0.05236835,42.68154,35.908966,1.3440101,2.0094213,-202.81516,-815.8071,-387.19022,-537.6353,0.0,0.0,0.0,2.0,1.0,0.70987403,-0.003194434,0.030100107,97.0,97.0,97.0,97.0,21.710573,21.710573,24.666473,24.666473,0.017483164,0.017633272,-4.6232258E-4,-4.7356708E-4,1090.1199,0.0,0.0,0.0,0.0,0.0,0.0,0.0,0.0,0.0,0.0,0.0,0.0,0.0,53.586117,-2.3871212,62.33914,-0.017473368,1.7506274E-5,0.0089164935,543553.7,119984.9,0.0127984,0.017091699,7336.5293,7204.2266,6074.508,6057.203,0.31089878,0.0,0.0,0.0
134.27353,134.27353,1.683,0.0,0.0,296.6934,10668.0,100.0,0.0,-0.05156942,0.0,8.0,1.0,0.0,4000000.0,110.0,1.0,0.0,0.0,10.0,0.0,0.0,630.0308,-2.7578511,-69.01588,9.3725324E-4,0.35584375,0.08238447,301.7594,301.7925,296.5444,296.562,409.0,408.0,480.0,475.0,97.0,97.0,97.0,97.0,0.0,0.0,0.0,0.0,0.045054935,0.044790123,0.05237807,0.05243543,30.329523,32.66528,-3.3409147,-6.5155325,-88.0569,-795.74426,-58.59286,-575.76294,0.0,0.0,0.0,2.0,1.0,0.7099708,-0.0034216964,0.029304028,97.0,97.0,97.0,97.0,21.710573,21.710573,24.666473,24.666473,0.017132448,0.01719312,-4.6476373E-4,-4.6905963E-4,1092.733,0.0,0.0,0.0,0.0,0.0,0.0,0.0,0.0,0.0,0.0,0.0,0.0,0.0,53.700287,-2.347838,62.473766,-0.0077563245,0.0034068036,-0.002124127,543886.25,119984.9,0.012854079,0.014701828,7541.1367,7475.956,6009.457,6015.6206,0.30931377,0.0,0.0,0.0
138.39865,138.39865,1.733,0.0,0.0,297.30518,10697.0,100.0,0.0,-0.16133586,0.0,8.0,1.0,0.0,4000000.0,110.0,1.0,0.0,0.0,10.0,0.0,0.0,632.71893,-2.874849,-65.88886,0.032532036,0.34208238,-0.034016825,302.58148,302.5722,297.1514,297.18875,407.0,406.0,479.0,473.0,97.0,97.0,97.0,97.0,0.0,0.0,0.0,0.0,0.04454754,0.044671014,0.052193798,0.0521041,-31.271423,-21.171568,-6.0888376,-4.167929,-977.94666,-917.9725,-215.60934,221.42972,0.0,0.0,0.0,2.0,1.0,0.71019,-0.003255152,0.029943228,97.0,97.0,97.0,97.0,21.710573,21.710573,24.666473,24.666473,0.017792761,0.017646033,-4.5152332E-4,-4.6339718E-4,1096.694,0.0,0.0,0.0,0.0,0.0,0.0,0.0,0.0,0.0,0.0,0.0,0.0,0.0,53.81855,-2.3444767,62.596413,0.02387321,0.0064032804,-0.004883712,544377.9,119984.91,0.015416516,0.01722581,7091.2324,7171.293,5855.785,5828.996,0.31146145,0.0,0.0,0.0
142.53207,142.53207,1.783,0.0,0.0,297.91196,10723.0,100.0,0.0,-0.23376805,0.0,8.0,1.0,0.0,4000000.0,110.0,1.0,0.0,0.0,10.0,0.0,0.0,635.4131,-2.9952126,-62.756084,0.05973874,0.34672707,-0.11594721,303.33008,303.303,297.74377,297.80557,406.0,404.0,477.0,472.0,97.0,97.0,97.0,97.0,0.0,0.0,0.0,0.0,0.04183785,0.04244501,0.051925227,0.052066077,-36.06386,-18.128826,5.5919585,19.391253,1316.2135,1775.7562,256.16437,786.7857,0.0,0.0,0.0,2.0,1.0,0.7106154,-0.0019752686,0.031228185,97.0,97.0,97.0,97.0,21.710573,21.710573,24.666473,24.666473,0.018371508,0.0180713,-4.521795E-4,-4.6782068E-4,1100.2782,0.0,0.0,0.0,0.0,0.0,0.0,0.0,0.0,0.0,0.0,0.0,0.0,0.0,53.9432,-2.4462361,62.707726,0.022421647,0.010413621,0.010096987,544832.75,119984.89,0.015226666,0.019915583,6733.1265,6944.9053,5890.0107,6001.073,0.31313705,0.0,0.0,0.0
146.67389,146.67389,1.833,0.0,0.0,298.51093,10738.0,100.0,0.0,-0.2696461,0.0,8.0,1.0,0.0,4000000.0,110.0,1.0,0.0,0.0,10.0,0.0,0.0,638.11383,-3.1172016,-59.617958,0.0887534,0.33410197,0.062363133,303.74127,303.72888,298.3243,298.41632,404.0,402.0,475.0,470.0,97.0,97.0,97.0,97.0,0.0,0.0,0.0,0.0,0.042827815,0.043777484,0.05245486,0.052765936,17.249508,20.38121,6.8501377,11.348426,-443.14117,-227.47821,-365.46436,-178.94353,0.0,0.0,0.0,2.0,1.0,0.71131504,-0.0012970057,0.03094685,97.0,97.0,97.0,97.0,21.710573,21.710573,24.666473,24.666473,0.017723747,0.0173865,-4.5396466E-4,-4.5853487E-4,1102.3434,0.0,0.0,0.0,0.0,0.0,0.0,0.0,0.0,0.0,0.0,0.0,0.0,0.0,54.081657,-2.4292133,62.808838,-0.010293944,0.015507468,0.02143086,545092.9,119984.9,0.013825336,0.019171104,7127.718,7326.159,6230.839,6384.885,0.31263733,0.0,0.0,0.0
150.8241,150.8241,1.883,0.0,0.0,299.10757,10753.0,100.0,0.0,-0.24917708,0.0,8.0,1.0,0.0,4000000.0,110.0,1.0,0.0,0.0,10.0,0.0,0.0,640.82184,-3.237738,-56.47505,0.10726614,0.33784932,0.15310438,304.13544,304.1682,298.91168,299.01578,402.0,400.0,473.0,468.0,97.0,97.0,97.0,97.0,0.0,0.0,0.0,0.0,0.04484077,0.045376774,0.05256293,0.05316985,52.560566,43.024193,6.5407896,5.498081,374.74478,150.79375,407.22632,-420.8117,0.0,0.0,0.0,2.0,1.0,0.7121899,-0.0011521858,0.029295564,97.0,97.0,97.0,97.0,21.710573,21.710573,24.666473,24.666473,0.017031832,0.016830469,-4.6201746E-4,-4.5887812E-4,1104.4082,0.0,0.0,0.0,0.0,0.0,0.0,0.0,0.0,0.0,0.0,0.0,0.0,0.0,54.229782,-2.3826516,62.901855,-0.03174762,0.017615585,0.022219228,545352.1,119984.9,0.010844656,0.01511101,7559.885,7669.51,6307.181,6566.73,0.3089428,0.0,0.0,0.0
154.98236,154.98236,1.933,0.0,0.0,299.70566,10768.0,100.0,0.0,-0.30920014,0.0,8.0,1.0,0.0,4000000.0,110.0,1.0,0.0,0.0,10.0,0.0,0.0,643.5374,-3.3539782,-53.327576,0.12735388,0.33506492,0.26506582,304.56128,304.6081,299.50876,299.61594,400.0,399.0,472.0,466.0,97.0,97.0,97.0,97.0,0.0,0.0,0.0,0.0,0.048048582,0.048400376,0.052711457,0.05343361,68.24925,47.0075,1.6593932,-13.789459,-430.0923,-2411.5337,-283.8045,-2248.0798,0.0,0.0,0.0,2.0,1.0,0.71306264,-0.002236555,0.027403593,97.0,97.0,97.0,97.0,21.710573,21.710573,24.666473,24.666473,0.016373605,0.016244687,-4.6055124E-4,-4.626459E-4,1106.4948,0.0,0.0,0.0,0.0,0.0,0.0,0.0,0.0,0.0,0.0,0.0,0.0,0.0,54.386284,-2.2635877,62.99073,-0.03873416,0.018934244,-0.00439832,545621.3,119984.9,0.00981912,0.01042593,8024.3125,8058.023,6306.8066,6558.88,0.306118,0.0,0.0,0.0
159.1484,159.1484,1.983,0.0,0.0,300.28738,10799.0,100.0,0.0,-0.2520677,0.0,8.0,1.0,0.0,4000000.0,110.0,1.0,0.0,0.0,10.0,0.0,0.0,646.26086,-3.4654913,-50.175896,0.13377771,0.32371873,-0.042806268,305.47095,305.47787,300.10043,300.19992,398.0,397.0,470.0,465.0,97.0,97.0,97.0,97.0,0.0,0.0,0.0,0.0,0.047010336,0.047109175,0.05224923,0.05274885,-54.165195,-51.117535,-12.952833,-8.462146,-1667.623,-1282.3103,-277.08554,472.21622,0.0,0.0,0.0,2.0,1.0,0.71393573,-0.0029758615,0.027500033,97.0,97.0,97.0,97.0,21.710573,21.710573,24.666473,24.666473,0.017385388,0.017144663,-4.561514E-4,-4.5432243E-4,1110.7876,0.0,0.0,0.0,0.0,0.0,0.0,0.0,0.0,0.0,0.0,0.0,0.0,0.0,54.54235,-2.2270477,63.070812,0.011366298,0.016575335,-0.010269878,546165.8,119984.9,0.010894394,0.012096164,7230.4053,7349.7383,5864.577,6127.085,0.3074789,0.0,0.0,0.0
163.32259,163.32259,2.033,0.0,0.0,300.8739,10821.0,100.0,0.0,-0.23312081,0.0,8.0,1.0,0.0,4000000.0,110.0,1.0,0.0,0.0,10.0,0.0,0.0,648.99207,-3.5776708,-47.02027,0.1329113,0.33206993,-0.066994235,306.09775,306.07626,300.69174,300.7814,397.0,395.0,468.0,463.0,97.0,97.0,97.0,97.0,0.0,0.0,0.0,0.0,0.045001976,0.045589264,0.05202308,0.05258291,-28.485504,-21.762995,-3.607571,-4.4757123,668.7016,581.00665,13.183049,34.305466,0.0,0.0,0.0,2.0,1.0,0.71472764,-0.0030974532,0.028181434,97.0,97.0,97.0,97.0,21.710573,21.710573,24.666473,24.666473,0.017527098,0.01720698,-4.5874997E-4,-4.5578709E-4,1113.8201,0.0,0.0,0.0,0.0,0.0,0.0,0.0,0.0,0.0,0.0,0.0,0.0,0.0,54.698452,-2.2607236,63.150066,0.010391829,0.0148959225,-0.012283612,546543.4,119984.9,0.012178503,0.014029443,7180.734,7373.0703,5831.083,6082.0015,0.30894184,0.0,0.0,0.0
167.5048,167.5048,2.083,0.0,0.0,301.44577,10845.0,100.0,0.0,-0.23155338,0.0,8.0,1.0,0.0,4000000.0,110.0,1.0,0.0,0.0,10.0,0.0,0.0,651.731,-3.692117,-43.860737,0.12948617,0.32150376,-0.12441518,306.77966,306.76257,301.26868,301.3538,395.0,393.0,466.0,461.0,97.0,97.0,97.0,97.0,0.0,0.0,0.0,0.0,0.043616604,0.044421382,0.051843584,0.05235679,-29.441488,-25.272442,-2.266243,-1.1202692,-25.896719,-98.20907,180.53946,249.86116,0.0,0.0,0.0,2.0,1.0,0.71545166,-0.0030011458,0.029362202,97.0,97.0,97.0,97.0,21.710573,21.710573,24.666473,24.666473,0.017832948,0.017524812,-4.5103155E-4,-4.5030893E-4,1117.1494,0.0,0.0,0.0,0.0,0.0,0.0,0.0,0.0,0.0,0.0,0.0,0.0,0.0,54.850475,-2.3187594,63.226482,0.022585606,0.014079791,-0.01608628,546963.94,119984.89,0.014619236,0.017092602,6966.9688,7161.3154,5733.8057,5968.962,0.31149483,0.0,0.0,0.0
171.69485,171.69485,2.133,0.0,0.0,302.00937,10867.0,100.0,0.0,-0.28199783,0.0,8.0,1.0,0.0,4000000.0,110.0,1.0,0.0,0.0,10.0,0.0,0.0,654.4775,-3.8112748,-40.697464,0.13340084,0.3215497,-0.14804684,307.40845,307.39587,301.82437,301.92105,393.0,392.0,465.0,459.0,97.0,97.0,97.0,97.0,0.0,0.0,0.0,0.0,0.0417523,0.04267019,0.051775727,0.052443177,-21.527185,-13.714581,5.519762,16.385838,1347.1257,1292.1942,408.4601,469.3597,0.0,0.0,0.0,2.0,1.0,0.7162003,-0.002198579,0.030698061,97.0,97.0,97.0,97.0,21.710573,21.710573,24.666473,24.666473,0.018101422,0.017766826,-4.484329E-4,-4.5438882E-4,1120.2108,0.0,0.0,0.0,0.0,0.0,0.0,0.0,0.0,0.0,0.0,0.0,0.0,0.0,54.99968,-2.4276662,63.300274,0.015430486,0.016214315,-0.0023864484,547352.5,119984.9,0.014593147,0.019427344,6800.4307,7029.025,5835.3145,6166.1655,0.3126669,0.0,0.0,0.0
175.8927,175.8927,2.183,0.0,0.0,302.56567,10881.0,100.0,0.0,-0.26146188,0.0,8.0,1.0,0.0,4000000.0,110.0,1.0,0.0,0.0,10.0,0.0,0.0,657.2315,-3.9327843,-37.530502,0.13367763,0.3125978,-0.0031030262,307.7766,307.77298,302.37704,302.47348,391.0,390.0,463.0,458.0,97.0,97.0,97.0,97.0,0.0,0.0,0.0,0.0,0.043158326,0.043893326,0.05229969,0.05297891,26.938988,19.456743,3.5988538,2.9291956,-75.97354,-201.40707,-406.52896,-332.2452,0.0,0.0,0.0,2.0,1.0,0.7170319,-0.0022937611,0.030428052,97.0,97.0,97.0,97.0,21.710573,21.710573,24.666473,24.666473,0.017434712,0.017144239,-4.5083006E-4,-4.5040698E-4,1122.1293,0.0,0.0,0.0,0.0,0.0,0.0,0.0,0.0,0.0,0.0,0.0,0.0,0.0,55.150818,-2.432284,63.37353,-0.017097142,0.016404511,0.006120866,547584.44,119984.89,0.013044872,0.018242711,7208.4443,7376.2554,6102.249,6415.1914,0.31138706,0.0,0.0,0.0
180.09827,180.09827,2.233,0.0,0.0,303.12253,10895.0,100.0,0.0,-0.20203562,0.0,8.0,1.0,0.0,4000000.0,110.0,1.0,0.0,0.0,10.0,0.0,0.0,659.99304,-4.0539937,-34.359856,0.12542158,0.31634814,0.114067174,308.18967,308.18097,302.93918,303.0181,390.0,388.0,461.0,456.0,97.0,97.0,97.0,97.0,0.0,0.0,0.0,0.0,0.045011345,0.04552993,0.05275201,0.05334254,38.092506,39.47854,13.630092,11.667161,-84.30175,552.012,115.24114,297.67148,0.0,0.0,0.0,2.0,1.0,0.7177788,-0.0027222675,0.029219389,97.0,97.0,97.0,97.0,21.710573,21.710573,24.666473,24.666473,0.016908532,0.016653972,-4.5658927E-4,-4.531399E-4,1124.0964,0.0,0.0,0.0,0.0,0.0,0.0,0.0,0.0,0.0,0.0,0.0,0.0,0.0,55.30064,-2.4055629,63.449276,-0.0325606,0.0133813415,0.018650599,547839.5,119984.9,0.008524748,0.013872611,7528.8765,7700.959,6493.793,6762.1772,0.30882072,0.0,0.0,0.0
184.31187,184.31187,2.283,0.0,0.0,303.68646,10903.0,100.0,0.0,-0.16143037,0.0,8.0,1.0,0.0,4000000.0,110.0,1.0,0.0,0.0,10.0,0.0,0.0,662.7621,-4.1704807,-31.185202,0.10885427,0.32019782,0.45880273,308.41937,308.3942,303.5074,303.56982,388.0,386.0,459.0,454.0,97.0,97.0,97.0,97.0,0.0,0.0,0.0,0.0,0.05019973,0.050212987,0.053512562,0.054015953,100.383675,68.43924,-8.319095,-15.775634,-3666.5261,-5622.2046,-3221.0913,-3870.9902,0.0,0.0,0.0,2.0,1.0,0.71837693,-0.0033263846,0.026433825,97.0,97.0,97.0,97.0,21.710573,21.710573,24.666473,24.666473,0.0157394,0.015494316,-4.6538134E-4,-4.602213E-4,1125.2131,0.0,0.0,0.0,0.0,0.0,0.0,0.0,0.0,0.0,0.0,0.0,0.0,0.0,55.450092,-2.2296867,63.533283,-0.05053252,0.010790381,0.014954841,547981.4,119984.9,0.0067784926,0.0068441704,8416.181,8631.648,6720.9707,6911.193,0.305027,0.0,0.0,0.0
188.53333,188.53333,2.333,0.0,0.0,304.22073,10943.0,100.0,0.0,-0.16374739,0.0,8.0,1.0,0.0,4000000.0,110.0,1.0,0.0,0.0,10.0,0.0,0.0,665.53827,-4.279222,-28.00637,0.0980703,0.28781092,-0.20089969,309.5486,309.52985,304.0585,304.11508,386.0,385.0,458.0,453.0,97.0,97.0,97.0,97.0,0.0,0.0,0.0,0.0,0.04646755,0.04661259,0.05242681,0.05274302,-123.19698,-121.665215,-21.896435,-22.599844,-3243.9705,-3488.95,-45.54382,52.718807,0.0,0.0,0.0,2.0,1.0,0.71885145,-0.0035908574,0.02717352,97.0,97.0,97.0,97.0,21.710573,21.710573,24.666473,24.666473,0.017521705,0.017325465,-4.413605E-4,-4.4318204E-4,1130.7623,0.0,0.0,0.0,0.0,0.0,0.0,0.0,0.0,0.0,0.0,0.0,0.0,0.0,55.58658,-2.18711,63.612675,0.028698541,0.00927278,-0.019743038,548670.94,119984.89,0.0093127815,0.01092751,6936.991,7047.414,5844.238,5985.935,0.30608368,0.0,0.0,0.0
192.76213,192.76213,2.383,0.0,0.0,304.77286,10963.0,100.0,0.0,-0.07453674,0.0,8.0,1.0,0.0,4000000.0,110.0,1.0,0.0,0.0,10.0,0.0,0.0,668.3209,-4.3917956,-24.823471,0.07579986,0.3095989,-0.24860847,310.13528,310.11304,304.62238,304.6579,384.0,383.0,456.0,451.0,97.0,97.0,97.0,97.0,0.0,0.0,0.0,0.0,0.043880142,0.04429907,0.051774856,0.052119173,-32.912937,-30.135286,-13.757273,-16.640871,556.2767,481.79178,-264.9888,-473.59763,0.0,0.0,0.0,2.0,1.0,0.71921945,-0.0035657154,0.028736353,97.0,97.0,97.0,97.0,21.710573,21.710573,24.666473,24.666473,0.01764564,0.01747404,-4.487411E-4,-4.4202083E-4,1133.5732,0.0,0.0,0.0,0.0,0.0,0.0,0.0,0.0,0.0,0.0,0.0,0.0,0.0,55.7156,-2.3087478,63.699364,0.029813064,0.005525765,-0.0293614,549031.4,119984.9,0.01351925,0.014591803,6989.263,7107.175,5524.9463,5668.654,0.30783844,0.0,0.0,0.0
196.99838,196.99838,2.433,0.0,0.0,305.29825,10991.0,100.0,0.0,0.1097732,0.0,8.0,1.0,0.0,4000000.0,110.0,1.0,0.0,0.0,10.0,0.0,0.0,671.10974,-4.5112286,-21.636103,0.028821453,0.28909302,-0.32258135,310.92023,310.89166,305.17828,305.16202,383.0,381.0,454.0,449.0,97.0,97.0,97.0,97.0,0.0,0.0,0.0,0.0,0.04166582,0.041906875,0.051625684,0.05168596,-58.834026,-64.93181,10.42217,-0.7358193,-1054.9797,-1156.126,908.5312,459.516,0.0,0.0,0.0,2.0,1.0,0.7192794,-0.003792883,0.03174746,97.0,97.0,97.0,97.0,21.710573,21.710573,24.666473,24.666473,0.018358063,0.018345093,-4.417081E-4,-4.2326594E-4,1137.4596,0.0,0.0,0.0,0.0,0.0,0.0,0.0,0.0,0.0,0.0,0.0,0.0,0.0,55.825253,-2.4638255,63.791622,0.04069595,-0.0038415198,-0.03805938,549510.25,119984.89,0.018999342,0.02214075,6466.31,6499.882,5641.8906,5630.2554,0.31614494,0.0,0.0,0.0
201.24142,201.24142,2.483,0.0,0.0,305.82248,11008.0,100.0,0.0,0.08362623,0.0,8.0,1.0,0.0,4000000.0,110.0,1.0,0.0,0.0,10.0,0.0,0.0,673.90356,-4.6424446,-18.444042,0.0012948066,0.309662,-0.25289673,311.4062,311.34854,305.7036,305.6657,381.0,379.0,452.0,447.0,97.0,97.0,97.0,97.0,0.0,0.0,0.0,0.0,0.038362905,0.038673718,0.05203701,0.051796336,4.135966,6.796941,42.527763,36.745365,4567.573,4550.662,1548.3586,1471.9021,0.0,0.0,0.0,2.0,1.0,0.71899843,-0.0033415798,0.033907294,97.0,97.0,97.0,97.0,21.710573,21.710573,24.666473,24.666473,0.018395312,0.01834109,-4.5011286E-4,-4.4602706E-4,1139.5416,0.0,0.0,0.0,0.0,0.0,0.0,0.0,0.0,0.0,0.0,0.0,0.0,0.0,55.920345,-2.7154605,63.891785,0.0111761,-0.00725522,0.012931933,549665.9,119984.9,0.016267542,0.024202267,6576.093,6640.681,6257.5835,6133.359,0.3160324,0.0,0.0,0.0
204.07414,204.07414,2.533,0.0,0.0,306.17307,11006.0,100.0,0.0,0.106929846,0.0,8.0,1.0,0.0,4000000.0,110.0,1.0,0.0,0.0,10.0,0.0,0.0,675.7686,-4.733168,-16.312914,-0.026580006,0.29399705,0.04300246,311.34628,311.32516,306.05362,306.00366,380.0,378.0,451.0,446.0,97.0,97.0,97.0,97.0,0.0,0.0,0.0,0.0,0.04210012,0.04251092,0.052898124,0.0527571,0.0,0.0,0.0,0.0,2943.6033,1104.1713,-592.2719,-1203.3058,0.0,0.0,0.0,2.0,1.0,0.71872985,-0.0029930184,0.03289163,97.0,97.0,97.0,97.0,21.710573,21.710573,24.666473,24.666473,0.016952185,0.017066963,-4.476109E-4,-4.481012E-4,1139.332,0.0,0.0,0.0,0.0,0.0,0.0,0.0,0.0,0.0,0.0,0.0,0.0,0.0,55.979244,-2.7179127,63.96962,-0.032701354,-0.008582152,0.03620787,549664.6,119984.89,0.0135367345,0.01939703,7439.133,7368.4956,6611.771,6524.7314,0.31223774,0.0,0.0,0.0
209.74942,209.74942,2.583,0.0,0.0,306.8778,11016.0,100.0,0.0,0.34800208,0.0,8.0,1.0,0.0,4000000.0,110.0,1.0,0.0,0.0,10.0,0.0,0.0,679.50415,-4.90941,-12.042196,-0.09700234,0.30604422,0.35851532,311.63272,311.57977,306.79178,306.67584,377.0,376.0,449.0,444.0,97.0,97.0,97.0,97.0,0.0,0.0,0.0,0.0,0.0499655,0.04988181,0.053629924,0.05297398,60.481796,70.10199,0.46156344,-10.079741,-3780.3315,-2235.956,-343.3227,-146.99843,0.0,0.0,0.0,2.0,1.0,0.71780837,-0.0029180006,0.029058576,97.0,97.0,97.0,97.0,21.710573,21.710573,24.666473,24.666473,0.015391143,0.015567857,-4.634296E-4,-4.495734E-4,1140.389,0.0,0.0,0.0,0.0,0.0,0.0,0.0,0.0,0.0,0.0,0.0,0.0,0.0,56.07701,-2.552453,64.151115,-0.012223101,-0.020472135,0.025350243,549675.2,119984.9,0.009746226,0.008262001,8600.27,8516.69,6751.6045,6425.09,0.3040905,0.0,0.0,0.0
214.01453,214.01453,2.633,0.0,0.0,307.37985,11046.0,100.0,0.0,0.16052838,0.0,8.0,1.0,0.0,4000000.0,110.0,1.0,0.0,0.0,10.0,0.0,0.0,682.30945,-5.0335665,-8.830859,-0.10165076,0.27604795,0.047120072,312.47842,312.42032,307.29605,307.19583,376.0,374.0,447.0,442.0,97.0,97.0,97.0,97.0,0.0,0.0,0.0,0.0,0.047767494,0.04773279,0.05339182,0.05268447,-63.61238,-41.88269,-12.205615,7.0694084,-752.65454,1989.6088,-736.9771,1683.81,0.0,0.0,0.0,2.0,1.0,0.7168478,-0.0012034882,0.02981329,97.0,97.0,97.0,97.0,21.710573,21.710573,24.666473,24.666473,0.016398314,0.016475935,-4.2971206E-4,-4.4683108E-4,1143.5599,0.0,0.0,0.0,0.0,0.0,0.0,0.0,0.0,0.0,0.0,0.0,0.0,0.0,56.13192,-2.4582,64.292076,0.052387018,-0.017654598,0.02338854,549706.56,119984.89,0.010760783,0.011648931,7696.715,7680.9663,6556.4663,6332.4844,0.30543423,0.0,0.0,0.0
218.2866,218.2866,2.683,0.0,0.0,307.87823,11060.0,100.0,0.0,0.062065378,0.0,8.0,1.0,0.0,4000000.0,110.0,1.0,0.0,0.0,10.0,0.0,0.0,685.1175,-5.1566224,-5.612623,-0.09817372,0.285594,0.27286434,312.83905,312.8441,307.76257,307.71667,374.0,373.0,446.0,441.0,97.0,97.0,97.0,97.0,0.0,0.0,0.0,0.0,0.047337674,0.047230303,0.053674925,0.053155027,55.844707,42.14778,43.2457,21.728127,5333.223,4804.5327,3150.7236,1466.645,0.0,0.0,0.0,2.0,1.0,0.7162945,-5.179892E-4,0.030024052,97.0,97.0,97.0,97.0,21.710573,21.710573,24.666473,24.666473,0.016082356,0.016224127,-4.3094973E-4,-4.4423138E-4,1145.0405,0.0,0.0,0.0,0.0,0.0,0.0,0.0,0.0,0.0,0.0,0.0,0.0,0.0,56.18549,-2.432691,64.430115,-0.015333329,-0.007064189,0.012523418,549721.5,119984.89,0.013092355,0.0148086,8134.633,8020.103,7199.3057,6983.3115,0.30998707,0.0,0.0,0.0
222.56538,222.56538,2.733,0.0,0.0,308.3431,11083.0,100.0,0.0,0.11914762,0.0,8.0,1.0,0.0,4000000.0,110.0,1.0,0.0,0.0,10.0,0.0,0.0,687.92816,-5.277184,-2.3877943,-0.081687026,0.26063848,0.04887764,313.4874,313.525,308.21875,308.19272,372.0,371.0,444.0,439.0,97.0,97.0,97.0,97.0,0.0,0.0,0.0,0.0,0.047008496,0.04664989,0.053198665,0.052877687,-23.510454,-27.241854,-0.26240942,5.39571,-679.39,-690.09204,1098.284,635.67004,0.0,0.0,0.0,2.0,1.0,0.71606237,-1.759665E-4,0.029210806,97.0,97.0,97.0,97.0,21.710573,21.710573,24.666473,24.666473,0.016678011,0.016846681,-4.3349303E-4,-4.2928554E-4,1147.4736,0.0,0.0,0.0,0.0,0.0,0.0,0.0,0.0,0.0,0.0,0.0,0.0,0.0,56.23993,-2.4014995,64.5552,-0.014633335,-0.0045166924,0.018074203,549746.4,119984.89,0.015623292,0.018190803,7517.8076,7398.652,6572.6367,6427.838,0.31342697,0.0,0.0,0.0
226.85071,226.85071,2.783,0.0,0.0,308.81335,11091.0,100.0,0.0,0.15587538,0.0,8.0,1.0,0.0,4000000.0,110.0,1.0,0.0,0.0,10.0,0.0,0.0,690.7417,-5.396076,0.8432361,-0.07528704,0.26665956,0.21113516,313.70648,313.72897,308.69052,308.65338,371.0,369.0,442.0,437.0,97.0,97.0,97.0,97.0,0.0,0.0,0.0,0.0,0.04845161,0.04719907,0.053258017,0.05320383,69.09907,42.010765,13.813599,0.28453764,2122.66,1458.7057,1330.3889,124.092384,0.0,0.0,0.0,2.0,1.0,0.71580064,-0.0010340387,0.027190804,97.0,97.0,97.0,97.0,21.710573,21.710573,24.666473,24.666473,0.015860533,0.016080128,-4.4273245E-4,-4.353203E-4,1148.319,0.0,0.0,0.0,0.0,0.0,0.0,0.0,0.0,0.0,0.0,0.0,0.0,0.0,56.29866,-2.3406212,64.679565,-0.044097275,-0.0058954097,0.009468542,549754.56,119984.91,0.014269896,0.0153977545,8187.086,7947.9136,6700.572,6640.205,0.3121748,0.0,0.0,0.0
231.14272,231.14272,2.833,0.0,0.0,309.2901,11103.0,100.0,0.0,0.14911179,0.0,8.0,1.0,0.0,4000000.0,110.0,1.0,0.0,0.0,10.0,0.0,0.0,693.5583,-5.5113077,4.080452,-0.07105455,0.27448452,0.36900666,314.03766,314.0855,309.17044,309.11728,369.0,368.0,441.0,436.0,97.0,97.0,97.0,97.0,0.0,0.0,0.0,0.0,0.04988023,0.048649482,0.054027546,0.053460367,86.05196,58.299374,36.636738,3.8451698,2360.0486,2946.3928,138.30801,113.02827,0.0,0.0,0.0,2.0,1.0,0.7153966,-0.00407254,0.025047064,97.0,97.0,97.0,97.0,21.710573,21.710573,24.666473,24.666473,0.015363771,0.015695961,-4.5239442E-4,-4.418861E-4,1149.5887,0.0,0.0,0.0,0.0,0.0,0.0,0.0,0.0,0.0,0.0,0.0,0.0,0.0,56.360943,-2.238854,64.80457,-0.06123607,-0.008472055,0.015088886,549767.6,119984.91,0.009299118,0.009898652,8619.275,8276.89,7328.6426,6993.7554,0.3095522,0.0,0.0,0.0
235.44164,235.44164,2.883,0.0,0.0,309.387,11120.0,100.0,0.0,0.035596993,0.0,8.0,1.0,0.0,4000000.0,110.0,1.0,0.0,0.0,10.0,0.0,0.0,696.3781,-5.620824,7.324086,-0.058176108,0.28395423,0.4570927,314.54752,314.5335,309.66763,309.6163,367.0,366.0,439.0,434.0,97.0,97.0,97.0,97.0,0.0,0.0,0.0,0.0,0.04929306,0.04930202,0.05425055,0.053925302,16.653387,30.228941,29.827503,28.278528,1513.7715,650.0199,440.39185,29.544523,0.0,0.0,0.0,2.0,1.0,0.7149067,-0.004083002,0.023776889,97.0,97.0,97.0,97.0,21.710573,21.710573,24.666473,24.666473,0.015343873,0.015459648,-4.481499E-4,-4.6057973E-4,1151.3867,0.0,0.0,0.0,0.0,0.0,0.0,0.0,0.0,0.0,0.0,0.0,0.0,0.0,56.35275,-1.9433964,64.8569,-0.041298978,-2.5344448E-4,0.070986316,549785.7,119984.9,0.0012813344,0.0035974756,8571.369,8437.645,7590.9336,7428.6387,0.29887867,0.0,0.0,0.0
239.7426,239.7426,2.933,0.0,0.0,309.91165,11144.0,100.0,0.0,-0.0040152427,0.0,8.0,1.0,0.0,4000000.0,110.0,1.0,0.0,0.0,10.0,0.0,0.0,699.1981,-5.718635,10.570178,-0.01573205,0.26468852,-0.3173891,315.23846,315.23016,309.78082,309.79944,366.0,364.0,437.0,432.0,97.0,97.0,97.0,97.0,0.0,0.0,0.0,0.0,0.046923853,0.047083862,0.051762886,0.051542893,-77.4946,-85.27994,-27.103945,-31.013487,-2821.281,-3517.8777,1711.0345,1556.0164,0.0,0.0,0.0,2.0,1.0,0.7150157,-0.0033069232,0.024843454,97.0,97.0,97.0,97.0,21.710573,21.710573,24.666473,24.666473,0.016999202,0.016906736,-4.274864E-4,-4.2068254E-4,1153.9254,0.0,0.0,0.0,0.0,0.0,0.0,0.0,0.0,0.0,0.0,0.0,0.0,0.0,56.439663,-2.0112646,64.972435,0.08284624,0.002435462,-0.06181185,549811.25,119984.92,0.010570878,0.008652707,7123.086,7192.159,5285.3096,5167.715,0.29962158,0.0,0.0,0.0
244.04988,244.04988,2.983,0.0,0.0,310.3727,11180.0,100.0,0.0,-0.24273768,0.0,8.0,1.0,0.0,4000000.0,110.0,1.0,0.0,0.0,10.0,0.0,0.0,702.0222,-5.8267207,13.821176,0.036758877,0.2594097,-0.63886124,316.27164,316.27075,310.2221,310.27896,364.0,363.0,436.0,431.0,97.0,97.0,97.0,97.0,0.0,0.0,0.0,0.0,0.04035415,0.04046185,0.0512199,0.051364567,-130.18883,-126.023575,-3.8681922,13.419985,-237.83156,452.8642,443.0338,1356.9429,0.0,0.0,0.0,2.0,1.0,0.7152901,-0.0024555912,0.030300379,97.0,97.0,97.0,97.0,21.710573,21.710573,24.666473,24.666473,0.019060945,0.018883083,-4.0500576E-4,-4.294454E-4,1157.7346,0.0,0.0,0.0,0.0,0.0,0.0,0.0,0.0,0.0,0.0,0.0,0.0,0.0,56.524193,-2.3087034,65.05882,0.084247455,0.009972919,-0.046846285,549850.0,119984.9,0.015698481,0.02164404,5938.693,6001.9624,5335.6523,5465.4116,0.30820942,0.0,0.0,0.0
248.36331,248.36331,3.033,0.0,0.0,310.84338,11184.0,100.0,0.0,0.027251348,0.0,8.0,1.0,0.0,4000000.0,110.0,1.0,0.0,0.0,10.0,0.0,0.0,704.85077,-5.9496007,17.076357,0.019401178,0.27414036,-0.3698638,316.3476,316.37628,310.6959,310.72186,362.0,361.0,434.0,429.0,97.0,97.0,97.0,97.0,0.0,0.0,0.0,0.0,0.03858008,0.038458493,0.051843,0.05201535,46.27637,25.613306,18.526688,4.3802705,5413.4214,4369.09,256.03024,-644.19946,0.0,0.0,0.0,2.0,1.0,0.71567565,-0.0026755442,0.03248012,97.0,97.0,97.0,97.0,21.710573,21.710573,24.666473,24.666473,0.01785646,0.017906748,-4.3825642E-4,-4.244948E-4,1158.1566,0.0,0.0,0.0,0.0,0.0,0.0,0.0,0.0,0.0,0.0,0.0,0.0,0.0,56.61265,-2.5626457,65.14573,0.0038848906,0.0040441784,-0.014769604,549853.7,119984.92,0.015603713,0.024081634,6801.631,6728.081,5889.4214,5915.7104,0.31358624,0.0,0.0,0.0
252.68295,252.68295,3.083,0.0,0.0,311.30362,11194.0,100.0,0.0,0.17065857,0.0,8.0,1.0,0.0,4000000.0,110.0,1.0,0.0,0.0,10.0,0.0,0.0,707.68365,-6.0815706,20.335987,-0.0042217523,0.2591183,-0.06352885,316.63376,316.63675,311.1747,311.14832,361.0,359.0,432.0,427.0,97.0,97.0,97.0,97.0,0.0,0.0,0.0,0.0,0.0413282,0.0410193,0.05294908,0.053119346,52.38108,53.814945,47.23705,43.855232,-253.69675,100.07331,1528.7249,1157.5474,0.0,0.0,0.0,2.0,1.0,0.7156392,-0.0032147667,0.03278005,97.0,97.0,97.0,97.0,21.710573,21.710573,24.666473,24.666473,0.017195081,0.017272752,-4.4628052E-4,-4.2826487E-4,1159.2141,0.0,0.0,0.0,0.0,0.0,0.0,0.0,0.0,0.0,0.0,0.0,0.0,0.0,56.69741,-2.6746264,65.23702,-0.036550645,-0.004622831,0.009408138,549864.1,119984.91,0.007868381,0.019219013,7100.34,7073.7676,6953.76,7016.1836,0.313385,0.0,0.0,0.0
257.00934,257.00934,3.133,0.0,0.0,311.36868,11189.0,100.0,0.0,0.3723066,0.0,8.0,1.0,0.0,4000000.0,110.0,1.0,0.0,0.0,10.0,0.0,0.0,710.5208,-6.213779,23.60072,-0.056198135,0.2975964,0.3624682,316.49652,316.464,311.6814,311.6062,359.0,358.0,431.0,426.0,97.0,97.0,97.0,97.0,0.0,0.0,0.0,0.0,0.049633536,0.04933459,0.054093227,0.053806912,233.92839,234.79073,2.788156,-6.2448525,2785.8086,2677.1255,-1124.811,-1142.5807,0.0,0.0,0.0,2.0,1.0,0.7152351,-0.0037425794,0.027861953,97.0,97.0,97.0,97.0,21.710573,21.710573,24.666473,24.666473,0.015053515,0.015195637,-4.801272E-4,-4.45543E-4,1158.6853,0.0,0.0,0.0,0.0,0.0,0.0,0.0,0.0,0.0,0.0,0.0,0.0,0.0,56.698906,-2.4039981,65.27021,-0.16692159,0.0011491587,0.13182718,549858.9,119984.91,0.0,0.0,8718.939,8651.967,7136.1147,6976.546,0.30041218,0.0,0.0,0.0
261.33798,261.33798,3.183,0.0,0.0,311.89124,11196.0,100.0,0.0,-0.08281363,0.0,8.0,1.0,0.0,4000000.0,110.0,1.0,0.0,0.0,10.0,0.0,0.0,713.35846,-6.3197536,26.868057,-0.0041770637,0.2237059,0.18839666,316.73315,316.6707,311.79477,311.75543,358.0,356.0,429.0,424.0,97.0,97.0,97.0,97.0,0.0,0.0,0.0,0.0,0.049295094,0.049498495,0.05287714,0.052745383,-217.90756,-214.77675,-68.6261,-52.178795,-3105.6086,-3228.6812,-627.8512,-477.80865,0.0,0.0,0.0,2.0,1.0,0.7148589,-0.0027095578,0.026009321,97.0,97.0,97.0,97.0,21.710573,21.710573,24.666473,24.666473,0.015058987,0.014966313,-4.027467E-4,-4.287071E-4,1159.4272,0.0,0.0,0.0,0.0,0.0,0.0,0.0,0.0,0.0,0.0,0.0,0.0,0.0,56.791344,-1.9883672,65.39621,0.1265848,-0.0066722175,-0.072330415,549866.94,119984.91,0.00618278,0.0045160004,8583.453,8696.202,5717.224,5601.5283,0.3015976,0.0,0.0,0.0
265.6724,265.6724,3.233,0.0,0.0,312.284,11251.0,100.0,0.0,0.09329918,0.0,8.0,1.0,0.0,4000000.0,110.0,1.0,0.0,0.0,10.0,0.0,0.0,716.1996,-6.425529,30.139957,-0.030305408,0.24382296,-0.85951126,318.28607,318.2385,312.17026,312.15036,356.0,355.0,427.0,423.0,97.0,97.0,97.0,97.0,0.0,0.0,0.0,0.0,0.039958157,0.040369708,0.051334128,0.050923053,-147.94304,-148.34001,-60.393955,-72.8774,1796.7314,1632.9153,-2146.7595,-1822.9095,0.0,0.0,0.0,2.0,1.0,0.71472,-0.0022864663,0.030548453,97.0,97.0,97.0,97.0,21.710573,21.710573,24.666473,24.666473,0.019161964,0.019094976,-4.1592348E-4,-4.0404504E-4,1165.2457,0.0,0.0,0.0,0.0,0.0,0.0,0.0,0.0,0.0,0.0,0.0,0.0,0.0,56.850006,-2.288595,65.48,0.06716677,-0.0043027108,-0.04674297,549924.94,119984.91,0.021939969,0.023861788,5807.8843,5862.7515,4610.698,4424.374,0.3162651,0.0,0.0,0.0
270.01202,270.01202,3.283,0.0,0.0,312.697,11267.0,100.0,0.0,-0.3453164,0.0,8.0,1.0,0.0,4000000.0,110.0,1.0,0.0,0.0,10.0,0.0,0.0,719.04407,-6.550183,33.41585,0.04846756,0.24030963,-0.61978906,318.73834,318.72388,312.52356,312.6119,354.0,353.0,426.0,421.0,97.0,97.0,97.0,97.0,0.0,0.0,0.0,0.0,0.03542662,0.035953946,0.050921556,0.051085543,-63.16446,-53.806675,11.505112,30.253975,2044.755,2799.971,1100.5638,1340.2192,0.0,0.0,0.0,2.0,1.0,0.7150762,-0.0010824775,0.03406,97.0,97.0,97.0,97.0,21.710573,21.710573,24.666473,24.666473,0.019713784,0.019360667,-3.965765E-4,-4.2547815E-4,1166.9406,0.0,0.0,0.0,0.0,0.0,0.0,0.0,0.0,0.0,0.0,0.0,0.0,0.0,56.930153,-2.6518764,65.548706,0.033185225,0.015599548,0.0014548255,549942.7,119984.91,0.028981466,0.03576509,5721.154,5867.124,5328.839,5454.0576,0.33835697,0.0,0.0,0.0
274.35684,274.35684,3.333,0.0,0.0,313.12003,11269.0,100.0,0.0,-0.52304894,0.0,8.0,1.0,0.0,4000000.0,110.0,1.0,0.0,0.0,10.0,0.0,0.0,721.8933,-6.691557,36.69446,0.13691178,0.28782338,-0.503755,318.73926,318.78342,312.8852,313.07654,353.0,351.0,424.0,419.0,97.0,97.0,97.0,97.0,0.0,0.0,0.0,0.0,0.03467591,0.035443842,0.05085653,0.051700026,56.80516,61.17336,58.14984,77.293434,10613.499,10849.748,8565.325,9245.787,0.0,0.0,0.0,2.0,1.0,0.71641296,-3.5211036E-4,0.034008265,97.0,97.0,97.0,97.0,21.710573,21.710573,24.666473,24.666473,0.018661376,0.018207436,-4.3740086E-4,-4.5360834E-4,1167.1508,0.0,0.0,0.0,0.0,0.0,0.0,0.0,0.0,0.0,0.0,0.0,0.0,0.0,57.040493,-2.9897835,65.59404,-0.010015938,0.03278424,0.022650313,549944.1,119984.9,0.021535182,0.030375862,6422.509,6636.9297,5669.1304,5984.691,0.3327942,0.0,0.0,0.0
278.70767,278.70767,3.383,0.0,0.0,313.56,11246.0,100.0,0.0,-0.42663926,0.0,8.0,1.0,0.0,4000000.0,110.0,1.0,0.0,0.0,10.0,0.0,0.0,724.7489,-6.837129,39.975494,0.17597112,0.25128934,0.62998927,318.05756,318.10672,313.32373,313.46835,351.0,350.0,422.0,418.0,97.0,97.0,97.0,97.0,0.0,0.0,0.0,0.0,0.05102153,0.05155322,0.054481473,0.055219658,372.51566,359.97165,2.7713923,-7.37071,458.57663,172.1704,-5800.2896,-6312.632,0.0,0.0,0.0,2.0,1.0,0.7178078,-7.2637794E-4,0.028436065,97.0,97.0,97.0,97.0,21.710573,21.710573,24.666473,24.666473,0.014714464,0.014467133,-4.4881625E-4,-4.574486E-4,1164.7163,0.0,0.0,0.0,0.0,0.0,0.0,0.0,0.0,0.0,0.0,0.0,0.0,0.0,57.18187,-2.7764819,65.64248,-0.11299135,0.024973389,0.08917546,549919.44,119984.92,0.0055717654,0.007090988,9092.026,9264.337,7440.1147,7746.5483,0.30601883,0.0,0.0,0.0
283.06024,283.06024,3.433,0.0,0.0,313.40036,11240.0,100.0,0.0,-0.29580998,0.0,8.0,1.0,0.0,4000000.0,110.0,1.0,0.0,0.0,10.0,0.0,0.0,727.6084,-6.9543962,43.255386,0.13475256,0.123208396,0.71569335,317.94998,317.91205,313.25113,313.27457,350.0,348.0,421.0,416.0,97.0,97.0,97.0,97.0,0.0,0.0,0.0,0.0,0.05068726,0.05084697,0.05340837,0.054218296,-125.239494,-119.15489,-38.772892,-37.12065,-4242.2617,-3686.2532,1083.6392,1504.5851,0.0,0.0,0.0,2.0,1.0,0.7182778,-0.0015527558,0.024396539,97.0,97.0,97.0,97.0,21.710573,21.710573,24.666473,24.666473,0.014412275,0.014237389,-4.299043E-4,-4.634342E-4,1164.0825,0.0,0.0,0.0,0.0,0.0,0.0,0.0,0.0,0.0,0.0,0.0,0.0,0.0,57.214817,-2.082151,65.58061,0.02740311,0.0052198796,-0.038377777,549913.6,119984.9,0.0035965547,0.0013953547,9286.233,9448.201,6321.168,6720.5166,0.29766464,0.0,0.0,0.0
287.41592,287.41592,3.483,0.0,0.0,313.80423,11289.0,100.0,0.0,-0.2915708,0.0,8.0,1.0,0.0,4000000.0,110.0,1.0,0.0,0.0,10.0,0.0,0.0,730.4722,-7.0594797,46.535564,0.11657379,0.23795453,-0.4519551,319.3148,319.33752,313.6355,313.71362,348.0,347.0,419.0,415.0,97.0,97.0,97.0,97.0,0.0,0.0,0.0,0.0,0.044632368,0.044637486,0.052435804,0.05300541,-116.02185,-120.73851,-15.042945,-21.376982,-281.4175,419.21582,84.58345,219.7801,0.0,0.0,0.0,2.0,1.0,0.71878266,-0.0026884344,0.027906656,97.0,97.0,97.0,97.0,21.710573,21.710573,24.666473,24.666473,0.017642977,0.017487569,-4.1223486E-4,-4.2805076E-4,1169.2672,0.0,0.0,0.0,0.0,0.0,0.0,0.0,0.0,0.0,0.0,0.0,0.0,0.0,57.330986,-2.182296,65.6249,0.027358176,0.01414193,-0.04690261,549965.3,119984.91,0.007424283,0.01244379,6614.8296,6690.2515,5937.882,6180.0215,0.30198097,0.0,0.0,0.0
