LapDistance [m],TotalDistance [m],LapTime [s],Sector1Time [s],Sector2Time [s],Speed [km/h],EngineRevs [rpm],ThrottlePercentage [%],BrakePercentage [%],Steer [%],Clutch [%],Gear [int],DRS [0/1],CanUseDRS [0/1],KERSLevel [J],EngineTemperature [C],RacePosition [int],Sector [int],InPits [int],FuelRemaining [kg],CurrentFlag [int],CurrentLapInvalid [int],X [m],Y [m],Z [m],GForceLatitudinal [G],GForceLongitudinal [G],GForceVertical [G],WheelSpeedRearLeft [km/h],WheelSpeedRearRight [km/h],WheelSpeedFrontLeft [km/h],WheelSpeedFrontRight [km/h],BrakeTemperatureRearLeft [C],BrakeTemperatureRearRight [C],BrakeTemperatureFrontLeft [C],BrakeTemperatureFrontRight [C],TyreTemperatureRearLeft [C],TyreTemperatureRearRight [C],TyreTemperatureFrontLeft [C],TyreTemperatureFrontRight [C],TyreWearRearLeft [%],TyreWearRearRight [%],TyreWearFrontLeft [%],TyreWearFrontRight [%],SuspensionPositionRearLeft [m],SuspensionPositionRearRight [m],SuspensionPositionFrontLeft [m],SuspensionPositionFrontRight [m],SuspensionVelocityRearLeft [m/s],SuspensionVelocityRearRight [m/s],SuspensionVelocityFrontLeft [m/s],SuspensionVelocityFrontRight [m/s],SuspensionAccelerationRearLeft [m/s^2],SuspensionAccelerationRearRight [m/s^2],SuspensionAccelerationFrontLeft [m/s^2],SuspensionAccelerationFrontRight [m/s^2],MGUKHarvested [J],MGUHHarvested [J],ERSSpent [J],ERSMode [int],FuelMixMode [int],Yaw [rad],Roll [rad],Pitch [rad],TyreCarcassTemperatureRearLeft [C],TyreCarcassTemperatureRearRight [C],TyreCarcassTemperatureFrontLeft [C],TyreCarcassTemperatureFrontRight [C],TyrePressureRearLeft [PSI],TyrePressureRearRight [PSI],TyrePressureFrontLeft [PSI],TyrePressureFrontRight [PSI],WheelSlipRearLeft [%],WheelSlipRearRight [%],WheelSlipFrontLeft [%],WheelSlipFrontRight [%],Torque [Nm],Handbrake [%],RearLeftInside [C],RearLeftMiddle [C],RearLeftOutside [C],RearRightInside [C],RearRightMiddle [C],RearRightOutside [C],FrontLeftInside [C],FrontLeftMiddle [C],FrontLeftOutside [C],FrontRightInside [C],FrontRightMiddle [C],FrontRightOutside [C],WoldSpeedX [km/h],WoldSpeedY [km/h],WoldSpeedZ [km/h],LocalAngularVelocityX [rad/s],LocalAngularVelocityY [rad/s],LocalAngularVelocityZ [rad/s],IcePower [W],MgukPower [W],FrontRideHeight [m],RearRideHeight [m],LoadRearLeft [N],LoadRearRight [N],LoadFrontLeft [N],LoadFrontRight [N],Extra1 [m],Extra2 [],Extra3 [],Extra4 []
3.256317,3.256317,0.05,0.0,0.0,274.46774,11194.0,100.0,0.0,1.0467663,0.0,7.0,1.0,0.0,4000000.0,110.0,1.0,0.0,0.0,10.0,0.0,0.0,543.8712,0.95998025,-167.47731,-0.27039748,0.5433474,-1.125899,283.0183,283.51453,274.45425,274.1807,434.0,433.0,495.0,490.0,97.0,97.0,97.0,97.0,0.0,0.0,0.0,0.0,0.02836183,0.027193518,0.048780967,0.04899346,0.0,0.0,0.0,0.0,12236.276,9699.879,8565.981,4581.1455,0.0,0.0,0.0,2.0,1.0,0.72158736,0.006323502,0.039480567,97.0,97.0,97.0,97.0,21.710573,21.710573,24.666473,24.666473,0.03160213,0.03418099,-5.961321E-4,-5.1760406E-4,1159.2152,0.0,0.0,0.0,0.0,0.0,0.0,0.0,0.0,0.0,0.0,0.0,0.0,0.0,50.411057,-2.7156403,57.131832,0.01960709,-0.046010602,-0.114140466,549864.6,119984.89,0.029183108,0.042377565,4003.499,3573.83,4322.8354,4160.215,0.32496548,0.0,0.0,0.0
7.085026,7.085026,0.1,0.0,0.0,275.51773,11092.0,100.0,0.0,0.49472526,0.0,7.0,1.0,0.0,4000000.0,110.0,1.0,0.0,0.0,10.0,0.0,0.0,546.39417,0.8201587,-164.61238,-0.29143974,0.5491107,0.40145013,280.61804,280.70508,275.47345,275.23502,432.0,431.0,493.0,489.0,97.0,97.0,97.0,97.0,0.0,0.0,0.0,0.0,0.040591385,0.036731157,0.053507034,0.0519382,0.0,0.0,0.0,0.0,13424.388,15189.784,-3420.5266,-3445.4314,0.0,0.0,0.0,2.0,1.0,0.7191895,0.002737818,0.036332607,97.0,97.0,97.0,97.0,21.710573,21.710573,24.666473,24.666473,0.018330218,0.019485928,-4.9928983E-4,-5.397844E-4,1148.4258,0.0,0.0,0.0,0.0,0.0,0.0,0.0,0.0,0.0,0.0,0.0,0.0,0.0,50.496735,-2.7597055,57.443172,-0.1246573,-0.038184237,0.06895095,549756.1,119984.9,0.019149203,0.028131729,8156.992,7412.4443,6775.8555,6144.544,0.3150549,0.0,0.0,0.0
10.927255,10.927255,0.15,0.0,0.0,276.41632,11112.0,100.0,0.0,0.09655992,0.0,7.0,1.0,0.0,4000000.0,110.0,1.0,0.0,0.0,10.0,0.0,0.0,548.9208,0.69006,-161.73273,-0.21470052,0.51624316,0.7815489,281.0557,281.23486,276.30466,276.1984,430.0,429.0,491.0,487.0,97.0,97.0,97.0,97.0,0.0,0.0,0.0,0.0,0.051268995,0.049733397,0.054015607,0.053624734,0.0,0.0,0.0,0.0,-7670.0703,-4244.367,-96.237656,-1297.0356,0.0,0.0,0.0,2.0,1.0,0.7177444,0.0021656419,0.029414773,97.0,97.0,97.0,97.0,21.710573,21.710573,24.666473,24.666473,0.016794667,0.017697698,-4.9729296E-4,-5.490502E-4,1150.54,0.0,0.0,0.0,0.0,0.0,0.0,0.0,0.0,0.0,0.0,0.0,0.0,0.0,50.574142,-2.4359782,57.72214,-0.08865168,-0.0163093,0.09718422,549776.94,119984.92,0.007141058,0.010878906,9033.699,8159.017,7124.205,6967.3555,0.30179024,0.0,0.0,0.0
14.780614,14.780614,0.183,0.0,0.0,276.8215,11136.0,100.0,0.0,-0.19991629,0.0,7.0,1.0,0.0,4000000.0,110.0,1.0,0.0,0.0,10.0,0.0,0.0,551.4506,0.5838547,-158.8411,-0.15277532,-0.31731236,1.7786548,281.6974,281.8018,276.6488,276.67212,428.0,427.0,490.0,485.0,97.0,97.0,97.0,97.0,0.0,0.0,0.0,0.0,0.049761523,0.049227618,0.053396154,0.053316265,-103.53192,-132.35136,-51.00086,-64.86274,-6293.0786,-7435.673,-3754.502,-5118.995,0.0,0.0,0.0,2.0,1.0,0.71733934,0.0017197303,0.025204182,97.0,97.0,97.0,97.0,21.710573,21.710573,24.666473,24.666473,0.017685253,0.017910924,-6.574123E-4,-6.7945215E-4,1153.078,0.0,0.0,0.0,0.0,0.0,0.0,0.0,0.0,0.0,0.0,0.0,0.0,0.0,50.588657,-1.8056273,57.882183,-0.038539335,0.0018311841,0.01653847,549802.2,119984.92,0.0,0.0032896698,8428.249,8195.377,5946.792,5951.1147,0.29407215,0.0,0.0,0.0
18.642365,18.642365,0.25,0.0,0.0,277.6905,11184.0,100.0,0.0,-0.371972,0.0,7.0,1.0,0.0,4000000.0,110.0,1.0,0.0,0.0,10.0,0.0,0.0,553.9843,0.50293756,-155.94171,0.021859929,0.4693962,-0.12099694,282.94846,282.99664,277.4922,277.60422,426.0,425.0,488.0,483.0,97.0,97.0,97.0,97.0,0.0,0.0,0.0,0.0,0.047272116,0.04747058,0.052216794,0.052023657,0.0,0.0,0.0,0.0,-3798.6238,-4546.4106,-1830.5808,-1510.1641,0.0,0.0,0.0,2.0,1.0,0.71798706,0.0018224408,0.023597121,97.0,97.0,97.0,97.0,21.710573,21.710573,24.666473,24.666473,0.01881846,0.018630715,-5.062358E-4,-5.2835146E-4,1158.1559,0.0,0.0,0.0,0.0,0.0,0.0,0.0,0.0,0.0,0.0,0.0,0.0,0.0,50.747833,-1.5795406,58.070328,0.036786404,0.019815115,-0.017927079,549853.3,119984.91,0.010415434,0.011340633,7265.211,7318.021,4930.121,4868.905,0.30243206,0.0,0.0,0.0
22.515575,22.515575,0.3,0.0,0.0,278.53845,11248.0,100.0,0.0,-0.23742673,0.0,7.0,1.0,0.0,4000000.0,110.0,1.0,0.0,0.0,10.0,0.0,0.0,556.52625,0.4157943,-153.03436,0.080060184,0.49592233,-0.66684353,284.6117,284.60077,278.3342,278.47046,424.0,423.0,486.0,481.0,97.0,97.0,97.0,97.0,0.0,0.0,0.0,0.0,0.03907756,0.039764147,0.049799338,0.050135925,0.0,0.0,0.0,0.0,1964.9055,2047.6252,1801.4517,1482.2421,0.0,0.0,0.0,2.0,1.0,0.7191897,0.0026670245,0.027431965,97.0,97.0,97.0,97.0,21.710573,21.710573,24.666473,24.666473,0.021997418,0.021505829,-5.4657744E-4,-5.2364473E-4,1164.928,0.0,0.0,0.0,0.0,0.0,0.0,0.0,0.0,0.0,0.0,0.0,0.0,0.0,50.925716,-1.9001021,58.218174,0.09360193,0.022235531,-0.066725835,549921.6,119984.91,0.019634895,0.021833448,5697.6514,5891.991,4019.3428,4193.9907,0.3113432,0.0,0.0,0.0
26.40034,26.40034,0.35,0.0,0.0,279.3823,11287.0,100.0,0.0,0.0903873,0.0,7.0,1.0,0.0,4000000.0,110.0,1.0,0.0,0.0,10.0,0.0,0.0,559.0775,0.3134634,-150.11987,0.07836619,0.48892832,-0.45975795,285.61942,285.5672,279.19562,279.2817,422.0,421.0,484.0,480.0,97.0,97.0,97.0,97.0,0.0,0.0,0.0,0.0,0.034695607,0.035664707,0.050687347,0.051127255,0.0,0.0,0.0,0.0,2880.3835,2507.3823,-160.46321,-19.6471,0.0,0.0,0.0,2.0,1.0,0.72020054,0.0031862168,0.03157556,97.0,97.0,97.0,97.0,21.710573,21.710573,24.666473,24.666473,0.022719605,0.02224312,-5.442642E-4,-4.8429947E-4,1169.0555,0.0,0.0,0.0,0.0,0.0,0.0,0.0,0.0,0.0,0.0,0.0,0.0,0.0,51.11301,-2.1641183,58.356647,0.021556813,0.012246955,-0.018190686,549963.2,119984.91,0.02084631,0.02976372,5509.585,5712.0195,5139.801,5352.0415,0.31760883,0.0,0.0,0.0
30.296738,30.296738,0.4,0.0,0.0,280.24442,11301.0,100.0,0.0,0.31277105,0.0,7.0,1.0,0.0,4000000.0,110.0,1.0,0.0,0.0,10.0,0.0,0.0,561.63776,0.20000902,-147.19783,0.015841931,0.493255,-0.28554177,285.9838,285.9209,280.13,280.06824,421.0,420.0,483.0,478.0,97.0,97.0,97.0,97.0,0.0,0.0,0.0,0.0,0.036154717,0.0363462,0.05104659,0.05115118,0.0,0.0,0.0,0.0,2469.0803,3388.1929,2193.443,2824.312,0.0,0.0,0.0,2.0,1.0,0.7201304,0.00305566,0.03193462,97.0,97.0,97.0,97.0,21.710573,21.710573,24.666473,24.666473,0.020559754,0.020556021,-5.354686E-4,-4.995135E-4,1170.5385,0.0,0.0,0.0,0.0,0.0,0.0,0.0,0.0,0.0,0.0,0.0,0.0,0.0,51.28198,-2.3549669,58.519753,-1.7310475E-4,-0.012028748,-0.0014246876,549978.6,119984.9,0.018688018,0.026694922,6333.675,6400.4736,5286.365,5335.8584,0.31598663,0.0,0.0,0.0
34.204914,34.204914,0.45,0.0,0.0,281.09497,11316.0,100.0,0.0,0.37941718,0.0,7.0,1.0,0.0,4000000.0,110.0,1.0,0.0,0.0,10.0,0.0,0.0,564.2057,0.08216763,-144.2669,-0.06723893,0.48211473,0.14667925,286.34525,286.31604,281.0068,280.8788,419.0,418.0,481.0,476.0,97.0,97.0,97.0,97.0,0.0,0.0,0.0,0.0,0.042679433,0.042237863,0.052456424,0.052422523,0.0,0.0,0.0,0.0,870.28284,196.7935,-1024.0941,-1533.3115,0.0,0.0,0.0,2.0,1.0,0.71923065,0.0023928075,0.030282378,97.0,97.0,97.0,97.0,21.710573,21.710573,24.666473,24.666473,0.018600442,0.01892464,-5.19634E-4,-5.0756196E-4,1172.1267,0.0,0.0,0.0,0.0,0.0,0.0,0.0,0.0,0.0,0.0,0.0,0.0,0.0,51.424664,-2.3334875,58.70986,-0.05594204,-0.021649744,0.015436981,549994.9,119984.9,0.013393923,0.018512085,7382.741,7247.036,6135.0503,6086.638,0.30842686,0.0,0.0,0.0
38.12504,38.12504,0.5,0.0,0.0,281.9414,11341.0,100.0,0.0,0.114219755,0.0,7.0,1.0,0.0,4000000.0,110.0,1.0,0.0,0.0,10.0,0.0,0.0,566.78046,-0.031730257,-141.32614,-0.072360024,0.47832912,0.24992076,286.9304,286.95624,281.82397,281.76166,417.0,416.0,479.0,474.0,97.0,97.0,97.0,97.0,0.0,0.0,0.0,0.0,0.04758894,0.046886526,0.05264115,0.052558392,0.0,0.0,0.0,0.0,-1921.1857,-2316.1677,-173.05612,-288.09604,0.0,0.0,0.0,2.0,1.0,0.7184387,0.0016627138,0.02814591,97.0,97.0,97.0,97.0,21.710573,21.710573,24.666473,24.666473,0.017647134,0.017934728,-5.08707E-4,-5.2153395E-4,1174.7717,0.0,0.0,0.0,0.0,0.0,0.0,0.0,0.0,0.0,0.0,0.0,0.0,0.0,51.55847,-2.2244008,58.909573,-0.025342852,-0.009564107,0.0014920058,550020.8,119984.9,0.011424709,0.01185556,7952.1494,7738.84,6067.909,6032.0366,0.30381775,0.0,0.0,0.0
42.056915,42.056915,0.55,0.0,0.0,282.76074,11382.0,100.0,0.0,-0.09884992,0.0,7.0,1.0,0.0,4000000.0,110.0,1.0,0.0,0.0,10.0,0.0,0.0,569.3619,-0.14067261,-138.37561,-0.03441772,0.45911676,0.066142224,287.95346,288.01907,282.61514,282.6231,415.0,414.0,477.0,473.0,97.0,97.0,97.0,97.0,0.0,0.0,0.0,0.0,0.04734049,0.04676005,0.052394014,0.05238353,0.0,0.0,0.0,0.0,-742.2476,-1572.3644,-18.681591,-172.4392,0.0,0.0,0.0,2.0,1.0,0.71825576,0.0011371506,0.028326154,97.0,97.0,97.0,97.0,21.710573,21.710573,24.666473,24.666473,0.018354308,0.018539906,-4.942896E-4,-5.145974E-4,1178.9208,0.0,0.0,0.0,0.0,0.0,0.0,0.0,0.0,0.0,0.0,0.0,0.0,0.0,51.692154,-2.1567392,59.097645,0.0052635623,0.0025918826,-0.019525714,549975.1,119984.9,0.0122889625,0.012997332,7433.575,7283.135,5872.1836,5870.6523,0.30475712,0.0,0.0,0.0
46.000084,46.000084,0.6,0.0,0.0,283.56436,11421.0,100.0,0.0,-0.16690814,0.0,7.0,1.0,0.0,4000000.0,110.0,1.0,0.0,0.0,10.0,0.0,0.0,571.9503,-0.24889056,-135.41624,0.015194431,0.4552042,-0.09261954,288.94833,289.00674,283.39218,283.45312,413.0,412.0,476.0,471.0,97.0,97.0,97.0,97.0,0.0,0.0,0.0,0.0,0.044949222,0.0446277,0.052033577,0.0521843,0.0,0.0,0.0,0.0,369.55466,49.352642,84.409096,-104.98165,0.0,0.0,0.0,2.0,1.0,0.7186391,8.896351E-4,0.029167533,97.0,97.0,97.0,97.0,21.710573,21.710573,24.666473,24.666473,0.019119862,0.019112425,-4.9846584E-4,-5.059967E-4,1181.3002,0.0,0.0,0.0,0.0,0.0,0.0,0.0,0.0,0.0,0.0,0.0,0.0,0.0,51.839554,-2.1836321,59.264412,0.006945082,0.010952771,-0.015761819,549203.3,119984.9,0.013884338,0.016458327,6980.5215,6947.72,5650.676,5727.1245,0.30706024,0.0,0.0,0.0
49.954323,49.954323,0.65,0.0,0.0,284.36118,11453.0,100.0,0.0,-0.12395939,0.0,7.0,1.0,0.0,4000000.0,110.0,1.0,0.0,0.0,10.0,0.0,0.0,574.5465,-0.35955194,-132.44899,0.04793361,0.44989875,-0.09564428,289.75876,289.8026,284.1821,284.25552,412.0,411.0,474.0,469.0,97.0,97.0,97.0,97.0,0.0,0.0,0.0,0.0,0.043285713,0.043301433,0.051943503,0.052229434,0.0,0.0,0.0,0.0,699.58704,381.41003,191.04031,89.07616,0.0,0.0,0.0,2.0,1.0,0.71926326,8.394591E-4,0.029875517,97.0,97.0,97.0,97.0,21.710573,21.710573,24.666473,24.666473,0.019157775,0.01906769,-5.0413434E-4,-4.958474E-4,1183.2572,0.0,0.0,0.0,0.0,0.0,0.0,0.0,0.0,0.0,0.0,0.0,0.0,0.0,52.0004,-2.2390635,59.41583,0.00359804,0.012307519,-0.009269973,548576.1,119984.91,0.013743872,0.018031076,6909.884,6952.683,5708.8174,5848.355,0.3078556,0.0,0.0,0.0
53.912857,53.912857,0.7,0.0,0.0,285.15247,11479.0,100.0,0.0,0.095431045,0.0,7.0,1.0,0.0,4000000.0,110.0,1.0,0.0,0.0,10.0,0.0,0.0,577.1507,-0.47231048,-129.47423,0.02734229,0.44762647,-0.0153345335,290.43286,290.46677,285.00082,285.01413,410.0,409.0,472.0,468.0,97.0,97.0,97.0,97.0,0.0,0.0,0.0,0.0,0.043376613,0.043336704,0.05217663,0.052556522,0.0,0.0,0.0,0.0,1068.6053,313.80505,85.97818,-166.94064,0.0,0.0,0.0,2.0,1.0,0.71960914,3.9778012E-4,0.02983892,97.0,97.0,97.0,97.0,21.710573,21.710573,24.666473,24.666473,0.018612009,0.018693907,-5.119451E-4,-4.890483E-4,1184.8102,0.0,0.0,0.0,0.0,0.0,0.0,0.0,0.0,0.0,0.0,0.0,0.0,0.0,52.159054,-2.2640579,59.56825,-0.019447008,0.0018660058,-0.009252346,548051.94,119984.9,0.01184152,0.016663559,7182.232,7145.384,5905.9683,6077.5527,0.30650425,0.0,0.0,0.0
57.87953,57.87953,0.749,0.0,0.0,285.937,11502.0,100.0,0.0,0.26490575,0.0,7.0,1.0,0.0,4000000.0,110.0,1.0,0.0,0.0,10.0,0.0,0.0,579.7626,-0.5844464,-126.49151,-0.026951581,0.43734834,0.13900073,291.01465,291.0562,285.82053,285.75992,408.0,407.0,470.0,466.0,97.0,97.0,97.0,97.0,0.0,0.0,0.0,0.0,0.045833133,0.045429576,0.052618284,0.05297291,0.0,0.0,0.0,0.0,90.40374,-2477.2075,-628.4549,-2504.5393,0.0,0.0,0.0,2.0,1.0,0.71934754,-0.0013183523,0.028838515,97.0,97.0,97.0,97.0,21.710573,21.710573,24.666473,24.666473,0.017693618,0.018053766,-5.081843E-4,-4.8726352E-4,1186.1876,0.0,0.0,0.0,0.0,0.0,0.0,0.0,0.0,0.0,0.0,0.0,0.0,0.0,52.30297,-2.211034,59.733994,-0.054773916,-0.009548892,-0.027422218,547591.94,119984.89,0.010914678,0.013800333,7679.2236,7463.2734,6131.3535,6221.92,0.30478573,0.0,0.0,0.0
61.856987,61.856987,0.799,0.0,0.0,286.70218,11539.0,100.0,0.0,0.26682106,0.0,7.0,1.0,0.0,4000000.0,110.0,1.0,0.0,0.0,10.0,0.0,0.0,582.38104,-0.6945951,-123.500175,-0.06656101,0.43049353,-0.106325366,291.9682,291.9575,286.6103,286.51016,406.0,405.0,469.0,464.0,97.0,97.0,97.0,97.0,0.0,0.0,0.0,0.0,0.046077155,0.04504005,0.05241391,0.051946573,0.0,0.0,0.0,0.0,-1749.2694,-1424.3602,-396.65845,-118.231766,0.0,0.0,0.0,2.0,1.0,0.71858287,-0.0025364037,0.028600335,97.0,97.0,97.0,97.0,21.710573,21.710573,24.666473,24.666473,0.018218193,0.018531859,-4.9848255E-4,-4.952024E-4,1188.4348,0.0,0.0,0.0,0.0,0.0,0.0,0.0,0.0,0.0,0.0,0.0,0.0,0.0,52.423668,-2.217544,59.910683,0.011356006,-0.01716971,-0.0116205765,546870.1,119984.9,0.012496086,0.013720813,7265.361,7093.51,5723.202,5488.4507,0.30424595,0.0,0.0,0.0
65.84491,65.84491,0.849,0.0,0.0,287.4566,11575.0,100.0,0.0,0.067555726,0.0,7.0,1.0,0.0,4000000.0,110.0,1.0,0.0,0.0,10.0,0.0,0.0,585.0051,-0.8069196,-120.49985,-0.06976423,0.4219003,-0.14392577,292.90216,292.8387,287.35727,287.2799,404.0,403.0,467.0,462.0,97.0,97.0,97.0,97.0,0.0,0.0,0.0,0.0,0.044288177,0.04390994,0.052409273,0.051731057,0.0,0.0,0.0,0.0,-742.52924,-639.7738,129.85912,-20.371384,0.0,0.0,0.0,2.0,1.0,0.71780413,-0.0020969682,0.030159473,97.0,97.0,97.0,97.0,21.710573,21.710573,24.666473,24.666473,0.018826094,0.018860383,-4.7790655E-4,-4.981239E-4,1190.6023,0.0,0.0,0.0,0.0,0.0,0.0,0.0,0.0,0.0,0.0,0.0,0.0,0.0,52.533413,-2.2784932,60.09094,0.03651303,-0.012965246,-0.0045037027,546163.56,119984.9,0.014015381,0.016749874,6893.2266,6891.133,5920.54,5591.179,0.30674267,0.0,0.0,0.0
69.84308,69.84308,0.899,0.0,0.0,288.1966,11604.0,100.0,0.0,-0.10123561,0.0,7.0,1.0,0.0,4000000.0,110.0,1.0,0.0,0.0,10.0,0.0,0.0,587.63477,-0.9229089,-117.49074,-0.03929223,0.41573066,-0.10776623,293.62726,293.57285,288.05795,288.05368,403.0,402.0,465.0,461.0,97.0,97.0,97.0,97.0,0.0,0.0,0.0,0.0,0.04272204,0.042910963,0.052545942,0.051928926,0.0,0.0,0.0,0.0,255.90956,793.6253,108.85742,332.795,0.0,0.0,0.0,2.0,1.0,0.71752447,-8.303065E-4,0.03115797,97.0,97.0,97.0,97.0,21.710573,21.710573,24.666473,24.666473,0.01888753,0.018722173,-4.7524506E-4,-4.9492525E-4,1192.3392,0.0,0.0,0.0,0.0,0.0,0.0,0.0,0.0,0.0,0.0,0.0,0.0,0.0,52.647785,-2.3511615,60.26129,0.029216636,-0.0010245227,0.02503835,545593.44,119984.89,0.014799672,0.019093694,6859.6885,6960.357,6069.5137,5795.785,0.30886745,0.0,0.0,0.0
73.851425,73.851425,0.949,0.0,0.0,288.9316,11627.0,100.0,0.0,-0.1577018,0.0,7.0,1.0,0.0,4000000.0,110.0,1.0,0.0,0.0,10.0,0.0,0.0,590.27057,-1.0426655,-114.47352,0.0036132038,0.4155826,-0.013317679,294.23145,294.16806,288.7658,288.81152,401.0,400.0,463.0,459.0,97.0,97.0,97.0,97.0,0.0,0.0,0.0,0.0,0.042548798,0.043368686,0.05261571,0.052264538,0.0,0.0,0.0,0.0,1110.3405,1684.4673,464.3574,745.3992,0.0,0.0,0.0,2.0,1.0,0.71777785,0.0012693959,0.031240106,97.0,97.0,97.0,97.0,21.710573,21.710573,24.666473,24.666473,0.018502008,0.0181346,-4.8184328E-4,-4.900774E-4,1193.6727,0.0,0.0,0.0,0.0,0.0,0.0,0.0,0.0,0.0,0.0,0.0,0.0,0.0,52.77629,-2.4130487,60.41781,0.023011582,0.006715496,0.04175537,545123.1,119984.91,0.013214761,0.01781679,7080.918,7281.5615,6225.793,6095.4277,0.3076353,0.0,0.0,0.0
77.869865,77.869865,0.999,0.0,0.0,289.65967,11649.0,100.0,0.0,-0.13813539,0.0,7.0,1.0,0.0,4000000.0,110.0,1.0,0.0,0.0,10.0,0.0,0.0,592.9131,-1.1629364,-111.44878,0.03281319,0.409442,0.092326835,294.76984,294.72455,289.48904,289.54208,399.0,398.0,462.0,457.0,97.0,97.0,97.0,97.0,0.0,0.0,0.0,0.0,0.044789594,0.045661915,0.052848272,0.052645102,0.0,0.0,0.0,0.0,-250.89383,228.28261,6.8396754,-12.74049,0.0,0.0,0.0,2.0,1.0,0.7182306,0.0023433364,0.030405998,97.0,97.0,97.0,97.0,21.710573,21.710573,24.666473,24.666473,0.017773412,0.017462455,-4.8670536E-4,-4.8409347E-4,1194.9879,0.0,0.0,0.0,0.0,0.0,0.0,0.0,0.0,0.0,0.0,0.0,0.0,0.0,52.91771,-2.3911042,60.5638,0.0048324196,0.00805467,0.030892273,544693.1,119984.9,0.011885419,0.014681865,7457.863,7649.3975,6288.7725,6181.308,0.30521202,0.0,0.0,0.0
81.89458,81.89458,1.049,0.0,0.0,289.44922,11392.0,100.0,0.0,-0.09837863,0.0,7.0,1.0,0.0,4000000.0,110.0,1.0,0.0,0.0,10.0,0.0,0.0,595.5603,-1.2813841,-108.41984,0.04514861,-0.56689435,0.14531621,289.41016,289.42618,289.434,289.46893,397.0,396.0,460.0,456.0,97.0,97.0,97.0,97.0,0.0,0.0,0.0,0.0,0.044322174,0.045210443,0.053023946,0.052955914,0.0,0.0,0.0,0.0,-3054.5396,-2190.0906,733.5304,1228.2102,0.0,0.0,0.0,2.0,1.0,0.71859604,0.0035214012,0.03092897,97.0,97.0,97.0,97.0,21.710573,21.710573,24.666473,24.666473,-6.7727444E-5,-1.2776584E-4,-1.2849078E-5,-1.0501788E-5,1179.5066,0.0,0.0,0.0,0.0,0.0,0.0,0.0,0.0,0.0,0.0,0.0,0.0,0.0,52.894344,-2.337104,60.50866,0.051801905,0.0050883936,-0.006283326,549765.4,0.0,0.011261837,0.015232737,7365.632,7576.7754,6541.445,6531.7305,0.30521202,0.0,0.0,0.0
85.90901,85.90901,1.099,0.0,0.0,288.89163,10940.0,100.0,0.0,-0.041778356,0.0,8.0,1.0,0.0,4000000.0,110.0,1.0,0.0,0.0,10.0,0.0,0.0,598.2015,-1.3971379,-105.39922,0.0357263,0.04880054,-0.023994539,293.89246,293.863,288.76355,288.78323,396.0,395.0,458.0,454.0,97.0,97.0,97.0,97.0,0.0,0.0,0.0,0.0,0.04154478,0.04213789,0.05324995,0.05338759,0.0,0.0,0.0,0.0,1168.0215,2792.662,-1588.3503,91.409676,0.0,0.0,0.0,2.0,1.0,0.71882105,0.004754809,0.03223133,97.0,97.0,97.0,97.0,21.710573,21.710573,24.666473,24.666473,0.015240012,0.015094685,-3.4486517E-4,-3.4473996E-4,1130.3636,0.0,0.0,0.0,0.0,0.0,0.0,0.0,0.0,0.0,0.0,0.0,0.0,0.0,52.805843,-2.312012,60.381184,0.01172881,0.0024010283,0.02555202,548627.9,119984.89,0.012063315,0.019464312,6832.328,7003.029,6449.993,6583.189,0.30774403,0.0,0.0,0.0
89.92754,89.92754,1.149,0.0,0.0,289.71896,10593.0,100.0,0.0,-0.10353232,0.0,8.0,1.0,0.0,4000000.0,110.0,1.0,0.0,0.0,10.0,0.0,0.0,600.846,-1.51433,-102.37609,0.03504044,0.4908017,0.02334508,295.35522,295.38702,289.54465,289.57715,394.0,393.0,457.0,452.0,97.0,97.0,97.0,97.0,0.0,0.0,0.0,0.0,0.043310016,0.043504246,0.05245945,0.052964073,0.0,0.0,0.0,0.0,2635.9539,2127.5415,1847.3578,1257.4196,0.0,0.0,0.0,2.0,1.0,0.71903664,0.0046056216,0.030664325,97.0,97.0,97.0,97.0,21.710573,21.710573,24.666473,24.666473,0.019579379,0.019565694,-5.209126E-4,-5.2270584E-4,1082.4113,0.0,0.0,0.0,0.0,0.0,0.0,0.0,0.0,0.0,0.0,0.0,0.0,0.0,52.969448,-2.3580194,60.541748,-0.04432036,0.0060502514,0.010451755,542563.2,119984.89,0.013621973,0.017786853,7399.668,7395.5254,6103.2607,6313.949,0.30837345,0.0,0.0,0.0
93.9579,93.9579,1.183,0.0,0.0,290.5414,10394.0,100.0,0.0,-0.03706824,0.0,8.0,1.0,0.0,4000000.0,110.0,1.0,0.0,0.0,10.0,0.0,0.0,603.4989,-1.63176,-99.34461,0.029331684,0.4269099,0.023529524,295.47763,295.55176,290.38666,290.41525,392.0,391.0,455.0,451.0,97.0,97.0,97.0,97.0,0.0,0.0,0.0,0.0,0.046442427,0.045943767,0.052038074,0.05258794,53.44167,39.788334,-15.885828,-14.329254,-390.50284,-910.6903,-54.019714,-579.65216,0.0,0.0,0.0,2.0,1.0,0.7192989,0.0033733018,0.029160023,97.0,97.0,97.0,97.0,21.710573,21.710573,24.666473,24.666473,0.01719927,0.017362254,-4.9035886E-4,-4.8680516E-4,1048.6422,0.0,0.0,0.0,0.0,0.0,0.0,0.0,0.0,0.0,0.0,0.0,0.0,0.0,53.132385,-2.3437,60.703434,-0.022429705,0.005699833,-0.026538288,535700.0,119984.9,0.015585975,0.015176793,7722.1284,7591.16,5590.542,5824.404,0.30688858,0.0,0.0,0.0
97.998276,97.998276,1.249,0.0,0.0,291.19678,10423.0,100.0,0.0,-0.021105407,0.0,8.0,1.0,0.0,4000000.0,110.0,1.0,0.0,0.0,10.0,0.0,0.0,606.15894,-1.7481606,-96.306015,0.024841353,0.36680335,0.040874414,296.33084,296.39224,291.0526,291.0669,390.0,389.0,453.0,449.0,97.0,97.0,97.0,97.0,0.0,0.0,0.0,0.0,0.046071798,0.045539703,0.052604984,0.052845098,0.0,0.0,0.0,0.0,-298.26163,-1246.1406,149.5868,-227.49153,0.0,0.0,0.0,2.0,1.0,0.71945846,0.0021147905,0.029875517,97.0,97.0,97.0,97.0,21.710573,21.710573,24.666473,24.666473,0.017692331,0.017864222,-4.651895E-4,-4.6385004E-4,1054.4402,0.0,0.0,0.0,0.0,0.0,0.0,0.0,0.0,0.0,0.0,0.0,0.0,0.0,53.26362,-2.3181868,60.831573,-0.016432373,0.002988109,-0.015975926,537163.2,119984.91,0.01584066,0.0182088,7273.164,7156.2393,6257.693,6344.1504,0.31010246,0.0,0.0,0.0
102.0478,102.0478,1.299,0.0,0.0,291.86444,10441.0,100.0,0.0,0.11465924,0.0,8.0,1.0,0.0,4000000.0,110.0,1.0,0.0,0.0,10.0,0.0,0.0,608.8255,-1.8660944,-93.26103,0.0034627467,0.3817984,0.109798014,296.851,296.88998,291.72647,291.7168,389.0,388.0,452.0,447.0,97.0,97.0,97.0,97.0,0.0,0.0,0.0,0.0,0.04526934,0.044630017,0.05276342,0.053020615,0.0,0.0,0.0,0.0,3337.553,2691.2478,864.2881,569.16473,0.0,0.0,0.0,2.0,1.0,0.71949786,7.9582445E-4,0.029266715,97.0,97.0,97.0,97.0,21.710573,21.710573,24.666473,24.666473,0.017181847,0.017362569,-4.8003072E-4,-4.6514615E-4,1058.01,0.0,0.0,0.0,0.0,0.0,0.0,0.0,0.0,0.0,0.0,0.0,0.0,0.0,53.39139,-2.3554015,60.964878,-0.042928003,-0.0014608438,-6.49672E-4,538052.56,119984.9,0.012627911,0.015930919,7622.8564,7498.626,6470.4233,6571.5635,0.30775356,0.0,0.0,0.0
106.10674,106.10674,1.349,0.0,0.0,292.53247,10458.0,100.0,0.0,0.06919063,0.0,8.0,1.0,0.0,4000000.0,110.0,1.0,0.0,0.0,10.0,0.0,0.0,611.4983,-1.9817228,-90.20903,-0.009817302,0.3789928,0.289235,297.34448,297.35355,292.40152,292.3691,387.0,386.0,450.0,446.0,97.0,97.0,97.0,97.0,0.0,0.0,0.0,0.0,0.04835255,0.04769215,0.053524807,0.053607564,0.0,0.0,0.0,0.0,159.33676,227.62572,-12.123527,-71.93687,0.0,0.0,0.0,2.0,1.0,0.71925044,-1.9596158E-4,0.027425766,97.0,97.0,97.0,97.0,21.710573,21.710573,24.666473,24.666473,0.016482927,0.016618816,-4.7422462E-4,-4.75856E-4,1061.3829,0.0,0.0,0.0,0.0,0.0,0.0,0.0,0.0,0.0,0.0,0.0,0.0,0.0,53.513298,-2.256218,61.10863,-0.04941823,-0.005011576,0.021459375,538890.44,119984.9,0.007178295,0.009971562,8093.2246,7991.496,6897.3066,6926.801,0.30121994,0.0,0.0,0.0
110.175125,110.175125,1.399,0.0,0.0,293.21082,10480.0,100.0,0.0,0.1757973,0.0,8.0,1.0,0.0,4000000.0,110.0,1.0,0.0,0.0,10.0,0.0,0.0,614.1769,-2.0910733,-87.14946,-0.04755193,0.3813795,0.25460625,297.97083,297.9727,293.1086,293.03928,385.0,384.0,448.0,444.0,97.0,97.0,97.0,97.0,0.0,0.0,0.0,0.0,0.04932378,0.049034804,0.05305563,0.053094674,0.0,0.0,0.0,0.0,-2221.633,-3329.3318,119.559456,-10.286235,0.0,0.0,0.0,2.0,1.0,0.71877646,-9.3782844E-4,0.026384711,97.0,97.0,97.0,97.0,21.710573,21.710573,24.666473,24.666473,0.016060501,0.016293552,-4.7799532E-4,-4.781369E-4,1065.752,0.0,0.0,0.0,0.0,0.0,0.0,0.0,0.0,0.0,0.0,0.0,0.0,0.0,53.62417,-2.1286905,61.266663,0.011473771,-0.0114128925,-0.030684864,539972.75,119984.9,0.0075695743,0.006554646,8401.029,8192.558,6226.7905,6236.584,0.29765034,0.0,0.0,0.0
114.25287,114.25287,1.449,0.0,0.0,293.85062,10519.0,100.0,0.0,0.04408143,0.0,8.0,1.0,0.0,4000000.0,110.0,1.0,0.0,0.0,10.0,0.0,0.0,616.8608,-2.1967344,-84.082146,-0.04602413,0.35597193,-0.09962074,299.07404,299.07513,293.7366,293.69302,383.0,383.0,447.0,442.0,97.0,97.0,97.0,97.0,0.0,0.0,0.0,0.0,0.04701115,0.04664006,0.052974965,0.052818872,0.0,0.0,0.0,0.0,-1524.8625,-1483.2345,-1706.4747,-1272.2252,0.0,0.0,0.0,2.0,1.0,0.71827775,-0.001387165,0.02809298,97.0,97.0,97.0,97.0,21.710573,21.710573,24.666473,24.666473,0.017660158,0.017795835,-4.560747E-4,-4.6841073E-4,1072.2933,0.0,0.0,0.0,0.0,0.0,0.0,0.0,0.0,0.0,0.0,0.0,0.0,0.0,53.723038,-2.1215484,61.416634,0.013793137,-0.0067683286,-0.016271077,541272.75,119984.9,0.010704907,0.01306462,7223.986,7128.101,6167.822,6097.785,0.3032217,0.0,0.0,0.0
118.33928,118.33928,1.499,0.0,0.0,294.49445,10546.0,100.0,0.0,0.09843233,0.0,8.0,1.0,0.0,4000000.0,110.0,1.0,0.0,0.0,10.0,0.0,0.0,619.5494,-2.3063262,-81.0074,-0.05440764,0.36695787,-0.31661087,299.84604,299.8673,294.37646,294.34058,382.0,381.0,445.0,441.0,97.0,97.0,97.0,97.0,0.0,0.0,0.0,0.0,0.044239454,0.043665867,0.05215323,0.052001033,0.0,0.0,0.0,0.0,439.19812,328.69147,818.3822,450.8525,0.0,0.0,0.0,2.0,1.0,0.71795684,-0.0018296572,0.029164314,97.0,97.0,97.0,97.0,21.710573,21.710573,24.666473,24.666473,0.018175956,0.018365867,-4.6713598E-4,-4.6793345E-4,1075.9961,0.0,0.0,0.0,0.0,0.0,0.0,0.0,0.0,0.0,0.0,0.0,0.0,0.0,53.817806,-2.2649388,61.566307,0.014586486,-0.0057907077,-0.02362907,541751.25,119984.9,0.0136370845,0.016685955,6919.1733,6773.7734,5667.66,5574.3877,0.30639458,0.0,0.0,0.0
122.43451,122.43451,1.549,0.0,0.0,295.13797,10565.0,100.0,0.0,0.09573505,0.0,8.0,1.0,0.0,4000000.0,110.0,1.0,0.0,0.0,10.0,0.0,0.0,622.2428,-2.4225366,-77.92512,-0.052497685,0.3626063,-0.14783953,300.38083,300.4138,295.0173,294.9837,380.0,379.0,443.0,439.0,97.0,97.0,97.0,97.0,0.0,0.0,0.0,0.0,0.043530677,0.042978723,0.052515205,0.05232696,0.0,0.0,0.0,0.0,866.3534,536.25397,389.73834,157.78094,0.0,0.0,0.0,2.0,1.0,0.71765536,-0.0021797728,0.03031683,97.0,97.0,97.0,97.0,21.710573,21.710573,24.666473,24.666473,0.017794691,0.018007595,-4.6574767E-4,-4.6742E-4,1078.5972,0.0,0.0,0.0,0.0,0.0,0.0,0.0,0.0,0.0,0.0,0.0,0.0,0.0,53.91363,-2.3662205,61.716255,0.004974719,-0.005375612,-0.012522589,542084.25,119984.9,0.012976021,0.01740094,7163.133,7031.0703,6145.3213,6049.099,0.30697155,0.0,0.0,0.0
126.5385,126.5385,1.599,0.0,0.0,295.7739,10581.0,100.0,0.0,0.048347533,0.0,8.0,1.0,0.0,4000000.0,110.0,1.0,0.0,0.0,10.0,0.0,0.0,624.94104,-2.5418296,-74.835434,-0.04019791,0.3600557,-0.007144572,300.82584,300.85522,295.64044,295.62354,378.0,377.0,442.0,437.0,97.0,97.0,97.0,97.0,0.0,0.0,0.0,0.0,0.044923488,0.044411846,0.052954163,0.052863065,0.0,0.0,0.0,0.0,1117.891,624.1097,-47.756706,-347.09122,0.0,0.0,0.0,2.0,1.0,0.717461,-0.0024505525,0.030003667,97.0,97.0,97.0,97.0,21.710573,21.710573,24.666473,24.666473,0.017141258,0.017291866,-4.661061E-4,-4.6858995E-4,1080.7769,0.0,0.0,0.0,0.0,0.0,0.0,0.0,0.0,0.0,0.0,0.0,0.0,0.0,54.013676,-2.3942592,61.862427,-0.018094588,-0.0024305729,0.007015649,542358.4,119984.89,0.0112219555,0.015020045,7559.161,7441.575,6381.372,6333.8926,0.3053732,0.0,0.0,0.0
130.65132,130.65132,1.649,0.0,0.0,296.40506,10599.0,100.0,0.0,-0.016740672,0.0,8.0,1.0,0.0,4000000.0,110.0,1.0,0.0,0.0,10.0,0.0,0.0,627.64453,-2.6609564,-71.73856,-0.020585805,0.3560887,0.06522118,301.34576,301.382,296.2626,296.26492,377.0,376.0,440.0,436.0,97.0,97.0,97.0,97.0,0.0,0.0,0.0,0.0,0.04729521,0.046754256,0.0530963,0.053006712,0.0,0.0,0.0,0.0,-444.3347,-892.77325,195.29161,-191.01349,0.0,0.0,0.0,2.0,1.0,0.71740645,-0.0031703026,0.029125333,97.0,97.0,97.0,97.0,21.710573,21.710573,24.666473,24.666473,0.016717223,0.016834814,-4.6514202E-4,-4.6900523E-4,1083.2592,0.0,0.0,0.0,0.0,0.0,0.0,0.0,0.0,0.0,0.0,0.0,0.0,0.0,54.119755,-2.3703966,62.003567,-0.016229196,9.396243E-4,4.5058737E-4,542680.8,119984.9,0.010225586,0.011946139,7826.8354,7711.9897,6420.638,6352.1416,0.30334282,0.0,0.0,0.0
134.77293,134.77293,1.699,0.0,0.0,297.03052,10621.0,100.0,0.0,-0.010605566,0.0,8.0,1.0,0.0,4000000.0,110.0,1.0,0.0,0.0,10.0,0.0,0.0,630.35345,-2.7786994,-68.6348,-0.0061693043,0.35328552,0.053010345,301.95743,301.98645,296.8852,296.89615,375.0,374.0,438.0,434.0,97.0,97.0,97.0,97.0,0.0,0.0,0.0,0.0,0.04818613,0.04776533,0.05299542,0.05302485,0.0,0.0,0.0,0.0,-26.72819,-420.2618,35.4588,-191.01349,0.0,0.0,0.0,2.0,1.0,0.7174817,-0.0034224966,0.028596759,97.0,97.0,97.0,97.0,21.710573,21.710573,24.666473,24.666473,0.016636511,0.01670458,-4.660994E-4,-4.6675588E-4,1086.2542,0.0,0.0,0.0,0.0,0.0,0.0,0.0,0.0,0.0,0.0,0.0,0.0,0.0,54.230907,-2.343695,62.13827,-0.0040343623,0.0020667848,-0.002274769,543054.06,119984.9,0.010828452,0.010783975,7863.631,7790.3784,6288.8257,6301.963,0.30279064,0.0,0.0,0.0
138.90315,138.90315,1.749,0.0,0.0,297.64026,10647.0,100.0,0.0,-0.015381767,0.0,8.0,1.0,0.0,4000000.0,110.0,1.0,0.0,0.0,10.0,0.0,0.0,633.068,-2.8956828,-65.5245,0.0065428615,0.34158465,-0.045154266,302.71722,302.70847,297.50055,297.5091,373.0,372.0,437.0,432.0,97.0,97.0,97.0,97.0,0.0,0.0,0.0,0.0,0.047436602,0.04750076,0.05275461,0.052708425,0.0,0.0,0.0,0.0,-297.79218,-495.44418,-250.14275,195.2648,0.0,0.0,0.0,2.0,1.0,0.7175681,-0.0034255423,0.029159546,97.0,97.0,97.0,97.0,21.710573,21.710573,24.666473,24.666473,0.017070098,0.017020216,-4.6027856E-4,-4.5981837E-4,1089.8213,0.0,0.0,0.0,0.0,0.0,0.0,0.0,0.0,0.0,0.0,0.0,0.0,0.0,54.343197,-2.3472881,62.265026,0.016594011,0.0013135355,-0.012325253,543506.9,119984.9,0.01372621,0.013379845,7521.119,7554.306,6088.6777,6079.792,0.30557823,0.0,0.0,0.0
143.0416,143.0416,1.799,0.0,0.0,298.23483,10677.0,100.0,0.0,-0.026396094,0.0,8.0,1.0,0.0,4000000.0,110.0,1.0,0.0,0.0,10.0,0.0,0.0,635.7881,-3.0157485,-62.40814,0.017943606,0.34637392,-0.26318443,303.60114,303.54114,298.09308,298.1066,372.0,371.0,435.0,431.0,97.0,97.0,97.0,97.0,0.0,0.0,0.0,0.0,0.044555712,0.04487303,0.052358363,0.05218157,0.0,0.0,0.0,0.0,868.63354,2764.673,913.1981,3341.871,0.0,0.0,0.0,2.0,1.0,0.7176673,-0.0022529704,0.03055787,97.0,97.0,97.0,97.0,21.710573,21.710573,24.666473,24.666473,0.018100379,0.017843284,-4.6098715E-4,-4.606788E-4,1093.9452,0.0,0.0,0.0,0.0,0.0,0.0,0.0,0.0,0.0,0.0,0.0,0.0,0.0,54.45426,-2.4687948,62.382713,0.041152865,0.0011942663,0.009404808,544030.6,119984.9,0.014458582,0.017066762,6875.093,7081.148,5924.084,5929.541,0.30780792,0.0,0.0,0.0
147.1883,147.1883,1.849,0.0,0.0,298.83774,10685.0,100.0,0.0,-0.061114267,0.0,8.0,1.0,0.0,4000000.0,110.0,1.0,0.0,0.0,10.0,0.0,0.0,638.51385,-3.1397429,-59.285767,0.015285209,0.3363362,0.13763107,303.79633,303.8017,298.6881,298.70184,370.0,369.0,433.0,429.0,97.0,97.0,97.0,97.0,0.0,0.0,0.0,0.0,0.04587227,0.0464059,0.05331694,0.053457484,0.0,0.0,0.0,0.0,2757.5383,2469.0537,-468.56848,-1389.5182,0.0,0.0,0.0,2.0,1.0,0.71777505,-0.0015057302,0.03012991,97.0,97.0,97.0,97.0,21.710573,21.710573,24.666473,24.666473,0.016678292,0.016627442,-4.5540166E-4,-4.6014698E-4,1095.0552,0.0,0.0,0.0,0.0,0.0,0.0,0.0,0.0,0.0,0.0,0.0,0.0,0.0,54.569824,-2.4610188,62.504547,-0.026640331,0.0025648247,0.024138598,544174.9,119984.91,0.011046739,0.014771928,7827.55,7882.251,6755.9585,6787.363,0.30492115,0.0,0.0,0.0
151.34332,151.34332,1.899,0.0,0.0,299.43283,10700.0,100.0,0.0,-0.08065092,0.0,8.0,1.0,0.0,4000000.0,110.0,1.0,0.0,0.0,10.0,0.0,0.0,641.2454,-3.2606382,-56.15737,0.022320956,0.3389904,0.22922003,304.21753,304.23926,299.2757,299.29935,368.0,368.0,432.0,428.0,97.0,97.0,97.0,97.0,0.0,0.0,0.0,0.0,0.049267385,0.04904496,0.05357487,0.05377325,0.0,0.0,0.0,0.0,-1726.7119,-1763.445,91.141426,-470.8349,0.0,0.0,0.0,2.0,1.0,0.7179553,-0.0018470081,0.028095245,97.0,97.0,97.0,97.0,21.710573,21.710573,24.666473,24.666473,0.016080914,0.016083036,-4.6218323E-4,-4.6682783E-4,1097.1284,0.0,0.0,0.0,0.0,0.0,0.0,0.0,0.0,0.0,0.0,0.0,0.0,0.0,54.687756,-2.3708243,62.6246,-0.034164324,0.004517581,0.018726412,544440.8,119984.9,0.007727628,0.009289466,8247.382,8214.014,6777.954,6852.619,0.30050373,0.0,0.0,0.0
155.50635,155.50635,1.949,0.0,0.0,300.0294,10722.0,100.0,0.0,-0.03460115,0.0,8.0,1.0,0.0,4000000.0,110.0,1.0,0.0,0.0,10.0,0.0,0.0,643.983,-3.3760378,-53.022964,0.023828387,0.332985,0.19111586,304.82996,304.85034,299.881,299.90158,367.0,366.0,430.0,426.0,97.0,97.0,97.0,97.0,0.0,0.0,0.0,0.0,0.04905583,0.04886406,0.053484626,0.053677205,0.0,0.0,0.0,0.0,-1171.2535,-995.76996,172.86835,-85.85749,0.0,0.0,0.0,2.0,1.0,0.7181608,-0.0024182154,0.027594924,97.0,97.0,97.0,97.0,21.710573,21.710573,24.666473,24.666473,0.016001057,0.016020477,-4.6353726E-4,-4.6118296E-4,1100.1412,0.0,0.0,0.0,0.0,0.0,0.0,0.0,0.0,0.0,0.0,0.0,0.0,0.0,54.807686,-2.2602763,62.744038,0.0043237186,0.0035755038,-0.014300471,544815.75,119984.89,0.0061406456,0.0072753876,8268.854,8218.155,6655.209,6728.909,0.29870796,0.0,0.0,0.0
159.67714,159.67714,1.999,0.0,0.0,300.59982,10748.0,100.0,0.0,-0.07063639,0.0,8.0,1.0,0.0,4000000.0,110.0,1.0,0.0,0.0,10.0,0.0,0.0,646.7265,-3.4859679,-49.88278,0.031028032,0.31891513,-0.036618244,305.588,305.60583,300.45154,300.4732,365.0,364.0,429.0,424.0,97.0,97.0,97.0,97.0,0.0,0.0,0.0,0.0,0.0481477,0.047958422,0.053393453,0.05345826,0.0,0.0,0.0,0.0,-996.3332,-348.5664,-710.94617,-587.65845,0.0,0.0,0.0,2.0,1.0,0.7183356,-0.00348494,0.027648449,97.0,97.0,97.0,97.0,21.710573,21.710573,24.666473,24.666473,0.016587328,0.016592206,-4.5317283E-4,-4.5343346E-4,1103.7432,0.0,0.0,0.0,0.0,0.0,0.0,0.0,0.0,0.0,0.0,0.0,0.0,0.0,54.9242,-2.186793,62.855324,-0.0030304831,0.0039629866,-0.012794631,545277.25,119984.9,0.009030555,0.010628104,7772.964,7748.199,6343.3887,6334.8726,0.30185795,0.0,0.0,0.0
163.85571,163.85571,2.049,0.0,0.0,301.17188,10773.0,100.0,0.0,-0.055063322,0.0,8.0,1.0,0.0,4000000.0,110.0,1.0,0.0,0.0,10.0,0.0,0.0,649.47565,-3.597818,-46.737167,0.029354826,0.33138013,-0.15741171,306.29962,306.29108,301.02576,301.0415,364.0,363.0,427.0,423.0,97.0,97.0,97.0,97.0,0.0,0.0,0.0,0.0,0.04627996,0.04640925,0.052800696,0.052841417,0.0,0.0,0.0,0.0,1624.0371,1711.8927,367.78442,59.974174,0.0,0.0,0.0,2.0,1.0,0.71847695,-0.003524886,0.028048515,97.0,97.0,97.0,97.0,21.710573,21.710573,24.666473,24.666473,0.017124567,0.017037664,-4.578063E-4,-4.5808445E-4,1107.1772,0.0,0.0,0.0,0.0,0.0,0.0,0.0,0.0,0.0,0.0,0.0,0.0,0.0,55.03729,-2.2796125,62.964306,0.0043897144,0.0025942398,-0.0027396507,545704.44,119984.9,0.011242583,0.012770551,7419.257,7486.8145,6167.1924,6179.3047,0.30401134,0.0,0.0,0.0
168.04224,168.04224,2.099,0.0,0.0,301.7411,10792.0,100.0,0.0,-0.06753011,0.0,8.0,1.0,0.0,4000000.0,110.0,1.0,0.0,0.0,10.0,0.0,0.0,652.2305,-3.7135873,-43.586056,0.027529195,0.31774908,-0.09090153,306.8384,306.83865,301.59753,301.61557,362.0,361.0,425.0,421.0,97.0,97.0,97.0,97.0,0.0,0.0,0.0,0.0,0.046158105,0.046479244,0.052724667,0.052753903,0.0,0.0,0.0,0.0,162.46138,-196.3779,319.8802,262.70892,0.0,0.0,0.0,2.0,1.0,0.7186121,-0.0032193146,0.028773546,97.0,97.0,97.0,97.0,21.710573,21.710573,24.666473,24.666473,0.016934063,0.016880818,-4.5004004E-4,-4.5262984E-4,1109.8077,0.0,0.0,0.0,0.0,0.0,0.0,0.0,0.0,0.0,0.0,0.0,0.0,0.0,55.15039,-2.341794,63.07325,0.020216381,0.0028689238,-0.0085016545,546037.94,119984.9,0.013511556,0.014218937,7513.823,7550.863,6195.574,6208.617,0.30587864,0.0,0.0,0.0
172.23634,172.23634,2.149,0.0,0.0,302.2935,10817.0,100.0,0.0,-0.035045717,0.0,8.0,1.0,0.0,4000000.0,110.0,1.0,0.0,0.0,10.0,0.0,0.0,654.9909,-3.8334699,-40.42966,0.02401574,0.3227148,-0.23451352,307.55518,307.55182,302.1492,302.1672,360.0,359.0,424.0,420.0,97.0,97.0,97.0,97.0,0.0,0.0,0.0,0.0,0.044683,0.044918388,0.052460574,0.052599467,0.0,0.0,0.0,0.0,1679.3442,1644.3146,2168.9277,2363.0393,0.0,0.0,0.0,2.0,1.0,0.71877307,-0.0028982947,0.029963136,97.0,97.0,97.0,97.0,21.710573,21.710573,24.666473,24.666473,0.017530166,0.017464882,-4.546717E-4,-4.5298337E-4,1113.2689,0.0,0.0,0.0,0.0,0.0,0.0,0.0,0.0,0.0,0.0,0.0,0.0,0.0,55.258587,-2.4610164,63.178017,0.01757808,0.002806617,-0.010818278,546474.94,119984.9,0.013316188,0.016169218,7158.4707,7192.445,6106.25,6184.0244,0.30669403,0.0,0.0,0.0
176.43817,176.43817,2.199,0.0,0.0,302.85324,10824.0,100.0,0.0,-0.054489978,0.0,8.0,1.0,0.0,4000000.0,110.0,1.0,0.0,0.0,10.0,0.0,0.0,657.7568,-3.9568837,-37.267845,0.023939058,0.31537026,0.06897426,307.75638,307.75897,302.7043,302.71893,359.0,358.0,422.0,418.0,97.0,97.0,97.0,97.0,0.0,0.0,0.0,0.0,0.047094353,0.047055535,0.05327706,0.05345358,0.0,0.0,0.0,0.0,2196.7559,2302.1128,-1366.3306,-1379.983,0.0,0.0,0.0,2.0,1.0,0.71889335,-0.0031480114,0.029361486,97.0,97.0,97.0,97.0,21.710573,21.710573,24.666473,24.666473,0.016267294,0.016232751,-4.5257583E-4,-4.558334E-4,1114.2535,0.0,0.0,0.0,0.0,0.0,0.0,0.0,0.0,0.0,0.0,0.0,0.0,0.0,55.36922,-2.458143,63.28802,-0.02152962,0.0028643524,0.009724848,546604.56,119984.89,0.010308239,0.012776787,8032.439,8037.995,6540.0137,6618.573,0.3034668,0.0,0.0,0.0
180.64778,180.64778,2.249,0.0,0.0,303.40857,10842.0,100.0,0.0,-0.069717534,0.0,8.0,1.0,0.0,4000000.0,110.0,1.0,0.0,0.0,10.0,0.0,0.0,660.52814,-4.07875,-34.100548,0.027221754,0.31789494,0.15881416,308.24866,308.26028,303.25668,303.2761,357.0,356.0,421.0,417.0,97.0,97.0,97.0,97.0,0.0,0.0,0.0,0.0,0.048848942,0.048840087,0.053601466,0.05383015,0.0,0.0,0.0,0.0,-2365.6274,-1448.6475,406.47528,711.362,0.0,0.0,0.0,2.0,1.0,0.71903044,-0.0035661166,0.028622627,97.0,97.0,97.0,97.0,21.710573,21.710573,24.666473,24.666473,0.016046947,0.016023373,-4.568738E-4,-4.6168896E-4,1116.7311,0.0,0.0,0.0,0.0,0.0,0.0,0.0,0.0,0.0,0.0,0.0,0.0,0.0,55.48034,-2.4096708,63.397717,-0.016598834,0.0037510116,0.0051548,546910.44,119984.9,0.0057616844,0.008836458,8149.032,8147.564,6900.3843,7016.0117,0.30030727,0.0,0.0,0.0
184.86525,184.86525,2.299,0.0,0.0,303.9743,10858.0,100.0,0.0,-0.10894922,0.0,8.0,1.0,0.0,4000000.0,110.0,1.0,0.0,0.0,10.0,0.0,0.0,663.3052,-4.196583,-30.927725,0.032882452,0.32674795,0.24079256,308.7067,308.72037,303.81674,303.8396,355.0,355.0,419.0,415.0,97.0,97.0,97.0,97.0,0.0,0.0,0.0,0.0,0.049356114,0.049359784,0.05393987,0.05404517,0.0,0.0,0.0,0.0,541.2697,887.6903,-708.6798,-574.9985,0.0,0.0,0.0,2.0,1.0,0.719203,-0.003917618,0.027179599,97.0,97.0,97.0,97.0,21.710573,21.710573,24.666473,24.666473,0.015647136,0.015623168,-4.616094E-4,-4.698967E-4,1118.9581,0.0,0.0,0.0,0.0,0.0,0.0,0.0,0.0,0.0,0.0,0.0,0.0,0.0,55.59582,-2.3054292,63.509438,-0.01952786,0.004335652,0.01451714,547193.6,119984.89,2.9355136E-4,0.0031144866,8474.626,8475.289,6906.835,6950.9395,0.29434395,0.0,0.0,0.0
189.09088,189.09088,2.349,0.0,0.0,304.51743,10881.0,100.0,0.0,-0.08371154,0.0,8.0,1.0,0.0,4000000.0,110.0,1.0,0.0,0.0,10.0,0.0,0.0,666.0882,-4.3027205,-27.749311,0.03598614,0.28796,0.06637964,309.35556,309.36224,304.3699,304.40073,354.0,353.0,417.0,413.0,97.0,97.0,97.0,97.0,0.0,0.0,0.0,0.0,0.049080446,0.049134552,0.053795423,0.05389859,0.0,0.0,0.0,0.0,-3380.723,-3276.4521,-1915.5262,-1757.6514,0.0,0.0,0.0,2.0,1.0,0.71945405,-0.00406674,0.026696205,97.0,97.0,97.0,97.0,21.710573,21.710573,24.666473,24.666473,0.015773553,0.015704775,-4.4494626E-4,-4.4556457E-4,1122.135,0.0,0.0,0.0,0.0,0.0,0.0,0.0,0.0,0.0,0.0,0.0,0.0,0.0,55.71323,-2.0501802,63.615967,0.03502572,0.005084964,-0.03357366,547587.25,119984.89,0.00627705,0.006802077,8274.156,8327.111,6226.5586,6276.789,0.2980156,0.0,0.0,0.0
193.32353,193.32353,2.399,0.0,0.0,305.02512,10923.0,100.0,0.0,-0.29012313,0.0,8.0,1.0,0.0,4000000.0,110.0,1.0,0.0,0.0,10.0,0.0,0.0,668.8766,-4.411253,-24.566286,0.07113054,0.30481696,-0.6198378,310.5699,310.5752,304.86047,304.92706,352.0,351.0,416.0,412.0,97.0,97.0,97.0,97.0,0.0,0.0,0.0,0.0,0.043168325,0.043402426,0.052053977,0.052249942,0.0,0.0,0.0,0.0,2323.504,3084.1775,-1281.2106,-1011.4072,0.0,0.0,0.0,2.0,1.0,0.7198268,-0.0038061857,0.029481769,97.0,97.0,97.0,97.0,21.710573,21.710573,24.666473,24.666473,0.018338518,0.018139908,-4.3027187E-4,-4.5360666E-4,1127.9808,0.0,0.0,0.0,0.0,0.0,0.0,0.0,0.0,0.0,0.0,0.0,0.0,0.0,55.821335,-2.305456,63.70008,0.042368874,0.011813324,-0.022227261,548323.44,119984.89,0.01392198,0.016393295,6533.207,6637.859,5346.5654,5453.8765,0.30471706,0.0,0.0,0.0
197.56322,197.56322,2.449,0.0,0.0,305.552,10940.0,100.0,0.0,-0.106758505,0.0,8.0,1.0,0.0,4000000.0,110.0,1.0,0.0,0.0,10.0,0.0,0.0,671.6708,-4.5332637,-21.37904,0.06805246,0.28964564,-0.3961108,311.04932,311.05002,305.38724,305.4533,351.0,350.0,414.0,410.0,97.0,97.0,97.0,97.0,0.0,0.0,0.0,0.0,0.041359965,0.041857895,0.052095696,0.052302226,0.0,0.0,0.0,0.0,-319.7327,-536.4687,722.3322,588.7046,0.0,0.0,0.0,2.0,1.0,0.72044075,-0.0035105988,0.03203416,97.0,97.0,97.0,97.0,21.710573,21.710573,24.666473,24.666473,0.018163713,0.017975759,-4.4351688E-4,-4.3312955E-4,1130.3414,0.0,0.0,0.0,0.0,0.0,0.0,0.0,0.0,0.0,0.0,0.0,0.0,0.0,55.93798,-2.5406091,63.7836,0.028229568,0.010422216,-0.018814381,548617.06,119984.89,0.016761953,0.021178022,6616.394,6738.253,5955.541,6040.318,0.31240273,0.0,0.0,0.0
201.80975,201.80975,2.499,0.0,0.0,306.0689,10952.0,100.0,0.0,-0.038163614,0.0,8.0,1.0,0.0,4000000.0,110.0,1.0,0.0,0.0,10.0,0.0,0.0,674.4707,-4.6655793,-18.187717,0.060038194,0.30350107,-0.3304006,311.4251,311.38895,305.91888,305.9464,349.0,348.0,413.0,409.0,97.0,97.0,97.0,97.0,0.0,0.0,0.0,0.0,0.041196793,0.04177784,0.052304078,0.052395433,0.0,0.0,0.0,0.0,3244.5205,3209.3833,3151.0586,3114.3794,0.0,0.0,0.0,2.0,1.0,0.72079587,-0.0031154787,0.033008814,97.0,97.0,97.0,97.0,21.710573,21.710573,24.666473,24.666473,0.017687757,0.01750772,-4.5253258E-4,-4.429863E-4,1132.0381,0.0,0.0,0.0,0.0,0.0,0.0,0.0,0.0,0.0,0.0,0.0,0.0,0.0,56.051743,-2.7416239,63.86658,0.01495662,0.0037330412,0.0014459612,548838.56,119984.89,0.014597255,0.01986408,6986.551,7115.603,6137.7964,6171.5254,0.31115913,0.0,0.0,0.0
206.06334,206.06334,2.549,0.0,0.0,306.58896,10953.0,100.0,0.0,-0.057073507,0.0,8.0,1.0,0.0,4000000.0,110.0,1.0,0.0,0.0,10.0,0.0,0.0,677.27637,-4.8027153,-14.992035,0.05307986,0.2928313,0.23735791,311.41425,311.3941,306.4258,306.4518,348.0,347.0,411.0,407.0,97.0,97.0,97.0,97.0,0.0,0.0,0.0,0.0,0.04761451,0.04848743,0.05394257,0.054148994,0.0,0.0,0.0,0.0,2585.394,2791.1067,-981.70184,-409.11722,0.0,0.0,0.0,2.0,1.0,0.7210141,-0.0024094915,0.0311898,97.0,97.0,97.0,97.0,21.710573,21.710573,24.666473,24.666473,0.01590057,0.015749084,-4.5404767E-4,-4.5172573E-4,1132.152,0.0,0.0,0.0,0.0,0.0,0.0,0.0,0.0,0.0,0.0,0.0,0.0,0.0,56.17001,-2.7064388,63.956573,-0.048535615,0.004170334,0.053947423,548843.7,119984.9,0.008792186,0.01130869,8221.364,8378.527,7235.991,7371.433,0.30346584,0.0,0.0,0.0
210.32443,210.32443,2.599,0.0,0.0,307.1163,10960.0,100.0,0.0,-0.25317797,0.0,8.0,1.0,0.0,4000000.0,110.0,1.0,0.0,0.0,10.0,0.0,0.0,680.0881,-4.9326696,-11.79162,0.07091529,0.2908176,0.55340755,311.59097,311.59525,306.949,306.99973,346.0,345.0,410.0,406.0,97.0,97.0,97.0,97.0,0.0,0.0,0.0,0.0,0.050969068,0.051051326,0.054376632,0.054347057,0.0,0.0,0.0,0.0,-3639.623,-1003.9104,-798.118,-190.91963,0.0,0.0,0.0,2.0,1.0,0.72129273,-0.0024602425,0.028484225,97.0,97.0,97.0,97.0,21.710573,21.710573,24.666473,24.666473,0.014640415,0.014498053,-4.4649446E-4,-4.653741E-4,1133.1263,0.0,0.0,0.0,0.0,0.0,0.0,0.0,0.0,0.0,0.0,0.0,0.0,0.0,56.29337,-2.4801235,64.05245,0.0036358405,0.008953874,0.016976483,548965.2,119984.89,0.0070547583,0.0050103166,9331.607,9464.525,7199.2285,7192.5933,0.29820824,0.0,0.0,0.0
214.5928,214.5928,2.649,0.0,0.0,307.59064,10995.0,100.0,0.0,-0.22408338,0.0,8.0,1.0,0.0,4000000.0,110.0,1.0,0.0,0.0,10.0,0.0,0.0,682.9059,-5.052804,-8.58695,0.087423876,0.26096666,-0.036101807,312.62607,312.59628,307.41818,307.50043,344.0,344.0,408.0,404.0,97.0,97.0,97.0,97.0,0.0,0.0,0.0,0.0,0.047951724,0.048408557,0.05364539,0.053763572,0.0,0.0,0.0,0.0,-762.17645,-338.92386,-389.30914,-47.542187,0.0,0.0,0.0,2.0,1.0,0.7219286,-0.0017031196,0.029761791,97.0,97.0,97.0,97.0,21.710573,21.710573,24.666473,24.666473,0.016409667,0.016067386,-4.305243E-4,-4.3363846E-4,1138.019,0.0,0.0,0.0,0.0,0.0,0.0,0.0,0.0,0.0,0.0,0.0,0.0,0.0,56.412193,-2.3853788,64.12708,0.0316844,0.013598083,-0.011532291,549580.5,119984.9,0.011796563,0.012247424,7679.0186,7960.616,6557.1514,6632.256,0.303689,0.0,0.0,0.0
218.86761,218.86761,2.699,0.0,0.0,308.07333,11019.0,100.0,0.0,-0.2291977,0.0,8.0,1.0,0.0,4000000.0,110.0,1.0,0.0,0.0,10.0,0.0,0.0,685.7296,-5.177166,-5.3789387,0.10854583,0.2842547,-0.22274901,313.32828,313.25745,307.8905,307.98035,343.0,342.0,407.0,403.0,97.0,97.0,97.0,97.0,0.0,0.0,0.0,0.0,0.044710904,0.045720708,0.05281084,0.053292006,0.0,0.0,0.0,0.0,2067.1782,3124.7732,486.29788,1322.0205,0.0,0.0,0.0,2.0,1.0,0.72267777,6.6338456E-4,0.030792236,97.0,97.0,97.0,97.0,21.710573,21.710573,24.666473,24.666473,0.017339794,0.016791597,-4.4032445E-4,-4.441613E-4,1140.705,0.0,0.0,0.0,0.0,0.0,0.0,0.0,0.0,0.0,0.0,0.0,0.0,0.0,56.53478,-2.5552483,64.191345,0.019259842,0.01436604,0.026071638,549677.75,119984.89,0.012601528,0.01603523,7121.2773,7515.113,6315.6836,6637.0547,0.30644894,0.0,0.0,0.0
223.1492,223.1492,2.749,0.0,0.0,308.55728,11021.0,100.0,0.0,-0.13987134,0.0,8.0,1.0,0.0,4000000.0,110.0,1.0,0.0,0.0,10.0,0.0,0.0,688.55975,-5.304153,-2.167486,0.09564473,0.2666787,0.30962145,313.36035,313.34827,308.37378,308.444,341.0,341.0,405.0,401.0,97.0,97.0,97.0,97.0,0.0,0.0,0.0,0.0,0.050232556,0.04976228,0.054088645,0.05469198,0.0,0.0,0.0,0.0,-3175.6821,-4918.0435,-1759.1265,-2306.0825,0.0,0.0,0.0,2.0,1.0,0.7233603,4.2042285E-4,0.028905988,97.0,97.0,97.0,97.0,21.710573,21.710573,24.666473,24.666473,0.015763508,0.015534889,-4.497355E-4,-4.434054E-4,1140.9176,0.0,0.0,0.0,0.0,0.0,0.0,0.0,0.0,0.0,0.0,0.0,0.0,0.0,56.66099,-2.4806445,64.2623,-0.06642732,0.012181851,0.024204431,549680.44,119984.9,0.009224407,0.01161096,8239.701,8426.46,7311.488,7542.881,0.30252647,0.0,0.0,0.0
227.4377,227.4377,2.799,0.0,0.0,309.038,11032.0,100.0,0.0,-0.0552963,0.0,8.0,1.0,0.0,4000000.0,110.0,1.0,0.0,0.0,10.0,0.0,0.0,691.39606,-5.4238057,1.0476973,0.07493679,0.26695746,0.39530465,313.6529,313.6489,308.88177,308.9097,340.0,339.0,403.0,400.0,97.0,97.0,97.0,97.0,0.0,0.0,0.0,0.0,0.05031114,0.050095327,0.05426599,0.054714978,0.0,0.0,0.0,0.0,-820.50104,-988.67554,1024.2416,1224.8171,0.0,0.0,0.0,2.0,1.0,0.72372645,-8.0518035E-4,0.027026415,97.0,97.0,97.0,97.0,21.710573,21.710573,24.666473,24.666473,0.014970996,0.014925858,-4.5263662E-4,-4.474014E-4,1142.0798,0.0,0.0,0.0,0.0,0.0,0.0,0.0,0.0,0.0,0.0,0.0,0.0,0.0,56.781326,-2.3099415,64.34064,-0.022459645,0.0047446205,-8.4377825E-4,549691.75,119984.89,0.005373235,0.007289832,8966.718,8947.87,7346.921,7544.126,0.3016615,0.0,0.0,0.0
231.73299,231.73299,2.849,0.0,0.0,309.50433,11044.0,100.0,0.0,-0.10370231,0.0,8.0,1.0,0.0,4000000.0,110.0,1.0,0.0,0.0,10.0,0.0,0.0,694.23816,-5.5330386,4.2668295,0.06165786,0.26817095,0.6118796,313.9806,313.9802,309.34427,309.36255,338.0,338.0,402.0,398.0,97.0,97.0,97.0,97.0,0.0,0.0,0.0,0.0,0.051207166,0.051130477,0.055286445,0.055509746,0.0,0.0,0.0,0.0,-2079.2346,-1983.8954,-3877.2266,-4694.482,0.0,0.0,0.0,2.0,1.0,0.7238866,-0.0018949972,0.024335027,97.0,97.0,97.0,97.0,21.710573,21.710573,24.666473,24.666473,0.014542559,0.014496812,-4.5201887E-4,-4.5510606E-4,1143.3481,0.0,0.0,0.0,0.0,0.0,0.0,0.0,0.0,0.0,0.0,0.0,0.0,0.0,56.8956,-2.0461755,64.42153,-0.06023533,0.0036125567,0.030046642,549704.25,119984.9,0.0035593554,0.0044869906,9346.9795,9389.945,7688.839,7740.6553,0.30374908,0.0,0.0,0.0
236.03494,236.03494,2.899,0.0,0.0,309.95676,11082.0,100.0,0.0,-0.07264126,0.0,8.0,1.0,0.0,4000000.0,110.0,1.0,0.0,0.0,10.0,0.0,0.0,697.0858,-5.6321106,7.4899526,0.054681458,0.24834155,-0.3267052,315.10928,315.08273,309.806,309.83835,337.0,336.0,400.0,397.0,97.0,97.0,97.0,97.0,0.0,0.0,0.0,0.0,0.047163393,0.04754072,0.0533842,0.05365282,0.0,0.0,0.0,0.0,-5653.9624,-5308.4395,-1216.6768,95.35262,0.0,0.0,0.0,2.0,1.0,0.7241165,-0.0018689608,0.024180174,97.0,97.0,97.0,97.0,21.710573,21.710573,24.666473,24.666473,0.016678374,0.016471773,-4.388049E-4,-4.3555116E-4,1147.3679,0.0,0.0,0.0,0.0,0.0,0.0,0.0,0.0,0.0,0.0,0.0,0.0,0.0,57.000908,-2.0049205,64.49753,0.019207513,0.005262552,-0.022077836,549745.4,119984.9,0.006119116,0.007820564,7221.4663,7409.343,6051.564,6221.3975,0.30178738,0.0,0.0,0.0
240.34332,240.34332,2.949,0.0,0.0,310.44812,11094.0,100.0,0.0,0.015804466,0.0,8.0,1.0,0.0,4000000.0,110.0,1.0,0.0,0.0,10.0,0.0,0.0,699.9386,-5.735685,10.717097,0.030911162,0.28175473,-0.19268289,315.42075,315.41052,310.30927,310.31546,335.0,334.0,399.0,395.0,97.0,97.0,97.0,97.0,0.0,0.0,0.0,0.0,0.047011983,0.0476529,0.05300863,0.052933197,0.0,0.0,0.0,0.0,2185.6782,2172.1064,-1444.4097,-967.68726,0.0,0.0,0.0,2.0,1.0,0.72426164,-0.0015107525,0.024665833,97.0,97.0,97.0,97.0,21.710573,21.710573,24.666473,24.666473,0.016077766,0.016023442,-4.4777698E-4,-4.4009704E-4,1148.6357,0.0,0.0,0.0,0.0,0.0,0.0,0.0,0.0,0.0,0.0,0.0,0.0,0.0,57.103504,-2.1191447,64.58542,0.026438083,3.1678478E-4,-0.0071025426,549757.5,119984.91,0.010025423,0.0076891235,7868.529,7952.786,6051.609,6029.3564,0.2977667,0.0,0.0,0.0
244.65816,244.65816,2.999,0.0,0.0,310.89963,11127.0,100.0,0.0,-0.057223707,0.0,8.0,1.0,0.0,4000000.0,110.0,1.0,0.0,0.0,10.0,0.0,0.0,702.79626,-5.8449883,13.948633,0.025367454,0.23974994,-0.41824475,316.3748,316.37115,310.77853,310.7837,334.0,333.0,397.0,394.0,97.0,97.0,97.0,97.0,0.0,0.0,0.0,0.0,0.04575635,0.04600127,0.051819995,0.052103866,0.0,0.0,0.0,0.0,-3342.8767,-3242.884,683.7486,560.48773,0.0,0.0,0.0,2.0,1.0,0.7242613,-0.0011925756,0.02838862,97.0,97.0,97.0,97.0,21.710573,21.710573,24.666473,24.666473,0.017527215,0.017487137,-4.069408E-4,-4.1548882E-4,1152.1268,0.0,0.0,0.0,0.0,0.0,0.0,0.0,0.0,0.0,0.0,0.0,0.0,0.0,57.19367,-2.2709515,64.668,0.064388104,0.0012718954,-0.06269673,549793.0,119984.91,0.02097572,0.018543331,6782.9795,6810.4434,5466.952,5617.1245,0.30831623,0.0,0.0,0.0
248.97836,248.97836,3.049,0.0,0.0,311.34064,11152.0,100.0,0.0,0.20566331,0.0,8.0,1.0,0.0,4000000.0,110.0,1.0,0.0,0.0,10.0,0.0,0.0,705.6575,-5.973284,17.184103,-0.034432724,0.27850956,-0.55100596,317.04977,317.12628,311.23953,311.17758,332.0,331.0,396.0,392.0,97.0,97.0,97.0,97.0,0.0,0.0,0.0,0.0,0.038443882,0.03774366,0.052369382,0.051837828,0.0,0.0,0.0,0.0,7895.4443,7360.221,4397.6953,2254.088,0.0,0.0,0.0,2.0,1.0,0.723983,-0.0032925718,0.033415675,97.0,97.0,97.0,97.0,21.710573,21.710573,24.666473,24.666473,0.01856992,0.01901505,-4.4064064E-4,-4.3291875E-4,1154.7715,0.0,0.0,0.0,0.0,0.0,0.0,0.0,0.0,0.0,0.0,0.0,0.0,0.0,57.256565,-2.744071,64.75765,-0.008498052,-0.00925826,-0.058113035,549819.7,119984.9,0.017450564,0.025742805,6413.435,6147.005,6378.74,6440.7314,0.3095684,0.0,0.0,0.0
253.30481,253.30481,3.099,0.0,0.0,311.80157,11139.0,100.0,0.0,0.2622015,0.0,8.0,1.0,0.0,4000000.0,110.0,1.0,0.0,0.0,10.0,0.0,0.0,708.52216,-6.1126666,20.424814,-0.062238768,0.263835,0.06498034,316.69925,316.69742,311.68658,311.61514,331.0,330.0,394.0,391.0,97.0,97.0,97.0,97.0,0.0,0.0,0.0,0.0,0.04643776,0.045479763,0.054072876,0.053918622,0.0,0.0,0.0,0.0,-477.87503,1478.5802,2369.758,3324.383,0.0,0.0,0.0,2.0,1.0,0.7234311,-0.0040262262,0.0314641,97.0,97.0,97.0,97.0,21.710573,21.710573,24.666473,24.666473,0.0157957,0.015990188,-4.535176E-4,-4.4347227E-4,1153.396,0.0,0.0,0.0,0.0,0.0,0.0,0.0,0.0,0.0,0.0,0.0,0.0,0.0,57.323193,-2.7968197,64.86748,-0.05583213,-0.012008104,0.043176617,549805.7,119984.91,0.0063902396,0.013053581,8093.4976,7965.2417,7386.2783,7378.7227,0.30317307,0.0,0.0,0.0
257.6318,257.6318,3.149,0.0,0.0,311.01096,11117.0,100.0,0.0,-0.09618288,0.0,8.0,1.0,0.0,4000000.0,110.0,1.0,0.0,0.0,10.0,0.0,0.0,711.3859,-6.2392154,23.667042,-0.057979494,-0.78810394,1.6834112,316.10413,316.0641,311.13147,311.14258,329.0,329.0,393.0,389.0,97.0,97.0,97.0,97.0,0.0,0.0,0.0,0.0,0.049791023,0.05053024,0.052675996,0.053006038,0.0,0.0,0.0,0.0,-13734.424,-14000.714,-2775.8853,-1370.3674,0.0,0.0,0.0,2.0,1.0,0.72326577,-0.0033275357,0.026427865,97.0,97.0,97.0,97.0,21.710573,21.710573,24.666473,24.666473,0.015731493,0.015523398,-3.3917304E-4,-3.9318556E-4,1151.0701,0.0,0.0,0.0,0.0,0.0,0.0,0.0,0.0,0.0,0.0,0.0,0.0,0.0,57.162865,-2.1486943,64.740685,-0.0017746817,-7.2713726E-4,0.046894435,549782.8,119984.9,0.0023958888,0.001470094,8461.533,8660.007,5328.9917,5542.3003,0.29365158,0.0,0.0,0.0
261.952,261.952,3.199,0.0,0.0,311.14746,11127.0,100.0,0.0,0.041025247,0.0,8.0,1.0,0.0,4000000.0,110.0,1.0,0.0,0.0,10.0,0.0,0.0,714.2446,-6.3468843,26.90466,-0.007770464,0.12969421,-0.28067264,316.4048,316.34842,311.01657,311.01062,328.0,327.0,391.0,388.0,97.0,97.0,97.0,97.0,0.0,0.0,0.0,0.0,0.047520913,0.047606494,0.05230396,0.051827703,0.0,0.0,0.0,0.0,-6937.278,-6016.207,-5504.7773,-3132.0017,0.0,0.0,0.0,2.0,1.0,0.72327816,-0.0028078267,0.027098298,97.0,97.0,97.0,97.0,21.710573,21.710573,24.666473,24.666473,0.016815709,0.016673425,-4.3499446E-4,-4.2212752E-4,1152.1274,0.0,0.0,0.0,0.0,0.0,0.0,0.0,0.0,0.0,0.0,0.0,0.0,0.0,57.185707,-2.177229,64.770164,0.046526186,-0.0023461804,-0.0070061814,549793.3,119984.9,0.009811813,0.010395083,7266.832,7390.086,5488.683,5282.0713,0.29257584,0.0,0.0,0.0
266.27637,266.27637,3.249,0.0,0.0,311.608,11146.0,100.0,0.0,0.071152695,0.0,8.0,1.0,0.0,4000000.0,110.0,1.0,0.0,0.0,10.0,0.0,0.0,717.106,-6.4645524,30.145525,-0.009982124,0.26868695,-0.2555887,316.94937,316.8938,311.4882,311.47092,326.0,326.0,390.0,386.0,97.0,97.0,97.0,97.0,0.0,0.0,0.0,0.0,0.04366721,0.044394232,0.05272257,0.052729,0.0,0.0,0.0,0.0,4570.47,4267.26,5343.469,5551.85,0.0,0.0,0.0,2.0,1.0,0.72317195,-0.0015785333,0.030717015,97.0,97.0,97.0,97.0,21.710573,21.710573,24.666473,24.666473,0.017255945,0.017108444,-4.3304983E-4,-4.2579797E-4,1154.1377,0.0,0.0,0.0,0.0,0.0,0.0,0.0,0.0,0.0,0.0,0.0,0.0,0.0,57.26328,-2.4631083,64.86215,0.04410492,-0.0036915536,-0.024031807,549813.75,119984.91,0.0128905,0.01651912,7127.8604,7268.539,6859.1553,6846.9863,0.29841995,0.0,0.0,0.0
270.6067,270.6067,3.299,0.0,0.0,312.03345,11164.0,100.0,0.0,0.15016711,0.0,8.0,1.0,0.0,4000000.0,110.0,1.0,0.0,0.0,10.0,0.0,0.0,719.971,-6.592183,33.3911,-0.03508754,0.23470308,-0.30011076,317.42502,317.42383,311.924,311.8851,325.0,324.0,388.0,385.0,97.0,97.0,97.0,97.0,0.0,0.0,0.0,0.0,0.043470975,0.043672565,0.052822236,0.052733332,0.0,0.0,0.0,0.0,-358.3431,-316.2459,1536.7178,1720.154,0.0,0.0,0.0,2.0,1.0,0.7229185,-0.0014355071,0.03302431,97.0,97.0,97.0,97.0,21.710573,21.710573,24.666473,24.666473,0.017243609,0.017345596,-4.2389866E-4,-4.1406174E-4,1156.041,0.0,0.0,0.0,0.0,0.0,0.0,0.0,0.0,0.0,0.0,0.0,0.0,0.0,57.328724,-2.6318636,64.95546,0.021589726,-0.007013502,-0.019968672,549832.5,119984.9,0.017555753,0.021942876,7029.2617,6977.2417,6419.5615,6383.8374,0.31632423,0.0,0.0,0.0
274.9425,274.9425,3.349,0.0,0.0,312.44696,11161.0,100.0,0.0,0.12580542,0.0,8.0,1.0,0.0,4000000.0,110.0,1.0,0.0,0.0,10.0,0.0,0.0,722.83887,-6.7263813,36.641468,-0.053304806,0.23612861,0.09060542,317.33728,317.32883,312.3258,312.26776,323.0,323.0,387.0,383.0,97.0,97.0,97.0,97.0,0.0,0.0,0.0,0.0,0.04637787,0.045967877,0.05412812,0.054030377,0.0,0.0,0.0,0.0,6371.064,6390.188,-248.74808,-296.66574,0.0,0.0,0.0,2.0,1.0,0.72246176,-0.0018191244,0.030608535,97.0,97.0,97.0,97.0,21.710573,21.710573,24.666473,24.666473,0.015731635,0.015869746,-4.3134726E-4,-4.335672E-4,1155.724,0.0,0.0,0.0,0.0,0.0,0.0,0.0,0.0,0.0,0.0,0.0,0.0,0.0,57.38523,-2.686051,65.05665,-0.081895635,-0.00914862,0.055039912,549829.5,119984.9,0.012911594,0.017431041,8170.994,8068.6006,7315.3994,7268.706,0.3152504,0.0,0.0,0.0
279.28445,279.28445,3.399,0.0,0.0,312.9051,11158.0,100.0,0.0,0.18321231,0.0,8.0,1.0,0.0,4000000.0,110.0,1.0,0.0,0.0,10.0,0.0,0.0,725.7098,-6.8581176,39.897327,-0.07354876,0.27863088,0.7835755,317.2064,317.22296,312.7827,312.72357,322.0,321.0,386.0,382.0,97.0,97.0,97.0,97.0,0.0,0.0,0.0,0.0,0.0526724,0.052391075,0.054774884,0.05483591,0.0,0.0,0.0,0.0,-6725.518,-7505.115,493.59338,539.72736,0.0,0.0,0.0,2.0,1.0,0.72202116,-0.0025002826,0.02629733,97.0,97.0,97.0,97.0,21.710573,21.710573,24.666473,24.666473,0.01381847,0.014052301,-4.6302582E-4,-4.6211432E-4,1155.4055,0.0,0.0,0.0,0.0,0.0,0.0,0.0,0.0,0.0,0.0,0.0,0.0,0.0,57.449245,-2.506724,65.17709,-0.050026976,-0.009421065,0.022922201,549825.75,119984.91,0.005306253,0.0029776022,10022.057,9719.219,7802.8584,7847.198,0.3008995,0.0,0.0,0.0
283.63306,283.63306,3.449,0.0,0.0,313.322,11185.0,100.0,0.0,0.27191868,0.0,8.0,1.0,0.0,4000000.0,110.0,1.0,0.0,0.0,10.0,0.0,0.0,728.5838,-6.9733167,43.15934,-0.09264237,0.22850102,0.42981085,317.9797,318.0196,313.2188,313.14584,321.0,320.0,384.0,380.0,97.0,97.0,97.0,97.0,0.0,0.0,0.0,0.0,0.05015342,0.049597465,0.05526207,0.055303708,0.0,0.0,0.0,0.0,384.89682,456.53867,1120.0366,563.07605,0.0,0.0,0.0,2.0,1.0,0.7215041,-0.0035986255,0.026183724,97.0,97.0,97.0,97.0,21.710573,21.710573,24.666473,24.666473,0.014700994,0.015032826,-4.4465798E-4,-4.3400892E-4,1158.2623,0.0,0.0,0.0,0.0,0.0,0.0,0.0,0.0,0.0,0.0,0.0,0.0,0.0,57.502968,-2.180616,65.29587,-0.01496143,-0.011990694,-0.020055525,549854.7,119984.914,0.0016839724,0.0042096353,8995.878,8668.077,7893.629,7894.9326,0.2951641,0.0,0.0,0.0
287.98758,287.98758,3.499,0.0,0.0,313.7467,11209.0,100.0,0.0,0.14535442,0.0,8.0,1.0,0.0,4000000.0,110.0,1.0,0.0,0.0,10.0,0.0,0.0,731.4601,-7.081568,46.427254,-0.08808362,0.24315038,-0.15741007,318.68103,318.71115,313.653,313.57758,319.0,318.0,383.0,379.0,97.0,97.0,97.0,97.0,0.0,0.0,0.0,0.0,0.048758026,0.04825403,0.05372177,0.053548016,0.0,0.0,0.0,0.0,-591.07825,-271.25174,234.38483,214.6305,0.0,0.0,0.0,2.0,1.0,0.72082853,-0.0047960477,0.026436567,97.0,97.0,97.0,97.0,21.710573,21.710573,24.666473,24.666473,0.015555451,0.015861403,-4.25182E-4,-4.340468E-4,1160.8021,0.0,0.0,0.0,0.0,0.0,0.0,0.0,0.0,0.0,0.0,0.0,0.0,0.0,57.547066,-2.1881876,65.41402,0.018083956,-0.012040335,-0.035834324,549880.5,119984.91,0.007973208,0.007431671,8160.0054,7869.1094,6355.628,6257.1865,0.29808807,0.0,0.0,0.0
292.34778,292.34778,3.549,0.0,0.0,314.16135,11236.0,100.0,0.0,0.08785332,0.0,8.0,1.0,0.0,4000000.0,110.0,1.0,0.0,0.0,10.0,0.0,0.0,734.3385,-7.1959343,49.70085,-0.072736576,0.23828346,-0.430094,319.46863,319.46982,314.05197,314.01074,318.0,317.0,381.0,378.0,97.0,97.0,97.0,97.0,0.0,0.0,0.0,0.0,0.04621941,0.045569453,0.053078037,0.05266491,0.0,0.0,0.0,0.0,-668.7551,859.4064,202.6409,1847.1299,0.0,0.0,0.0,2.0,1.0,0.7203885,-0.004659052,0.028724313,97.0,97.0,97.0,97.0,21.710573,21.710573,24.666473,24.666473,0.016886026,0.016998293,-4.2044692E-4,-4.2734534E-4,1163.6589,0.0,0.0,0.0,0.0,0.0,0.0,0.0,0.0,0.0,0.0,0.0,0.0,0.0,57.589447,-2.387638,65.52322,0.040321264,-0.0071951696,-0.012862158,549909.2,119984.91,0.011156372,0.013902098,7178.1484,7106.6675,6297.5137,6158.1475,0.30168915,0.0,0.0,0.0
296.71365,296.71365,3.599,0.0,0.0,314.58698,11241.0,100.0,0.0,0.11327376,0.0,8.0,1.0,0.0,4000000.0,110.0,1.0,0.0,0.0,10.0,0.0,0.0,737.21924,-7.3194704,52.97989,-0.068912774,0.24003257,-0.19455586,319.59647,319.6263,314.46692,314.4355,316.0,315.0,380.0,376.0,97.0,97.0,97.0,97.0,0.0,0.0,0.0,0.0,0.04645439,0.046058193,0.05334675,0.05321854,0.0,0.0,0.0,0.0,2475.169,2358.2112,329.9385,-803.32153,0.0,0.0,0.0,2.0,1.0,0.7201159,-0.0048280605,0.029525757,97.0,97.0,97.0,97.0,21.710573,21.710573,24.666473,24.666473,0.015968625,0.016130796,-4.3063334E-4,-4.2803443E-4,1164.1885,0.0,0.0,0.0,0.0,0.0,0.0,0.0,0.0,0.0,0.0,0.0,0.0,0.0,57.638622,-2.5259206,65.63226,-0.008767389,-0.0047648335,-0.016863802,549914.75,119984.89,0.010420717,0.013183731,7840.388,7741.757,6646.1855,6541.8745,0.303092,0.0,0.0,0.0
