LapDistance [m],TotalDistance [m],LapTime [s],Sector1Time [s],Sector2Time [s],Speed [km/h],EngineRevs [rpm],ThrottlePercentage [%],BrakePercentage [%],Steer [%],Clutch [%],Gear [int],DRS [0/1],CanUseDRS [0/1],KERSLevel [J],EngineTemperature [C],RacePosition [int],Sector [int],InPits [int],FuelRemaining [kg],CurrentFlag [int],CurrentLapInvalid [int],X [m],Y [m],Z [m],GForceLatitudinal [G],GForceLongitudinal [G],GForceVertical [G],WheelSpeedRearLeft [km/h],WheelSpeedRearRight [km/h],WheelSpeedFrontLeft [km/h],WheelSpeedFrontRight [km/h],BrakeTemperatureRearLeft [C],BrakeTemperatureRearRight [C],BrakeTemperatureFrontLeft [C],BrakeTemperatureFrontRight [C],TyreTemperatureRearLeft [C],TyreTemperatureRearRight [C],TyreTemperatureFrontLeft [C],TyreTemperatureFrontRight [C],TyreWearRearLeft [%],TyreWearRearRight [%],TyreWearFrontLeft [%],TyreWearFrontRight [%],SuspensionPositionRearLeft [m],SuspensionPositionRearRight [m],SuspensionPositionFrontLeft [m],SuspensionPositionFrontRight [m],SuspensionVelocityRearLeft [m/s],SuspensionVelocityRearRight [m/s],SuspensionVelocityFrontLeft [m/s],SuspensionVelocityFrontRight [m/s],SuspensionAccelerationRearLeft [m/s^2],SuspensionAccelerationRearRight [m/s^2],SuspensionAccelerationFrontLeft [m/s^2],SuspensionAccelerationFrontRight [m/s^2],MGUKHarvested [J],MGUHHarvested [J],ERSSpent [J],ERSMode [int],FuelMixMode [int],Yaw [rad],Roll [rad],Pitch [rad],TyreCarcassTemperatureRearLeft [C],TyreCarcassTemperatureRearRight [C],TyreCarcassTemperatureFrontLeft [C],TyreCarcassTemperatureFrontRight [C],TyrePressureRearLeft [PSI],TyrePressureRearRight [PSI],TyrePressureFrontLeft [PSI],TyrePressureFrontRight [PSI],WheelSlipRearLeft [%],WheelSlipRearRight [%],WheelSlipFrontLeft [%],WheelSlipFrontRight [%],Torque [Nm],Handbrake [%],RearLeftInside [C],RearLeftMiddle [C],RearLeftOutside [C],RearRightInside [C],RearRightMiddle [C],RearRightOutside [C],FrontLeftInside [C],FrontLeftMiddle [C],FrontLeftOutside [C],FrontRightInside [C],FrontRightMiddle [C],FrontRightOutside [C],WoldSpeedX [km/h],WoldSpeedY [km/h],WoldSpeedZ [km/h],LocalAngularVelocityX [rad/s],LocalAngularVelocityY [rad/s],LocalAngularVelocityZ [rad/s],IcePower [W],MgukPower [W],FrontRideHeight [m],RearRideHeight [m],LoadRearLeft [N],LoadRearRight [N],LoadFrontLeft [N],LoadFrontRight [N],Extra1 [m],Extra2 [],Extra3 [],Extra4 []
1.9174787,1.9174787,0.016,0.0,0.0,311.60538,11138.0,100.0,0.0,-2.5930593,0.0,8.0,0.0,0.0,4000000.0,110.0,1.0,0.0,0.0,10.0,0.0,0.0,375.25555,35.305405,873.3485,1.8377987,0.1115101,0.09385942,316.70374,316.64148,310.8457,311.91202,235.0,235.0,303.0,306.0,89.0,89.0,89.0,89.0,0.0,0.0,0.0,0.0,0.049787644,0.054141417,0.05065744,0.05686386,6.971731,1.1178105,11.226385,4.3612714,-632.7464,-720.6424,-15.771387,-104.31112,0.0,0.0,0.0,2.0,1.0,2.3271542,-0.006088797,-0.002730608,89.0,89.0,89.0,89.0,22.047926,22.047926,24.919281,24.919281,0.018004468,0.014922115,-3.9810856E-4,-3.9604795E-4,1153.2914,0.0,0.0,0.0,0.0,0.0,0.0,0.0,0.0,0.0,0.0,0.0,0.0,0.0,63.97695,0.13342455,-58.301407,-0.013401855,0.1780074,0.004904099,549805.2,119984.9,0.006810528,0.0035207546,7582.695,10842.104,5540.8726,8318.545,0.29743767,0.0,0.0,0.0
6.2214427,6.2214427,0.066,0.0,0.0,311.74442,11145.0,100.0,0.0,-2.3897474,0.0,8.0,0.0,0.0,4000000.0,110.0,1.0,0.0,0.0,10.0,0.0,0.0,378.43973,35.31281,870.4159,1.6847901,0.1107558,-0.0053531914,316.91904,316.81985,311.06503,312.00342,233.0,234.0,302.0,305.0,89.0,89.0,89.0,89.0,0.0,0.0,0.0,0.0,0.049514636,0.053559396,0.050972626,0.056698635,-12.718811,-12.318938,3.1113622,-6.4936275,-653.0776,116.55538,-176.03337,-180.74062,0.0,0.0,0.0,2.0,1.0,2.335455,-0.006797518,-0.0023634434,89.0,89.0,89.0,89.0,22.047926,22.047926,24.919281,24.919281,0.018028883,0.015178764,-3.8823608E-4,-4.036089E-4,1154.0315,0.0,0.0,0.0,0.0,0.0,0.0,0.0,0.0,0.0,0.0,0.0,0.0,0.0,63.428036,0.15047681,-58.954826,-0.014275264,0.15708496,0.007343532,549812.5,119984.9,0.00705279,0.0043776133,7506.3184,10468.03,5596.57,8142.3296,0.2979517,0.0,0.0,0.0
10.53162,10.53162,0.116,0.0,0.0,311.9009,11150.0,100.0,0.0,-2.4803252,0.0,8.0,0.0,0.0,4000000.0,110.0,1.0,0.0,0.0,10.0,0.0,0.0,381.5976,35.319527,867.45197,1.5747511,0.116443455,-0.059243508,317.0535,316.98523,311.24896,312.14725,232.0,233.0,301.0,303.0,89.0,89.0,89.0,89.0,0.0,0.0,0.0,0.0,0.049544644,0.053286,0.05100369,0.05628673,4.4039636,-0.7780641,0.77404076,-6.4744053,192.16685,274.6984,35.0967,141.47311,0.0,0.0,0.0,2.0,1.0,2.3431091,-0.007418288,-0.002308607,89.0,89.0,89.0,89.0,22.047926,22.047926,24.919281,24.919281,0.01790191,0.015229619,-3.757496E-4,-4.1716397E-4,1154.561,0.0,0.0,0.0,0.0,0.0,0.0,0.0,0.0,0.0,0.0,0.0,0.0,0.0,62.919724,0.11816645,-59.560352,-0.006554608,0.15184523,0.0063850684,549818.1,119984.91,0.00753885,0.004712532,7546.9346,10298.944,5551.9326,7906.536,0.29838848,0.0,0.0,0.0
14.847531,14.847531,0.166,0.0,0.0,312.06686,11155.0,100.0,0.0,-2.7054749,0.0,8.0,0.0,0.0,4000000.0,110.0,1.0,0.0,0.0,10.0,0.0,0.0,384.73068,35.32484,864.45856,1.5266839,0.11719638,-0.0066320067,317.1411,317.15155,311.38916,312.3427,231.0,232.0,300.0,302.0,89.0,89.0,89.0,89.0,0.0,0.0,0.0,0.0,0.04980228,0.05346286,0.05112737,0.05623339,4.278123,3.3471732,2.9191372,1.0060518,-69.938614,-58.901306,17.005203,101.307014,0.0,0.0,0.0,2.0,1.0,2.3509436,-0.0076557957,-0.0022585392,89.0,89.0,89.0,89.0,22.047926,22.047926,24.919281,24.919281,0.01772532,0.015106861,-3.659889E-4,-4.2796394E-4,1155.0887,0.0,0.0,0.0,0.0,0.0,0.0,0.0,0.0,0.0,0.0,0.0,0.0,0.0,62.431065,0.10002913,-60.138863,-0.0033740643,0.1625073,4.210187E-4,549822.9,119984.9,0.007205714,0.004207298,7693.5654,10365.277,5662.2964,7954.566,0.2979889,0.0,0.0,0.0
19.168703,19.168703,0.216,0.0,0.0,312.2322,11161.0,100.0,0.0,-2.720394,0.0,8.0,0.0,0.0,4000000.0,110.0,1.0,0.0,0.0,10.0,0.0,0.0,387.83942,35.329853,861.4367,1.5101299,0.1151337,0.008963947,317.26852,317.3369,311.527,312.5395,230.0,231.0,299.0,301.0,89.0,89.0,89.0,89.0,0.0,0.0,0.0,0.0,0.049870387,0.05348241,0.051245406,0.05628619,-1.3026594,-1.425594,0.983253,0.22798775,-136.44395,-75.22254,-81.31116,-39.8308,0.0,0.0,0.0,2.0,1.0,2.3593519,-0.007754427,-0.0021189451,89.0,89.0,89.0,89.0,22.047926,22.047926,24.919281,24.919281,0.01766738,0.015064735,-3.7090003E-4,-4.2094066E-4,1155.7224,0.0,0.0,0.0,0.0,0.0,0.0,0.0,0.0,0.0,0.0,0.0,0.0,0.0,61.94616,0.10037055,-60.703865,-0.0031213607,0.17212056,-0.0018349217,549828.75,119984.9,0.0070395474,0.004079225,7738.224,10382.402,5716.076,7981.7646,0.29784393,0.0,0.0,0.0
23.494896,23.494896,0.266,0.0,0.0,312.39474,11167.0,100.0,0.0,-2.625283,0.0,8.0,0.0,0.0,4000000.0,110.0,1.0,0.0,0.0,10.0,0.0,0.0,390.92383,35.33466,858.3868,1.5069714,0.11420655,-0.02192872,317.4485,317.5184,311.6859,312.70847,229.0,230.0,298.0,300.0,89.0,89.0,89.0,89.0,0.0,0.0,0.0,0.0,0.049758486,0.053378824,0.051216573,0.056253474,-2.106875,-1.985952,-1.169443,-1.0138749,33.90312,21.96729,-15.717739,-11.61396,0.0,0.0,0.0,2.0,1.0,2.36802,-0.0077622873,-0.0019578934,89.0,89.0,89.0,89.0,22.047926,22.047926,24.919281,24.919281,0.017727917,0.01511245,-3.7735078E-4,-4.118629E-4,1156.3579,0.0,0.0,0.0,0.0,0.0,0.0,0.0,0.0,0.0,0.0,0.0,0.0,0.0,61.45772,0.08949259,-61.2623,-0.002247783,0.1731175,-0.0018631181,549835.5,119984.9,0.0072201975,0.0043346165,7681.638,10325.879,5675.066,7942.32,0.29804707,0.0,0.0,0.0
27.825861,27.825861,0.316,0.0,0.0,312.55795,11172.0,100.0,0.0,-2.4570289,0.0,8.0,0.0,0.0,4000000.0,110.0,1.0,0.0,0.0,10.0,0.0,0.0,393.9838,35.33866,855.309,1.4906659,0.11510724,-0.020309879,317.6134,317.66617,311.8695,312.85635,228.0,228.0,296.0,299.0,89.0,89.0,89.0,89.0,0.0,0.0,0.0,0.0,0.049811088,0.053376388,0.051218677,0.056224782,2.6366112,0.6716698,0.8974224,-0.5538761,93.20675,34.640724,59.947365,-14.980135,0.0,0.0,0.0,2.0,1.0,2.376532,-0.0078401435,-0.001842022,89.0,89.0,89.0,89.0,22.047926,22.047926,24.919281,24.919281,0.017672263,0.015119498,-3.8641266E-4,-4.0673238E-4,1156.8881,0.0,0.0,0.0,0.0,0.0,0.0,0.0,0.0,0.0,0.0,0.0,0.0,0.0,60.967976,0.07226247,-61.813435,-0.0039016823,0.16632445,0.0012559835,549841.4,119984.9,0.0071677966,0.004263642,7705.385,10327.255,5690.5093,7939.252,0.2979889,0.0,0.0,0.0
32.161224,32.161224,0.366,0.0,0.0,312.7238,11177.0,100.0,0.0,-2.3159032,0.0,8.0,0.0,0.0,4000000.0,110.0,1.0,0.0,0.0,10.0,0.0,0.0,397.0194,35.34204,852.20404,1.4539635,0.11547482,0.0025898232,317.76926,317.79855,312.07108,312.9938,227.0,227.0,295.0,298.0,89.0,89.0,89.0,89.0,0.0,0.0,0.0,0.0,0.049969677,0.05342585,0.05133432,0.056199357,1.953542,-0.19155441,1.6415118,-1.0348855,-150.37802,-162.15291,-97.417816,-64.41324,0.0,0.0,0.0,2.0,1.0,2.3845606,-0.00804791,-0.0017507076,89.0,89.0,89.0,89.0,22.047926,22.047926,24.919281,24.919281,0.01752912,0.015095724,-3.8913568E-4,-4.0770523E-4,1157.4172,0.0,0.0,0.0,0.0,0.0,0.0,0.0,0.0,0.0,0.0,0.0,0.0,0.0,60.48493,0.06513497,-62.350376,-0.004981689,0.15523948,0.0018193354,549846.8,119984.91,0.0070572803,0.0040561734,7790.4014,10345.555,5753.8354,7937.3765,0.29783344,0.0,0.0,0.0
36.500668,36.500668,0.416,0.0,0.0,312.893,11182.0,100.0,0.0,-2.18415,0.0,8.0,0.0,0.0,4000000.0,110.0,1.0,0.0,0.0,10.0,0.0,0.0,400.0312,35.3451,849.07275,1.394542,0.11749846,3.890763E-4,317.88126,317.96588,312.27524,313.13696,226.0,226.0,294.0,297.0,89.0,89.0,89.0,89.0,0.0,0.0,0.0,0.0,0.05012411,0.05329865,0.051433723,0.05611316,9.959712,-2.4888663,2.5214999,-1.707673,677.49915,41.62788,41.74858,-0.308454,0.0,0.0,0.0,2.0,1.0,2.3920436,-0.008285997,-0.0015991926,89.0,89.0,89.0,89.0,22.047926,22.047926,24.919281,24.919281,0.017356193,0.015156424,-3.9076502E-4,-4.1074795E-4,1157.946,0.0,0.0,0.0,0.0,0.0,0.0,0.0,0.0,0.0,0.0,0.0,0.0,0.0,60.01647,0.058085296,-62.866436,-0.004767242,0.14499055,1.2867525E-4,549852.06,119984.91,0.007015857,0.003693787,7926.1865,10265.192,5804.7227,7898.398,0.29790115,0.0,0.0,0.0
40.844227,40.844227,0.466,0.0,0.0,313.06586,11189.0,100.0,0.0,-1.9475259,0.0,8.0,0.0,0.0,4000000.0,110.0,1.0,0.0,0.0,10.0,0.0,0.0,403.02008,35.34762,845.91644,1.3119648,0.11744386,-0.024955291,318.13385,318.11777,312.4945,313.27988,225.0,225.0,293.0,295.0,89.0,89.0,89.0,89.0,0.0,0.0,0.0,0.0,0.05006705,0.053161934,0.051533476,0.055973064,6.3090024,-3.2313912,3.9189305,-4.949346,500.41968,-77.395134,116.99793,-113.88659,0.0,0.0,0.0,2.0,1.0,2.3989522,-0.008695655,-0.0014971495,89.0,89.0,89.0,89.0,22.047926,22.047926,24.919281,24.919281,0.017367475,0.015195047,-3.9733827E-4,-4.044228E-4,1158.6869,0.0,0.0,0.0,0.0,0.0,0.0,0.0,0.0,0.0,0.0,0.0,0.0,0.0,59.57117,0.042026285,-63.354492,-0.009471015,0.1313685,0.009458049,549859.6,119984.9,0.007134871,0.0042320886,7869.0737,10174.125,5840.7344,7810.036,0.2979622,0.0,0.0,0.0
45.192177,45.192177,0.516,0.0,0.0,313.24918,11195.0,100.0,0.0,-1.7115254,0.0,8.0,0.0,0.0,4000000.0,110.0,1.0,0.0,0.0,10.0,0.0,0.0,405.98764,35.3494,842.7365,1.2096871,0.11995435,-0.00281872,318.3003,318.2683,312.73477,313.42194,224.0,224.0,292.0,294.0,89.0,89.0,89.0,89.0,0.0,0.0,0.0,0.0,0.050303895,0.053122524,0.051750805,0.055797543,4.0313597,-1.341775,4.295781,-2.5845318,-25.346888,-65.58,5.793571,23.737549,0.0,0.0,0.0,2.0,1.0,2.4050746,-0.009242357,-0.0014435053,89.0,89.0,89.0,89.0,22.047926,22.047926,24.919281,24.919281,0.017151125,0.015208926,-4.0258555E-4,-4.0581086E-4,1159.3208,0.0,0.0,0.0,0.0,0.0,0.0,0.0,0.0,0.0,0.0,0.0,0.0,0.0,59.15942,0.031763557,-63.808613,-0.007609485,0.11454614,0.0061641913,549865.56,119984.914,0.006938722,0.003959497,8013.3027,10125.3545,5953.683,7755.6045,0.29773712,0.0,0.0,0.0
49.54362,49.54362,0.566,0.0,0.0,313.43918,11201.0,100.0,0.0,-1.5108913,0.0,8.0,0.0,0.0,4000000.0,110.0,1.0,0.0,0.0,10.0,0.0,0.0,408.9356,35.350964,839.5349,1.0955142,0.120666385,0.0016776999,318.48898,318.43915,312.97787,313.5749,223.0,223.0,291.0,293.0,89.0,89.0,89.0,89.0,0.0,0.0,0.0,0.0,0.050434813,0.053019,0.0519675,0.055651467,0.6475299,-4.098862,3.582984,-3.4955888,-109.072014,-113.48425,-48.132244,9.11951,0.0,0.0,0.0,2.0,1.0,2.4103775,-0.009768163,-0.0013498068,89.0,89.0,89.0,89.0,22.047926,22.047926,24.919281,24.919281,0.016996307,0.015246664,-4.0344696E-4,-4.0746428E-4,1159.9563,0.0,0.0,0.0,0.0,0.0,0.0,0.0,0.0,0.0,0.0,0.0,0.0,0.0,58.78602,0.029940186,-64.22436,-0.009236916,0.0993861,0.006677057,549872.3,119984.91,0.006910703,0.003947658,8115.4385,10036.702,6048.4424,7686.9365,0.2977581,0.0,0.0,0.0
53.898308,53.898308,0.616,0.0,0.0,313.63574,11208.0,100.0,0.0,-1.2983444,0.0,8.0,0.0,0.0,4000000.0,110.0,1.0,0.0,0.0,10.0,0.0,0.0,411.866,35.352226,836.31354,0.97339284,0.122366756,-0.0143359285,318.68607,318.62915,313.22275,313.73804,222.0,222.0,290.0,292.0,89.0,89.0,89.0,89.0,0.0,0.0,0.0,0.0,0.050559822,0.052831247,0.05215223,0.055426948,3.0161438,-2.3876128,3.4450738,-4.9397345,32.320618,111.59331,-5.806975,-0.6437301,0.0,0.0,0.0,2.0,1.0,2.4149718,-0.010367356,-0.0012868643,89.0,89.0,89.0,89.0,22.047926,22.047926,24.919281,24.919281,0.016866583,0.015320948,-4.0570434E-4,-4.0591392E-4,1160.6965,0.0,0.0,0.0,0.0,0.0,0.0,0.0,0.0,0.0,0.0,0.0,0.0,0.0,58.45491,0.019984478,-64.599525,-0.008761474,0.08550051,0.00852628,549879.56,119984.9,0.0070038806,0.004021868,8205.262,9909.996,6120.545,7568.9976,0.29781914,0.0,0.0,0.0
58.256157,58.256157,0.666,0.0,0.0,313.83945,11215.0,100.0,0.0,-1.0614827,0.0,8.0,0.0,0.0,4000000.0,110.0,1.0,0.0,0.0,10.0,0.0,0.0,414.781,35.352936,833.0745,0.8501822,0.123811245,-0.0074923267,318.87988,318.82,313.4722,313.90887,221.0,221.0,289.0,291.0,89.0,89.0,89.0,89.0,0.0,0.0,0.0,0.0,0.050737917,0.052721232,0.052361254,0.055221897,3.757551,-2.1529195,4.664138,-3.4354625,18.02443,-11.385969,36.424397,33.91654,0.0,0.0,0.0,2.0,1.0,2.4189079,-0.0109388605,-0.0012259483,89.0,89.0,89.0,89.0,22.047926,22.047926,24.919281,24.919281,0.01670712,0.015369106,-4.102497E-4,-4.043549E-4,1161.4366,0.0,0.0,0.0,0.0,0.0,0.0,0.0,0.0,0.0,0.0,0.0,0.0,0.0,58.16697,0.00982424,-64.934906,-0.00912128,0.07206854,0.008413231,549886.75,119984.91,0.0069033657,0.003916683,8325.334,9818.689,6229.6577,7493.308,0.29773045,0.0,0.0,0.0
62.617054,62.617054,0.716,0.0,0.0,314.04855,11222.0,100.0,0.0,-0.802379,0.0,8.0,0.0,0.0,4000000.0,110.0,1.0,0.0,0.0,10.0,0.0,0.0,417.68283,35.353355,829.8199,0.71889293,0.124462426,0.009807668,319.07874,319.00705,313.73648,314.07422,220.0,220.0,288.0,290.0,89.0,89.0,89.0,89.0,0.0,0.0,0.0,0.0,0.050987314,0.05261402,0.052639026,0.055049423,3.8961318,-2.368167,5.1560993,-4.461184,-159.80598,-80.68084,-73.35843,-102.79566,0.0,0.0,0.0,2.0,1.0,2.4220693,-0.01160142,-0.0011943579,89.0,89.0,89.0,89.0,22.047926,22.047926,24.919281,24.919281,0.016514057,0.015418172,-4.137982E-4,-4.039602E-4,1162.1769,0.0,0.0,0.0,0.0,0.0,0.0,0.0,0.0,0.0,0.0,0.0,0.0,0.0,57.926277,0.008252354,-65.22742,-0.009165468,0.055286285,0.009475246,549894.0,119984.9,0.0067978976,0.0037817485,8479.966,9730.639,6364.073,7420.9336,0.29759502,0.0,0.0,0.0
66.98094,66.98094,0.766,0.0,0.0,314.2607,11229.0,100.0,0.0,-0.6019768,0.0,8.0,0.0,0.0,4000000.0,110.0,1.0,0.0,0.0,10.0,0.0,0.0,420.57376,35.3537,826.55176,0.58847964,0.124016896,-0.00263721,319.29874,319.21768,313.99893,314.24585,219.0,219.0,286.0,289.0,89.0,89.0,89.0,89.0,0.0,0.0,0.0,0.0,0.051088754,0.052414674,0.052860335,0.054835375,3.3006816,-4.206374,5.023777,-3.5762784,135.85388,25.548018,64.292534,42.31185,0.0,0.0,0.0,2.0,1.0,2.424418,-0.012226018,-0.0011286736,89.0,89.0,89.0,89.0,22.047926,22.047926,24.919281,24.919281,0.01639637,0.015516374,-4.104559E-4,-4.0491903E-4,1162.9188,0.0,0.0,0.0,0.0,0.0,0.0,0.0,0.0,0.0,0.0,0.0,0.0,0.0,57.733368,0.0046565905,-65.47681,-0.00854901,0.04028111,0.00919932,549902.06,119984.91,0.0068282336,0.0039012185,8574.82,9589.707,6467.991,7331.427,0.2976761,0.0,0.0,0.0
71.34793,71.34793,0.816,0.0,0.0,314.4756,11237.0,100.0,0.0,-0.48999077,0.0,8.0,0.0,0.0,4000000.0,110.0,1.0,0.0,0.0,10.0,0.0,0.0,423.4563,35.353725,823.27216,0.47356468,0.12437287,-0.008001325,319.50552,319.43002,314.24646,314.43405,218.0,218.0,285.0,288.0,89.0,89.0,89.0,89.0,0.0,0.0,0.0,0.0,0.05123862,0.052300613,0.05303593,0.054618012,3.479719,-2.1904705,3.712624,-4.1051207,30.322363,-40.018547,27.063488,17.085655,0.0,0.0,0.0,2.0,1.0,2.4261649,-0.012786438,-0.0011245012,89.0,89.0,89.0,89.0,22.047926,22.047926,24.919281,24.919281,0.016279235,0.015568541,-4.0856106E-4,-4.0758174E-4,1163.764,0.0,0.0,0.0,0.0,0.0,0.0,0.0,0.0,0.0,0.0,0.0,0.0,0.0,57.5843,-0.0028088517,-65.68735,-0.0076343236,0.030657317,0.008073518,549909.94,119984.91,0.0068256157,0.0038214128,8681.065,9495.654,6529.7725,7217.953,0.29763603,0.0,0.0,0.0
75.71786,75.71786,0.866,0.0,0.0,314.69156,11244.0,100.0,0.0,-0.44368157,0.0,8.0,0.0,0.0,4000000.0,110.0,1.0,0.0,0.0,10.0,0.0,0.0,426.33243,35.35346,819.98303,0.38390648,0.123659864,-0.0016183734,319.7076,319.64987,314.47968,314.6362,217.0,217.0,284.0,287.0,89.0,89.0,89.0,89.0,0.0,0.0,0.0,0.0,0.051357374,0.05221417,0.05322484,0.054477625,1.8055736,-1.5257298,3.5355983,-2.4774668,-30.617414,6.03497,-18.681578,6.1690803,0.0,0.0,0.0,2.0,1.0,2.427553,-0.013226779,-0.0010795593,89.0,89.0,89.0,89.0,22.047926,22.047926,24.919281,24.919281,0.01618421,0.015601107,-4.0604966E-4,-4.1076413E-4,1164.5059,0.0,0.0,0.0,0.0,0.0,0.0,0.0,0.0,0.0,0.0,0.0,0.0,0.0,57.471516,-0.0069097965,-65.865685,-0.0054821507,0.025874665,0.0045772046,549917.9,119984.9,0.006664673,0.0037099249,8772.088,9425.289,6625.6562,7171.171,0.29747772,0.0,0.0,0.0
80.090744,80.090744,0.916,0.0,0.0,314.906,11251.0,100.0,0.0,-0.40253234,0.0,8.0,0.0,0.0,4000000.0,110.0,1.0,0.0,0.0,10.0,0.0,0.0,429.20364,35.35322,816.6856,0.31707603,0.12189094,0.0027957368,319.9022,319.86908,314.70218,314.84482,216.0,216.0,283.0,285.0,89.0,89.0,89.0,89.0,0.0,0.0,0.0,0.0,0.05146537,0.0521625,0.05337551,0.054411415,0.0925362,-2.6933846,1.5243887,-2.4640558,-94.50762,-54.998684,-71.89661,-52.584698,0.0,0.0,0.0,2.0,1.0,2.4287841,-0.013544239,-0.0010672808,89.0,89.0,89.0,89.0,22.047926,22.047926,24.919281,24.919281,0.01609289,0.015615249,-4.051066E-4,-4.113493E-4,1165.2472,0.0,0.0,0.0,0.0,0.0,0.0,0.0,0.0,0.0,0.0,0.0,0.0,0.0,57.38569,-0.004084777,-66.019424,-0.003781353,0.023773488,0.0037622051,549925.6,119984.91,0.006645614,0.00371028,8850.015,9379.929,6687.9214,7141.586,0.2974863,0.0,0.0,0.0
84.466385,84.466385,0.966,0.0,0.0,315.11853,11259.0,100.0,0.0,-0.28227925,0.0,8.0,0.0,0.0,4000000.0,110.0,1.0,0.0,0.0,10.0,0.0,0.0,432.07117,35.352955,813.3811,0.25978154,0.120739646,-0.012126072,320.11322,320.09113,314.92587,315.0484,215.0,215.0,282.0,284.0,89.0,89.0,89.0,89.0,0.0,0.0,0.0,0.0,0.05148883,0.052070804,0.053444885,0.054288965,0.4135072,-2.3534148,1.111105,-2.876669,20.800528,1.2874602,0.7107853,-1.7568396,0.0,0.0,0.0,2.0,1.0,2.4298964,-0.013805922,-0.001047492,89.0,89.0,89.0,89.0,22.047926,22.047926,24.919281,24.919281,0.016049115,0.015661491,-4.0925562E-4,-4.0570094E-4,1166.093,0.0,0.0,0.0,0.0,0.0,0.0,0.0,0.0,0.0,0.0,0.0,0.0,0.0,57.32085,-0.008058417,-66.153854,-0.0041309563,0.020048793,0.0037056159,549933.75,119984.91,0.006759926,0.003792296,8876.585,9318.035,6708.0156,7075.677,0.29758358,0.0,0.0,0.0
88.844215,88.844215,1.016,0.0,0.0,315.33038,11266.0,100.0,0.0,0.017325021,0.0,8.0,0.0,0.0,4000000.0,110.0,1.0,0.0,0.0,10.0,0.0,0.0,434.93604,35.352364,810.0703,0.17954285,0.120301396,-0.0065506417,320.32367,320.2886,315.17474,315.22458,214.0,214.0,281.0,283.0,89.0,89.0,89.0,89.0,0.0,0.0,0.0,0.0,0.051631864,0.05199174,0.053581778,0.05417313,3.3731012,-0.60059124,3.31521,-2.4823842,-2.9638336,97.67263,19.955633,-0.952177,0.0,0.0,0.0,2.0,1.0,2.430586,-0.014184383,-0.0010387897,89.0,89.0,89.0,89.0,22.047926,22.047926,24.919281,24.919281,0.01592778,0.015717207,-4.2024459E-4,-3.9566675E-4,1166.8341,0.0,0.0,0.0,0.0,0.0,0.0,0.0,0.0,0.0,0.0,0.0,0.0,0.0,57.282192,-0.014421649,-66.26514,-0.0057398183,0.0068880543,0.006761848,549941.4,119984.91,0.0066189184,0.003667064,8960.047,9266.958,6788.9453,7038.8906,0.2974329,0.0,0.0,0.0
91.7644,91.7644,1.066,0.0,0.0,315.4714,11270.0,100.0,0.0,0.2564791,0.0,8.0,0.0,0.0,4000000.0,110.0,1.0,0.0,0.0,10.0,0.0,0.0,436.84525,35.3519,807.8604,0.10655121,0.120017506,0.022279687,320.46127,320.39035,315.35602,315.32602,214.0,214.0,280.0,283.0,89.0,89.0,89.0,89.0,0.0,0.0,0.0,0.0,0.051809818,0.05198567,0.053761125,0.054117158,0.0,0.0,0.0,0.0,177.01236,79.0581,147.34714,134.15067,0.0,0.0,0.0,2.0,1.0,2.4305706,-0.014534576,-0.0010361671,89.0,89.0,89.0,89.0,22.047926,22.047926,24.919281,24.919281,0.015791597,0.015702391,-4.260287E-4,-3.918212E-4,1167.2579,0.0,0.0,0.0,0.0,0.0,0.0,0.0,0.0,0.0,0.0,0.0,0.0,0.0,57.276676,-0.011305321,-66.32168,-0.007707107,-0.007016203,0.00975085,549945.9,119984.9,0.006467482,0.0035328395,9069.205,9249.544,6914.474,7057.337,0.29733086,0.0,0.0,0.0
97.60859,97.60859,1.116,0.0,0.0,315.74725,11280.0,100.0,0.0,0.5555323,0.0,8.0,0.0,0.0,4000000.0,110.0,1.0,0.0,0.0,10.0,0.0,0.0,440.66498,35.35135,803.43646,-0.061707757,0.116228536,-0.002323493,320.76257,320.66116,315.71225,315.52194,212.0,213.0,279.0,281.0,89.0,89.0,89.0,89.0,0.0,0.0,0.0,0.0,0.051932286,0.05171691,0.054041956,0.053830657,2.6388464,-3.530681,4.691854,-3.262907,147.21303,36.54509,92.053406,125.607834,0.0,0.0,0.0,2.0,1.0,2.4290943,-0.015347255,-0.0010347366,89.0,89.0,89.0,89.0,22.047926,22.047926,24.919281,24.919281,0.01563162,0.015888872,-4.202907E-4,-3.927216E-4,1168.3164,0.0,0.0,0.0,0.0,0.0,0.0,0.0,0.0,0.0,0.0,0.0,0.0,0.0,57.326237,-0.008160463,-66.38012,-0.007804912,-0.03368667,0.009796636,549956.56,119984.9,0.00657273,0.003690372,9187.605,9058.432,7014.2686,6897.715,0.29747486,0.0,0.0,0.0
101.99495,101.99495,1.166,0.0,0.0,315.95032,11288.0,100.0,0.0,0.55009353,0.0,8.0,0.0,0.0,4000000.0,110.0,1.0,0.0,0.0,10.0,0.0,0.0,443.53342,35.350822,800.1175,-0.16882841,0.11477937,-0.009151158,320.9716,320.87323,315.9414,315.69724,211.0,212.0,278.0,280.0,89.0,89.0,89.0,89.0,0.0,0.0,0.0,0.0,0.052084386,0.051591698,0.054214984,0.053608254,3.0653176,-0.72889024,3.3288448,-3.8217006,-10.876364,112.39796,-5.3778214,60.752014,0.0,0.0,0.0,2.0,1.0,2.4271305,-0.015906941,-0.0010911226,89.0,89.0,89.0,89.0,22.047926,22.047926,24.919281,24.919281,0.015579643,0.015971871,-4.096858E-4,-4.021617E-4,1169.1619,0.0,0.0,0.0,0.0,0.0,0.0,0.0,0.0,0.0,0.0,0.0,0.0,0.0,57.41442,-0.012461067,-66.378456,-0.0050618704,-0.04166611,0.007044469,549964.5,119984.91,0.006580722,0.0036210916,9296.418,8961.94,7074.657,6780.1006,0.29740906,0.0,0.0,0.0
106.384254,106.384254,1.216,0.0,0.0,316.15094,11295.0,100.0,0.0,0.35812727,0.0,8.0,0.0,0.0,4000000.0,110.0,1.0,0.0,0.0,10.0,0.0,0.0,446.40707,35.350212,796.79913,-0.2160874,0.11354775,0.0014042875,321.14368,321.09726,316.12048,315.91858,210.0,211.0,277.0,279.0,89.0,89.0,89.0,89.0,0.0,0.0,0.0,0.0,0.052137215,0.051581703,0.054332443,0.053557456,0.38579103,0.16272067,1.7027556,0.07867812,-28.79351,25.199348,-39.81739,58.713547,0.0,0.0,0.0,2.0,1.0,2.425218,-0.016128046,-0.0010960102,89.0,89.0,89.0,89.0,22.047926,22.047926,24.919281,24.919281,0.015557998,0.015960164,-4.004152E-4,-4.120201E-4,1169.9027,0.0,0.0,0.0,0.0,0.0,0.0,0.0,0.0,0.0,0.0,0.0,0.0,0.0,57.526676,-0.011494601,-66.35497,-0.0014131004,-0.033376478,0.0012651723,549971.94,119984.91,0.0063743046,0.0034858834,9352.803,8935.793,7140.6006,6786.445,0.29722404,0.0,0.0,0.0
110.77641,110.77641,1.266,0.0,0.0,316.34772,11302.0,100.0,0.0,0.26268178,0.0,8.0,0.0,0.0,4000000.0,110.0,1.0,0.0,0.0,10.0,0.0,0.0,449.28653,35.349907,793.48206,-0.22131991,0.111122675,0.0054500797,321.31165,321.31522,316.28577,316.14716,209.0,210.0,276.0,278.0,89.0,89.0,89.0,89.0,0.0,0.0,0.0,0.0,0.05217386,0.051605888,0.054388676,0.053584646,-1.5324353,-1.7036496,-0.5677342,-0.6716698,-87.869156,-92.455734,-70.77007,-54.00627,0.0,0.0,0.0,2.0,1.0,2.4238505,-0.016155826,-0.0011184216,89.0,89.0,89.0,89.0,22.047926,22.047926,24.919281,24.919281,0.015549155,0.015919259,-4.0090227E-4,-4.0992943E-4,1170.6431,0.0,0.0,0.0,0.0,0.0,0.0,0.0,0.0,0.0,0.0,0.0,0.0,0.0,57.644928,-0.0028976903,-66.3247,3.5153126E-4,-0.022598939,-5.829823E-4,549979.1,119984.91,0.0063974005,0.003509596,9371.879,8946.439,7155.2363,6791.898,0.297266,0.0,0.0,0.0
115.1712,115.1712,1.316,0.0,0.0,316.54147,11309.0,100.0,0.0,0.3098846,0.0,8.0,0.0,0.0,4000000.0,110.0,1.0,0.0,0.0,10.0,0.0,0.0,452.17178,35.349754,790.1666,-0.20898096,0.10994281,-0.014200229,321.50363,321.5242,316.46402,316.3567,208.0,209.0,275.0,277.0,89.0,89.0,89.0,89.0,0.0,0.0,0.0,0.0,0.052097965,0.051578958,0.05433062,0.053576477,-1.1280923,-0.237599,-1.5060602,-0.18060206,45.07452,26.88914,3.5539267,29.46406,0.0,0.0,0.0,2.0,1.0,2.4228883,-0.016070997,-0.0011316538,89.0,89.0,89.0,89.0,22.047926,22.047926,24.919281,24.919281,0.0155776255,0.01592057,-4.080578E-4,-4.0148007E-4,1171.3843,0.0,0.0,0.0,0.0,0.0,0.0,0.0,0.0,0.0,0.0,0.0,0.0,0.0,57.75883,-0.004656218,-66.296936,0.0010308308,-0.017962739,-7.363613E-4,549986.7,119984.9,0.0065307133,0.0036235377,9328.699,8939.179,7115.392,6781.386,0.29740334,0.0,0.0,0.0
119.56871,119.56871,1.366,0.0,0.0,316.73398,11315.0,100.0,0.0,0.40354884,0.0,8.0,0.0,0.0,4000000.0,110.0,1.0,0.0,0.0,10.0,0.0,0.0,455.06265,35.349403,786.8525,-0.20441543,0.10920328,-0.003825108,321.69498,321.702,316.66452,316.54086,208.0,208.0,274.0,276.0,89.0,89.0,89.0,89.0,0.0,0.0,0.0,0.0,0.05214832,0.051628552,0.054326914,0.05359952,1.3735144,2.407059,0.52370125,0.7992982,6.732344,110.9898,33.608074,26.580688,0.0,0.0,0.0,2.0,1.0,2.4219277,-0.01605185,-0.0011553764,89.0,89.0,89.0,89.0,22.047926,22.047926,24.919281,24.919281,0.01553613,0.015894,-4.1307244E-4,-3.9683143E-4,1172.0204,0.0,0.0,0.0,0.0,0.0,0.0,0.0,0.0,0.0,0.0,0.0,0.0,0.0,57.869583,-0.0077642137,-66.27129,7.8374826E-5,-0.02123853,4.3712492E-4,549993.56,119984.9,0.0063781613,0.0034656774,9350.393,8967.471,7135.3643,6809.5938,0.29721546,0.0,0.0,0.0
123.96899,123.96899,1.416,0.0,0.0,316.92343,11322.0,100.0,0.0,0.56899965,0.0,8.0,0.0,0.0,4000000.0,110.0,1.0,0.0,0.0,10.0,0.0,0.0,457.95914,35.34921,783.5396,-0.22944632,0.10676478,0.017646091,321.88867,321.86914,316.879,316.7042,207.0,207.0,273.0,275.0,89.0,89.0,89.0,89.0,0.0,0.0,0.0,0.0,0.05225121,0.05165596,0.054435562,0.05363319,0.47296283,-1.2309103,1.6504525,-0.58136874,-226.59297,-207.96504,-118.12447,-153.34186,0.0,0.0,0.0,2.0,1.0,2.420646,-0.016169632,-0.0011709929,89.0,89.0,89.0,89.0,22.047926,22.047926,24.919281,24.919281,0.0154590355,0.015888724,-4.178348E-4,-3.9160927E-4,1172.76,0.0,0.0,0.0,0.0,0.0,0.0,0.0,0.0,0.0,0.0,0.0,0.0,0.0,57.98492,9.261199E-4,-66.24036,-0.0022414443,-0.030410592,0.0030747934,550000.4,119984.91,0.006274679,0.003377907,9404.382,8979.324,7200.6655,6834.497,0.29713345,0.0,0.0,0.0
128.37177,128.37177,1.466,0.0,0.0,317.10806,11328.0,100.0,0.0,0.7485378,0.0,8.0,0.0,0.0,4000000.0,110.0,1.0,0.0,0.0,10.0,0.0,0.0,460.86176,35.34933,780.22876,-0.28331086,0.1046032,-0.0071571255,322.10056,322.0539,317.09888,316.85208,206.0,206.0,272.0,274.0,89.0,89.0,89.0,89.0,0.0,0.0,0.0,0.0,0.052238893,0.05151435,0.054501057,0.053521022,0.90099865,-2.2378561,2.2798774,-2.1938233,105.19622,70.16658,91.24873,28.458237,0.0,0.0,0.0,2.0,1.0,2.418808,-0.01641682,-0.0011743307,89.0,89.0,89.0,89.0,22.047926,22.047926,24.919281,24.919281,0.015432618,0.015986942,-4.1841916E-4,-3.8738924E-4,1173.3973,0.0,0.0,0.0,0.0,0.0,0.0,0.0,0.0,0.0,0.0,0.0,0.0,0.0,58.11579,0.0020416037,-66.19383,-0.0035816785,-0.042837728,0.0051282863,550007.8,119984.914,0.0064011575,0.0035475641,9416.446,8898.58,7223.291,6770.0264,0.2972784,0.0,0.0,0.0
132.77763,132.77763,1.516,0.0,0.0,317.28967,11335.0,100.0,0.0,0.8597705,0.0,8.0,0.0,0.0,4000000.0,110.0,1.0,0.0,0.0,10.0,0.0,0.0,463.7715,35.349358,776.92084,-0.350927,0.10341929,-0.00828632,322.28842,322.2268,317.31168,316.99963,205.0,205.0,271.0,273.0,89.0,89.0,89.0,89.0,0.0,0.0,0.0,0.0,0.052359264,0.051444754,0.05460014,0.053398285,3.1853466,-0.84713095,2.3706255,-2.170801,47.783558,45.22204,29.50429,10.997056,0.0,0.0,0.0,2.0,1.0,2.4163685,-0.016747491,-0.0012373924,89.0,89.0,89.0,89.0,22.047926,22.047926,24.919281,24.919281,0.01535851,0.01604435,-4.1584845E-4,-3.8880706E-4,1174.1368,0.0,0.0,0.0,0.0,0.0,0.0,0.0,0.0,0.0,0.0,0.0,0.0,0.0,58.269867,-5.0338486E-4,-66.125496,-0.0037138187,-0.05363921,0.0063253865,550014.56,119984.9,0.0063632093,0.0034646716,9491.598,8846.104,7265.5347,6711.8076,0.29722977,0.0,0.0,0.0
137.18607,137.18607,1.566,0.0,0.0,317.46774,11341.0,100.0,0.0,0.8505538,0.0,8.0,0.0,0.0,4000000.0,110.0,1.0,0.0,0.0,10.0,0.0,0.0,466.68958,35.349415,773.6168,-0.40870202,0.10155745,0.0039174445,322.46237,322.4048,317.50406,317.16147,204.0,204.0,269.0,272.0,89.0,89.0,89.0,89.0,0.0,0.0,0.0,0.0,0.05245138,0.051416345,0.054739088,0.053320803,0.796169,-1.1672078,2.6819854,-1.1108814,-68.08787,-63.796326,-12.485675,25.092064,0.0,0.0,0.0,2.0,1.0,2.4135299,-0.017045641,-0.0012657642,89.0,89.0,89.0,89.0,22.047926,22.047926,24.919281,24.919281,0.015300156,0.016069751,-4.0956962E-4,-3.9436307E-4,1174.7723,0.0,0.0,0.0,0.0,0.0,0.0,0.0,0.0,0.0,0.0,0.0,0.0,0.0,58.446583,0.0033696007,-66.035416,-0.0031846846,-0.05817923,0.0034523304,550021.1,119984.91,0.0061824545,0.0033138196,9564.843,8809.643,7340.8525,6692.328,0.29705715,0.0,0.0,0.0
141.59692,141.59692,1.616,0.0,0.0,317.64096,11347.0,100.0,0.0,0.81304824,0.0,8.0,0.0,0.0,4000000.0,110.0,1.0,0.0,0.0,10.0,0.0,0.0,469.61694,35.349842,770.31775,-0.44688833,0.099247724,2.0479737E-4,322.62714,322.59048,317.6741,317.33655,203.0,203.0,268.0,271.0,89.0,89.0,89.0,89.0,0.0,0.0,0.0,0.0,0.052490883,0.051375277,0.054838706,0.053278223,-0.90993935,-2.0373611,0.6115436,-2.1164863,-72.66103,-37.430225,-67.63189,-59.10247,0.0,0.0,0.0,2.0,1.0,2.410636,-0.017236013,-0.0012972355,89.0,89.0,89.0,89.0,22.047926,22.047926,24.919281,24.919281,0.015279633,0.016087435,-4.059333E-4,-3.9636606E-4,1175.408,0.0,0.0,0.0,0.0,0.0,0.0,0.0,0.0,0.0,0.0,0.0,0.0,0.0,58.638813,0.011596636,-65.929184,-0.0011769051,-0.056916848,0.0019219632,550027.75,119984.91,0.006234398,0.003380624,9599.564,8777.669,7373.633,6662.284,0.2971115,0.0,0.0,0.0
146.00995,146.00995,1.666,0.0,0.0,317.81113,11353.0,100.0,0.0,0.7362107,0.0,8.0,0.0,0.0,4000000.0,110.0,1.0,0.0,0.0,10.0,0.0,0.0,472.55386,35.350452,767.02423,-0.45618275,0.09822072,-0.013239983,322.78806,322.77856,317.8301,317.52072,202.0,202.0,267.0,270.0,89.0,89.0,89.0,89.0,0.0,0.0,0.0,0.0,0.052471768,0.05133122,0.054829363,0.05324326,0.04291534,-0.5536526,-0.6256252,-0.6911158,36.974247,25.802849,-8.556245,-0.56326383,0.0,0.0,0.0,2.0,1.0,2.4079144,-0.017276226,-0.0013495684,89.0,89.0,89.0,89.0,22.047926,22.047926,24.919281,24.919281,0.015292865,0.016095288,-4.0325496E-4,-3.9833793E-4,1176.0435,0.0,0.0,0.0,0.0,0.0,0.0,0.0,0.0,0.0,0.0,0.0,0.0,0.0,58.837063,0.011417519,-65.815735,0.0011829248,-0.051808584,7.452072E-4,550034.25,119984.9,0.0063099884,0.0034525446,9595.367,8752.672,7361.492,6647.3374,0.29718685,0.0,0.0,0.0
150.42511,150.42511,1.716,0.0,0.0,317.98026,11359.0,100.0,0.0,0.6730151,0.0,8.0,0.0,0.0,4000000.0,110.0,1.0,0.0,0.0,10.0,0.0,0.0,475.50067,35.35103,763.7365,-0.44504607,0.09747289,-6.8358495E-4,322.94073,322.9484,317.9833,317.70648,201.0,201.0,266.0,269.0,89.0,89.0,89.0,89.0,0.0,0.0,0.0,0.0,0.052498803,0.051398892,0.05482789,0.05326864,0.10125338,0.6486475,0.22754072,1.0136514,-47.488503,-44.296677,7.188319,26.956196,0.0,0.0,0.0,2.0,1.0,2.4054694,-0.017235648,-0.0013892651,89.0,89.0,89.0,89.0,22.047926,22.047926,24.919281,24.919281,0.01527986,0.016039552,-4.0387345E-4,-3.9879905E-4,1176.678,0.0,0.0,0.0,0.0,0.0,0.0,0.0,0.0,0.0,0.0,0.0,0.0,0.0,59.03316,0.012891112,-65.70308,0.0012955515,-0.04626768,-0.0010573935,550040.3,119984.9,0.0061862385,0.0033098485,9607.326,8788.397,7376.728,6677.3667,0.29705715,0.0,0.0,0.0
154.84273,154.84273,1.766,0.0,0.0,318.14755,11365.0,100.0,0.0,0.5662119,0.0,8.0,0.0,0.0,4000000.0,110.0,1.0,0.0,0.0,10.0,0.0,0.0,478.45728,35.35185,760.45416,-0.4127404,0.09614371,0.009545866,323.0946,323.1151,318.13138,317.89462,200.0,200.0,265.0,268.0,89.0,89.0,89.0,89.0,0.0,0.0,0.0,0.0,0.052488774,0.05148134,0.05482358,0.0533707,-1.1540203,1.0223686,-1.0192393,1.7745047,-132.24629,-125.607834,-110.11808,-64.18526,0.0,0.0,0.0,2.0,1.0,2.4033337,-0.017073179,-0.0014126301,89.0,89.0,89.0,89.0,22.047926,22.047926,24.919281,24.919281,0.015286019,0.015970076,-4.0219573E-4,-4.0093093E-4,1177.3124,0.0,0.0,0.0,0.0,0.0,0.0,0.0,0.0,0.0,0.0,0.0,0.0,0.0,59.219067,0.020227674,-65.59818,0.0032980102,-0.03930115,-0.002651467,550046.3,119984.9,0.0061222846,0.0032703083,9596.384,8834.502,7378.873,6733.427,0.29700947,0.0,0.0,0.0
159.26248,159.26248,1.816,0.0,0.0,318.3131,11371.0,100.0,0.0,0.50694144,0.0,8.0,0.0,0.0,4000000.0,110.0,1.0,0.0,0.0,10.0,0.0,0.0,481.42282,35.352936,757.1768,-0.37408003,0.09504622,-0.004139184,323.25858,323.28925,318.2791,318.08008,199.0,199.0,264.0,266.0,89.0,89.0,89.0,89.0,0.0,0.0,0.0,0.0,0.052404173,0.051491793,0.05474633,0.0534212,-1.2391804,0.9720772,-1.04025,1.201853,45.892586,71.21264,48.9369,27.211004,0.0,0.0,0.0,2.0,1.0,2.4015448,-0.016878847,-0.0014307499,89.0,89.0,89.0,89.0,22.047926,22.047926,24.919281,24.919281,0.015323628,0.015935166,-4.032125E-4,-3.9854262E-4,1177.9475,0.0,0.0,0.0,0.0,0.0,0.0,0.0,0.0,0.0,0.0,0.0,0.0,0.0,59.390675,0.022607403,-65.504944,0.0030730658,-0.033094417,-0.0025257815,550052.7,119984.9,0.0061892867,0.0033465228,9543.427,8856.647,7339.412,6749.086,0.29707813,0.0,0.0,0.0
163.6844,163.6844,1.866,0.0,0.0,318.4779,11376.0,100.0,0.0,0.51164913,0.0,8.0,0.0,0.0,4000000.0,110.0,1.0,0.0,0.0,10.0,0.0,0.0,484.3966,35.354034,753.9038,-0.34179986,0.09434648,-0.007016275,323.42307,323.44952,318.43735,318.2526,198.0,199.0,263.0,265.0,89.0,89.0,89.0,89.0,0.0,0.0,0.0,0.0,0.052379753,0.051526014,0.054687895,0.053470884,-0.21368264,0.31158325,-0.86367124,0.87507063,12.914835,-27.291473,17.327066,-22.275742,0.0,0.0,0.0,2.0,1.0,2.3999615,-0.016694682,-0.0014612675,89.0,89.0,89.0,89.0,22.047926,22.047926,24.919281,24.919281,0.01532925,0.015897524,-4.0610522E-4,-3.9575284E-4,1178.4785,0.0,0.0,0.0,0.0,0.0,0.0,0.0,0.0,0.0,0.0,0.0,0.0,0.0,59.549286,0.02231044,-65.42271,0.0031011621,-0.031007444,-0.0024470794,550058.75,119984.91,0.006130791,0.0032994624,9518.431,8884.94,7310.883,6768.39,0.29702377,0.0,0.0,0.0
168.10846,168.10846,1.916,0.0,0.0,318.64175,11382.0,100.0,0.0,0.51454735,0.0,8.0,0.0,0.0,4000000.0,110.0,1.0,0.0,0.0,10.0,0.0,0.0,487.37802,35.355164,750.6347,-0.31907207,0.09349281,-0.004744415,323.59326,323.603,318.60236,318.41608,197.0,198.0,262.0,264.0,89.0,89.0,89.0,89.0,0.0,0.0,0.0,0.0,0.05234833,0.051568937,0.054672055,0.053509478,-1.1529027,-0.17300247,-0.09968876,0.6935745,-44.591717,-66.29079,7.0407977,-6.142258,0.0,0.0,0.0,2.0,1.0,2.398401,-0.016459145,-0.0014557838,89.0,89.0,89.0,89.0,22.047926,22.047926,24.919281,24.919281,0.015333034,0.015860645,-4.071364E-4,-3.950552E-4,1178.9114,0.0,0.0,0.0,0.0,0.0,0.0,0.0,0.0,0.0,0.0,0.0,0.0,0.0,59.698193,0.02288319,-65.34851,0.0032121213,-0.031445753,-0.004577448,549970.75,119984.91,0.0059402613,0.0031643983,9493.936,8913.465,7310.953,6789.502,0.29687214,0.0,0.0,0.0
172.53448,172.53448,1.966,0.0,0.0,318.72238,11349.0,100.0,2.626387,0.4738432,0.0,8.0,0.0,0.0,4000000.0,110.0,1.0,0.0,0.0,10.0,0.0,0.0,490.36658,35.35659,747.3692,-0.30239943,-0.041595638,0.006461789,322.66284,322.64548,318.48444,318.29178,197.0,197.0,262.0,264.0,89.0,89.0,89.0,89.0,0.0,0.0,0.0,0.0,0.052382335,0.051588673,0.05468183,0.0535411,-1.6357003,-4.433691,-0.6486475,-3.6790965,-280.93454,-89.90762,-116.48832,-161.45555,0.0,0.0,0.0,2.0,1.0,2.3968267,-0.0165116,-0.0014567375,89.0,89.0,89.0,89.0,22.047926,22.047926,24.919281,24.919281,0.012405227,0.012854711,-0.0010698402,-0.0010892969,1175.6188,0.0,0.0,0.0,0.0,0.0,0.0,0.0,0.0,0.0,0.0,0.0,0.0,0.0,59.824703,0.03206959,-65.2631,-0.0019484931,-0.030942712,-0.0036318572,550029.44,0.0,0.0059412387,0.0032259896,9492.121,8932.283,7343.255,6820.1523,0.2969036,0.0,0.0,0.0
176.95674,176.95674,2.016,0.0,0.0,318.1627,11298.0,100.0,13.632449,0.40654534,0.0,8.0,0.0,0.0,4000000.0,110.0,1.0,0.0,0.0,10.0,0.0,0.0,493.3584,35.357933,744.11096,-0.28114706,-0.45014036,-0.014404876,321.23117,321.19553,317.01303,316.8214,203.0,203.0,267.0,269.0,89.0,89.0,89.0,89.0,0.0,0.0,0.0,0.0,0.05202025,0.051477876,0.05455756,0.05363244,-1.8339603,7.593557,-4.0926037,4.9712505,532.3245,355.45972,-28.458237,-59.947353,0.0,0.0,0.0,2.0,1.0,2.395385,-0.015769271,-0.0011324883,89.0,89.0,89.0,89.0,22.047926,22.047926,24.919281,24.919281,0.009560824,0.00986821,-0.003920248,-0.004016048,1170.2207,0.0,0.0,0.0,0.0,0.0,0.0,0.0,0.0,0.0,0.0,0.0,0.0,0.0,59.82347,0.023654247,-65.05317,0.0027670385,-0.026674718,-0.010536715,549975.3,0.0,0.005436321,0.003587231,9250.926,8762.715,7483.125,7091.4805,0.2967415,0.0,0.0,0.0
181.36607,181.36607,2.066,0.0,0.0,317.01642,11238.0,96.937515,20.395641,0.25336328,0.0,8.0,0.0,0.0,4000000.0,110.0,1.0,0.0,0.0,10.0,0.0,0.0,496.3466,35.35918,740.86646,-0.23694247,-0.7108349,-0.011115244,319.53183,319.4905,315.3058,314.91364,215.0,215.0,277.0,279.0,89.0,89.0,89.0,89.0,0.0,0.0,0.0,0.0,0.051931202,0.051543344,0.054679576,0.053345274,-8.208006,3.8360057,3.0890105,-10.457708,-466.07397,282.93277,-65.23131,-137.9862,0.0,0.0,0.0,2.0,1.0,2.394262,-0.015238394,-8.392334E-4,89.0,89.0,89.0,89.0,22.047926,22.047926,24.919281,24.919281,0.00784919,0.008012154,-0.005589548,-0.006466578,1163.871,0.0,0.0,0.0,0.0,0.0,0.0,0.0,0.0,0.0,0.0,0.0,0.0,0.0,59.698452,0.024348537,-64.73545,0.011463907,-0.018715668,-0.027098075,549911.5,0.0,0.005806058,0.003941799,9093.643,8764.869,7617.226,6967.7515,0.29638863,0.0,0.0,0.0
185.75497,185.75497,2.116,0.0,0.0,315.12323,11120.0,65.0782,30.498959,0.046882737,0.0,8.0,0.0,0.0,4000000.0,110.0,1.0,0.0,0.0,10.0,0.0,0.0,499.3251,35.3602,737.6407,-0.19824189,-1.3505504,-0.047084946,314.99738,314.96292,312.64447,312.1397,232.0,232.0,291.0,293.0,89.0,89.0,89.0,89.0,0.0,0.0,0.0,0.0,0.05110569,0.051184677,0.05475804,0.05312353,-14.577358,-18.31658,4.841834,-16.786604,234.67986,-720.41437,332.88892,-1585.5475,0.0,0.0,0.0,2.0,1.0,2.3935945,-0.013440497,-1.06573105E-4,89.0,89.0,89.0,89.0,22.047926,22.047926,24.919281,24.919281,-7.2014343E-4,-7.5353694E-4,-0.00798361,-0.009487429,1151.3865,0.0,0.0,0.0,0.0,0.0,0.0,0.0,0.0,0.0,0.0,0.0,0.0,0.0,59.414318,0.014104791,-64.282036,0.0169136,-0.0058034114,-0.050030157,549785.56,0.0,0.006198043,0.0055309907,8700.407,8613.1045,7832.392,6967.0596,0.2957325,0.0,0.0,0.0
190.1093,190.1093,2.166,0.0,0.0,312.0563,10946.0,43.762875,44.457443,-0.17480479,0.0,8.0,0.0,0.0,4000000.0,110.0,1.0,0.0,0.0,10.0,0.0,0.0,502.28317,35.36024,734.443,-0.09241325,-1.9033209,-0.014076733,310.21802,310.1476,308.51334,307.9672,256.0,256.0,313.0,315.0,89.0,89.0,89.0,89.0,0.0,0.0,0.0,0.0,0.050390113,0.051230296,0.05466018,0.05336226,-7.8557425,12.156441,-3.9634104,5.5367494,366.953,556.9338,36.196415,-156.81532,0.0,0.0,0.0,2.0,1.0,2.3937871,-0.01025827,6.3574314E-4,89.0,89.0,89.0,89.0,22.047926,22.047926,24.919281,24.919281,-0.0058009224,-0.006233173,-0.011551731,-0.0135120405,1131.1985,0.0,0.0,0.0,0.0,0.0,0.0,0.0,0.0,0.0,0.0,0.0,0.0,0.0,58.880905,0.02672029,-63.614937,0.04126324,0.0039062966,-0.029430049,548732.1,0.0,0.005672066,0.006630125,8239.057,8544.077,8044.175,7467.0273,0.29404926,0.0,0.0,0.0
192.98532,192.98532,2.216,0.0,0.0,309.52075,10817.0,32.993057,48.712765,-0.26897165,0.0,8.0,0.0,0.0,4000000.0,110.0,1.0,0.0,0.0,10.0,0.0,0.0,504.2378,35.360992,732.33154,-0.037224054,-2.2030115,-0.020330835,306.79,306.6598,305.52084,304.9099,275.0,276.0,330.0,332.0,89.0,89.0,89.0,89.0,0.0,0.0,0.0,0.0,0.050165065,0.05067378,0.05428058,0.05299243,0.0,0.0,0.0,0.0,-318.36475,-1375.4232,-16.254156,42.539803,0.0,0.0,0.0,2.0,1.0,2.3941178,-0.008576389,5.842447E-4,89.0,89.0,89.0,89.0,22.047926,22.047926,24.919281,24.919281,-0.008641622,-0.009312995,-0.012961025,-0.015215005,1113.2899,0.0,0.0,0.0,0.0,0.0,0.0,0.0,0.0,0.0,0.0,0.0,0.0,0.0,58.413986,0.032878995,-63.087395,0.04046233,0.010152757,-0.03213337,546485.25,0.0,0.0066914633,0.0077137,8052.9917,8267.023,7733.168,7141.9014,0.29364777,0.0,0.0,0.0
198.65764,198.65764,2.266,0.0,0.0,303.24802,10510.0,13.492027,65.36894,-0.4118648,0.0,8.0,0.0,0.0,4000000.0,110.0,1.0,0.0,0.0,10.0,0.0,0.0,508.09302,35.36244,728.1674,0.057997823,-2.918419,-0.016312916,298.35498,298.12634,297.551,296.6853,320.0,320.0,371.0,372.0,89.0,89.0,89.0,89.0,0.0,0.0,0.0,0.0,0.049243,0.050028656,0.05323034,0.0524176,-13.732909,-13.683959,-12.563019,-8.626878,-107.28835,-293.80914,276.8844,133.45326,0.0,0.0,0.0,2.0,1.0,2.3952107,-0.0046969694,8.009672E-4,89.0,89.0,89.0,89.0,22.047926,22.047926,24.919281,24.919281,-0.015998162,-0.017103093,-0.018935066,-0.022179365,1071.0732,0.0,0.0,0.0,0.0,0.0,0.0,0.0,0.0,0.0,0.0,0.0,0.0,0.0,57.216763,0.041765973,-61.82127,0.03458961,0.012941582,-0.0245849,541119.9,0.0,0.008258451,0.0098295435,7498.515,7883.701,7408.622,7035.671,0.2928152,0.0,0.0,0.0
202.82733,202.82733,2.316,0.0,0.0,297.50385,10234.0,1.9272145,79.597374,-0.38312897,0.0,8.0,0.0,0.0,4000000.0,110.0,1.0,0.0,0.0,10.0,0.0,0.0,510.92584,35.363724,725.1054,0.08504546,-3.432631,-0.023157924,290.73013,290.37585,290.08963,288.73712,357.0,357.0,406.0,408.0,89.0,89.0,89.0,89.0,0.0,0.0,0.0,0.0,0.048534643,0.0492671,0.052616715,0.051869113,-12.919976,-14.1727915,-13.427361,-13.334154,95.66099,217.12479,-131.3075,-94.07844,0.0,0.0,0.0,2.0,1.0,2.396012,-0.002383385,0.0011246204,89.0,89.0,89.0,89.0,22.047926,22.047926,24.919281,24.919281,-0.022551581,-0.024035279,-0.025128257,-0.029868284,1017.3456,0.0,0.0,0.0,0.0,0.0,0.0,0.0,0.0,0.0,0.0,0.0,0.0,0.0,56.10569,0.047033027,-60.67547,0.030946946,0.0093833115,-0.019241894,527837.3,0.0,0.009449852,0.011842755,7058.008,7426.157,7277.2373,6932.1987,0.2924471,0.0,0.0,0.0
206.90897,206.90897,2.366,0.0,0.0,290.5206,9906.0,0.0,100.0,-0.4029553,0.0,8.0,0.0,0.0,4000000.0,110.0,1.0,0.0,0.0,10.0,0.0,0.0,513.69727,35.365208,722.1067,0.09363365,-4.182663,-0.017066918,281.4256,280.982,279.82224,276.85217,399.0,399.0,449.0,450.0,89.0,89.0,89.0,89.0,0.0,0.0,0.0,0.0,0.047683924,0.048426487,0.051870942,0.0511826,-21.363123,-21.677164,-11.866986,-10.482072,-474.4291,-540.3577,520.1205,562.31165,0.0,0.0,0.0,2.0,1.0,2.3966892,-4.667236E-5,0.0016038418,89.0,89.0,89.0,89.0,22.047926,22.047926,24.919281,24.919281,-0.030980237,-0.03319153,-0.037102,-0.04728586,949.5598,0.0,0.0,0.0,0.0,0.0,0.0,0.0,0.0,0.0,0.0,0.0,0.0,0.0,54.75675,0.060640983,-59.280792,0.030201955,0.0054338695,-0.019355008,508980.34,0.0,0.010659235,0.0142822685,6481.286,6826.6187,7220.333,6912.797,0.29234505,0.0,0.0,0.0
210.88824,210.88824,2.416,0.0,0.0,283.0249,9623.0,0.0,100.0,-0.49758562,0.0,8.0,0.0,0.0,4000000.0,110.0,1.0,0.0,0.0,10.0,0.0,0.0,516.3975,35.36695,719.18164,0.10778904,-4.2451797,-0.037739545,273.4065,273.06235,272.12244,269.08185,440.0,440.0,491.0,491.0,89.0,89.0,89.0,89.0,0.0,0.0,0.0,0.0,0.04551346,0.047210567,0.051313616,0.05111971,-50.71856,-25.356709,-11.725053,4.0031967,-298.03366,-144.42351,-8.542842,314.1671,0.0,0.0,0.0,2.0,1.0,2.397304,0.0027769909,0.0022474527,89.0,89.0,89.0,89.0,22.047926,22.047926,24.919281,24.919281,-0.033949785,-0.035451192,-0.03881478,-0.05005452,882.4614,0.0,0.0,0.0,0.0,0.0,0.0,0.0,0.0,0.0,0.0,0.0,0.0,0.0,53.308807,0.048588447,-57.78376,0.047235645,0.009148233,-0.04617188,486925.22,0.0,0.011925082,0.017204331,6033.484,6383.906,6962.327,6907.3765,0.29257393,0.0,0.0,0.0
214.76404,214.76404,2.466,0.0,0.0,275.66754,10603.0,0.0,100.0,-0.8442985,0.0,7.0,0.0,0.0,4000000.0,110.0,1.0,0.0,0.0,10.0,0.0,0.0,519.0254,35.36794,716.3308,0.16025424,-4.086956,-0.0017016171,267.58298,267.2465,264.7076,262.7621,476.0,476.0,529.0,529.0,89.0,89.0,89.0,89.0,0.0,0.0,0.0,0.0,0.043254055,0.046090696,0.050911978,0.05153691,-37.180107,-19.076986,-5.779266,6.625056,737.3123,212.05547,132.82298,-415.2998,0.0,0.0,0.0,2.0,1.0,2.3984408,0.0057283733,0.0029027462,89.0,89.0,89.0,89.0,22.047926,22.047926,24.919281,24.919281,-0.027933087,-0.029761042,-0.039735638,-0.04748085,1083.8071,0.0,0.0,0.0,0.0,0.0,0.0,0.0,0.0,0.0,0.0,0.0,0.0,0.0,51.873993,0.034066625,-56.32685,0.046780854,0.026217233,-0.037573345,542750.5,0.0,0.012398429,0.0193585,5790.523,6285.1963,6849.7744,7151.8887,0.29441357,0.0,0.0,0.0
218.5395,218.5395,2.516,0.0,0.0,268.5654,10245.0,0.0,100.0,-1.2174529,0.0,7.0,0.0,0.0,4000000.0,110.0,1.0,0.0,0.0,10.0,0.0,0.0,521.5823,35.36866,713.5511,0.2365452,-4.0473347,-0.07054683,258.99808,258.61584,257.8561,256.26273,510.0,509.0,563.0,562.0,89.0,89.0,89.0,89.0,0.0,0.0,0.0,0.0,0.041873164,0.044820588,0.0508512,0.05163986,-29.143093,-34.52785,9.340345,8.26992,-53.899036,-585.7407,845.4858,492.3462,0.0,0.0,0.0,2.0,1.0,2.4005997,0.007801606,0.003429532,89.0,89.0,89.0,89.0,22.047926,22.047926,24.919281,24.919281,-0.03483512,-0.037361406,-0.039555606,-0.046822138,1019.4554,0.0,0.0,0.0,0.0,0.0,0.0,0.0,0.0,0.0,0.0,0.0,0.0,0.0,50.46616,0.0022511745,-54.94134,0.007292986,0.059175156,-0.042552292,528364.06,0.0,0.012720296,0.021047546,5634.3203,6075.962,6933.4053,7277.788,0.29690838,0.0,0.0,0.0
222.21606,222.21606,2.566,0.0,0.0,261.42572,9954.0,0.0,100.0,-1.5762935,0.0,7.0,0.0,0.0,4000000.0,110.0,1.0,0.0,0.0,10.0,0.0,0.0,524.06726,35.369102,710.83997,0.39018977,-4.029065,0.040624343,251.50906,251.48001,250.87236,250.23029,540.0,540.0,593.0,593.0,89.0,89.0,89.0,89.0,0.0,0.0,0.0,0.0,0.040321086,0.043441966,0.050953224,0.052230753,-31.473265,-21.404697,-6.214454,8.444264,-12.713698,351.28885,-529.19977,-303.70642,0.0,0.0,0.0,2.0,1.0,2.4044032,0.0101746265,0.0041571856,89.0,89.0,89.0,89.0,22.047926,22.047926,24.919281,24.919281,-0.036920182,-0.0387772,-0.039112266,-0.043697633,961.11725,0.0,0.0,0.0,0.0,0.0,0.0,0.0,0.0,0.0,0.0,0.0,0.0,0.0,49.008762,0.021240337,-53.58686,0.032659233,0.08901037,-0.043064505,512691.06,0.0,0.012474333,0.022722945,5401.1113,6075.4546,6964.243,7578.952,0.29897404,0.0,0.0,0.0
225.79424,225.79424,2.616,0.0,0.0,254.35497,9666.0,0.0,100.0,-1.6654212,0.0,7.0,0.0,0.0,4000000.0,110.0,1.0,0.0,0.0,10.0,0.0,0.0,526.4785,35.370758,708.1951,0.5142131,-3.9919448,-0.0029496644,244.15117,244.25932,242.74701,243.05405,567.0,567.0,621.0,621.0,89.0,89.0,89.0,89.0,0.0,0.0,0.0,0.0,0.038554136,0.042261377,0.050198745,0.05220881,-38.056297,-28.755737,-15.79955,-3.1037626,-183.75822,-379.03632,21.672247,-117.07841,0.0,0.0,0.0,2.0,1.0,2.4093194,0.012579418,0.004365921,89.0,89.0,89.0,89.0,22.047926,22.047926,24.919281,24.919281,-0.038874403,-0.040511966,-0.044087708,-0.045392,892.49695,0.0,0.0,0.0,0.0,0.0,0.0,0.0,0.0,0.0,0.0,0.0,0.0,0.0,47.52041,0.039751627,-52.28594,0.022156946,0.10401389,-0.035660457,490271.84,0.0,0.014016726,0.024827862,5062.902,5895.234,6426.0405,7372.282,0.30197334,0.0,0.0,0.0
229.27472,229.27472,2.666,0.0,0.0,247.32428,9372.0,0.0,100.0,-1.7746698,0.0,7.0,0.0,0.0,4000000.0,110.0,1.0,0.0,0.0,10.0,0.0,0.0,528.81476,35.372723,705.61444,0.607154,-3.972251,-0.038096257,236.67107,236.84094,234.91095,236.07268,592.0,592.0,646.0,646.0,89.0,89.0,89.0,89.0,0.0,0.0,0.0,0.0,0.036399808,0.04028248,0.049573362,0.052063193,-42.99089,-43.70771,-9.113699,-3.6185234,-17.018736,-142.93486,96.37172,38.342155,0.0,0.0,0.0,2.0,1.0,2.4146826,0.014007341,0.0049022436,89.0,89.0,89.0,89.0,22.047926,22.047926,24.919281,24.919281,-0.04169561,-0.0432578,-0.048570894,-0.04660261,819.41644,0.0,0.0,0.0,0.0,0.0,0.0,0.0,0.0,0.0,0.0,0.0,0.0,0.0,46.009956,0.037557974,-51.018974,0.00904806,0.1103257,-0.027866187,464247.3,0.0,0.0154505,0.027700672,4699.286,5582.2964,6108.0146,7258.9155,0.3050232,0.0,0.0,0.0
232.65805,232.65805,2.716,0.0,0.0,240.36365,10549.0,0.0,100.0,-2.0066621,0.0,6.0,0.0,0.0,4000000.0,110.0,1.0,0.0,0.0,10.0,0.0,0.0,531.075,35.37447,703.0963,0.69740605,-3.8718257,-0.04282766,230.85274,231.29552,227.0598,229.24857,615.0,615.0,669.0,669.0,89.0,89.0,89.0,89.0,0.0,0.0,0.0,0.0,0.03434289,0.03830725,0.049073264,0.051999435,-36.8046,-35.49881,-9.660422,-1.6075372,316.76877,353.7968,-44.685627,15.865265,0.0,0.0,0.0,2.0,1.0,2.4203732,0.015193668,0.00541389,89.0,89.0,89.0,89.0,22.047926,22.047926,24.919281,24.919281,-0.037238233,-0.037945446,-0.053305928,-0.047345266,1076.3894,0.0,0.0,0.0,0.0,0.0,0.0,0.0,0.0,0.0,0.0,0.0,0.0,0.0,44.48811,0.03251508,-49.786846,0.012396438,0.1169084,-0.022896282,541795.2,0.0,0.016624754,0.03025687,4415.2617,5394.5605,5831.8184,7191.6963,0.30753613,0.0,0.0,0.0
235.94637,235.94637,2.766,0.0,0.0,233.53354,10159.0,0.0,100.0,-2.4508836,0.0,6.0,0.0,0.0,4000000.0,110.0,1.0,0.0,0.0,10.0,0.0,0.0,533.2595,35.376,700.6381,0.7617992,-3.8848405,-0.034417026,222.45984,223.11325,218.54855,222.35182,636.0,636.0,689.0,689.0,89.0,89.0,89.0,89.0,0.0,0.0,0.0,0.0,0.032704204,0.036872946,0.0484858,0.051905427,-32.697468,-30.514372,-9.649023,-1.5780329,9.146346,-171.12486,169.44853,21.269917,0.0,0.0,0.0,2.0,1.0,2.4264555,0.016240343,0.005693078,89.0,89.0,89.0,89.0,22.047926,22.047926,24.919281,24.919281,-0.045559682,-0.04553292,-0.06185137,-0.049225233,1002.7752,0.0,0.0,0.0,0.0,0.0,0.0,0.0,0.0,0.0,0.0,0.0,0.0,0.0,42.968792,0.029734522,-48.598915,0.0033035474,0.12791055,-0.016999476,524118.7,0.0,0.017805805,0.0321773,4220.4565,5265.2837,5500.6714,7077.1396,0.3094864,0.0,0.0,0.0
239.14081,239.14081,2.816,0.0,0.0,227.1299,9948.0,0.0,100.0,-3.129087,0.0,6.0,0.0,0.0,4000000.0,110.0,1.0,0.0,0.0,10.0,0.0,0.0,535.368,35.377544,698.23816,0.95128155,-3.1721015,-0.03616257,218.10667,218.60931,219.0239,219.76707,655.0,655.0,708.0,708.0,89.0,89.0,89.0,89.0,0.0,0.0,0.0,0.0,0.031198585,0.035495803,0.047628902,0.051720392,-20.924023,-18.592625,-28.722656,-12.971162,872.9182,748.0009,-863.3761,-917.54333,0.0,0.0,0.0,2.0,1.0,2.4335563,0.016822822,0.005862832,89.0,89.0,89.0,89.0,22.047926,22.047926,24.919281,24.919281,-0.037226025,-0.0385875,-0.029579312,-0.031241428,959.74084,0.0,0.0,0.0,0.0,0.0,0.0,0.0,0.0,0.0,0.0,0.0,0.0,0.0,41.491558,0.030960826,-47.528984,0.024263784,0.15783912,-0.004120835,512265.62,0.0,0.019095004,0.033970993,3986.2441,5191.4336,5128.551,7023.366,0.3110752,0.0,0.0,0.0
242.25044,242.25044,2.866,0.0,0.0,221.0978,9693.0,0.0,100.0,-3.7949219,0.0,6.0,0.0,0.0,4000000.0,110.0,1.0,0.0,0.0,10.0,0.0,0.0,537.40436,35.37878,695.8877,1.0452334,-3.1960292,-0.046861812,212.45216,213.01836,212.84723,214.28766,673.0,673.0,725.0,726.0,89.0,89.0,89.0,89.0,0.0,0.0,0.0,0.0,0.030293921,0.034920424,0.04672931,0.051448617,-13.781748,-20.539907,-8.531659,-10.681673,587.4372,-557.2824,457.5982,-694.59814,0.0,0.0,0.0,2.0,1.0,2.441867,0.016851442,0.005720496,89.0,89.0,89.0,89.0,22.047926,22.047926,24.919281,24.919281,-0.03622273,-0.03783594,-0.033612803,-0.03024301,898.7852,0.0,0.0,0.0,0.0,0.0,0.0,0.0,0.0,0.0,0.0,0.0,0.0,0.0,40.04622,0.020607436,-46.564274,-0.0012582006,0.18092021,0.0030039898,492350.88,0.0,0.020368222,0.034976695,3846.5723,5088.8037,4703.6978,6851.91,0.31192207,0.0,0.0,0.0
245.27722,245.27722,2.916,0.0,0.0,215.19186,9424.0,0.0,100.0,-4.478243,0.0,6.0,0.0,0.0,4000000.0,110.0,1.0,0.0,0.0,10.0,0.0,0.0,539.36804,35.379795,693.5838,1.1648625,-3.1599903,-0.020345699,206.4385,207.16124,206.30609,208.66196,689.0,689.0,740.0,741.0,89.0,89.0,89.0,89.0,0.0,0.0,0.0,0.0,0.02936415,0.034134705,0.046232745,0.051556174,-16.453005,-19.677132,-7.168874,-3.518164,443.16785,-232.57437,-18.829105,-725.7252,0.0,0.0,0.0,2.0,1.0,2.451608,0.016675381,0.0059129,89.0,89.0,89.0,89.0,22.047926,22.047926,24.919281,24.919281,-0.037263256,-0.038913887,-0.037465554,-0.030013436,833.3615,0.0,0.0,0.0,0.0,0.0,0.0,0.0,0.0,0.0,0.0,0.0,0.0,0.0,38.587425,0.022945264,-45.65219,-0.0021364249,0.2117489,0.0028407783,469542.78,0.0,0.02092969,0.036084145,3644.916,5040.149,4478.027,6934.078,0.3120737,0.0,0.0,0.0
248.22229,248.22229,2.966,0.0,0.0,209.42891,10028.0,0.0,100.0,-5.2577925,0.0,6.0,0.0,0.0,4000000.0,110.0,1.0,0.0,0.0,10.0,0.0,0.0,541.2586,35.38108,691.3244,1.3040268,-3.0442781,-0.03326249,200.84421,201.71616,198.7148,202.62097,704.0,704.0,754.0,756.0,89.0,89.0,89.0,89.0,0.0,0.0,0.0,0.0,0.028470652,0.03329538,0.04561197,0.051632464,-13.361535,-20.028725,-10.097399,-6.503686,577.10406,-82.370674,-43.26404,-751.4878,0.0,0.0,0.0,2.0,1.0,2.4627647,0.016025538,0.006031871,89.0,89.0,89.0,89.0,22.047926,22.047926,24.919281,24.919281,-0.03624676,-0.037557334,-0.04511691,-0.032203514,977.64996,0.0,0.0,0.0,0.0,0.0,0.0,0.0,0.0,0.0,0.0,0.0,0.0,0.0,37.11893,0.027548317,-44.793743,-0.006193649,0.23900667,0.011292915,517661.75,0.0,0.021824654,0.037314508,3441.558,4962.198,4126.1714,6904.1694,0.3119793,0.0,0.0,0.0
251.08809,251.08809,3.016,0.0,0.0,203.90666,10322.0,0.0,100.0,-6.362446,0.0,5.0,0.0,0.0,4000000.0,110.0,1.0,0.0,0.0,10.0,0.0,0.0,543.0756,35.38239,689.106,1.4332552,-2.980887,-0.05353501,194.65746,196.38907,188.18991,195.9946,717.0,718.0,767.0,769.0,89.0,89.0,89.0,89.0,0.0,0.0,0.0,0.0,0.027660506,0.032600846,0.044725202,0.051782608,-12.5021105,-9.826942,-20.138023,1.9425898,156.02411,601.4719,-731.34436,346.28656,0.0,0.0,0.0,2.0,1.0,2.4752023,0.014297768,0.006028056,89.0,89.0,89.0,89.0,22.047926,22.047926,24.919281,24.919281,-0.03949394,-0.03787391,-0.06465873,-0.03857492,1034.5211,0.0,0.0,0.0,0.0,0.0,0.0,0.0,0.0,0.0,0.0,0.0,0.0,0.0,35.6492,0.023379892,-44.014854,-0.02301052,0.26269484,0.033506803,532172.6,0.0,0.022798656,0.038383547,3237.795,4955.904,3627.9688,6891.0327,0.3113451,0.0,0.0,0.0
253.87823,253.87823,3.066,0.0,0.0,198.57991,10072.0,0.0,100.0,-7.483405,0.0,5.0,0.0,0.0,4000000.0,110.0,1.0,0.0,0.0,10.0,0.0,0.0,544.8193,35.38346,686.9239,1.4992633,-3.097814,-0.034860007,192.61919,193.74536,185.77086,195.53082,730.0,730.0,779.0,782.0,89.0,89.0,89.0,89.0,0.0,0.0,0.0,0.0,0.027055858,0.03211418,0.044002615,0.051876225,-17.467997,-7.6232843,-14.825239,10.149478,-591.541,41.654716,92.361824,739.00214,0.0,0.0,0.0,2.0,1.0,2.489216,0.012238329,0.0060020685,89.0,89.0,89.0,89.0,22.047926,22.047926,24.919281,24.919281,-0.039829,-0.039098363,-0.08188306,-0.0388452,986.029,0.0,0.0,0.0,0.0,0.0,0.0,0.0,0.0,0.0,0.0,0.0,0.0,0.0,34.170506,0.021276774,-43.302673,-0.036521696,0.29053333,0.036202714,519817.6,0.0,0.023478113,0.039054696,3147.277,4972.5254,3355.9604,6854.1826,0.3098507,0.0,0.0,0.0
256.60376,256.60376,3.116,0.0,0.0,194.73032,9928.0,0.0,100.0,-8.719201,0.0,5.0,0.0,0.0,4000000.0,110.0,1.0,0.0,0.0,10.0,0.0,0.0,546.4931,35.384315,684.76654,1.7693801,-2.3702931,-0.08550981,187.34398,189.31297,182.60266,189.24153,742.0,742.0,791.0,793.0,89.0,89.0,89.0,89.0,0.0,0.0,0.0,0.0,0.02731687,0.03368496,0.042003535,0.051630173,2.7387588,45.863758,-33.896862,2.5067477,-472.64536,-110.735085,1687.1627,62.73687,0.0,0.0,0.0,2.0,1.0,2.5054862,0.011027715,0.0049037933,89.0,89.0,89.0,89.0,22.047926,22.047926,24.919281,24.919281,-0.031218285,-0.030542383,-0.047341097,-0.029772429,954.9054,0.0,0.0,0.0,0.0,0.0,0.0,0.0,0.0,0.0,0.0,0.0,0.0,0.0,32.836853,0.006982635,-42.9844,-0.022713386,0.3331032,0.045699954,510711.44,0.0,0.025144422,0.037966993,3121.4258,5314.668,2363.3318,6617.1543,0.31104183,0.0,0.0,0.0
259.26935,259.26935,3.166,0.0,0.0,190.7759,9779.0,0.0,100.0,-9.968398,0.0,5.0,0.0,0.0,4000000.0,110.0,1.0,0.0,0.0,10.0,0.0,0.0,548.09814,35.384697,682.62854,1.9944572,-1.9359034,-3.362961E-4,185.17934,186.26624,183.99937,187.12592,753.0,754.0,801.0,804.0,89.0,89.0,89.0,89.0,0.0,0.0,0.0,0.0,0.027995614,0.03363549,0.041725732,0.051784903,23.908539,6.9643555,-20.771696,3.9198246,281.87335,856.9925,-1399.6302,171.35289,0.0,0.0,0.0,2.0,1.0,2.522784,0.006581682,0.004946947,89.0,89.0,89.0,89.0,22.047926,22.047926,24.919281,24.919281,-0.022735426,-0.027203282,-0.022721797,-0.021669138,919.1475,0.0,0.0,0.0,0.0,0.0,0.0,0.0,0.0,0.0,0.0,0.0,0.0,0.0,31.462471,0.01366681,-42.64274,-0.034545593,0.37113744,0.07142281,499077.25,0.0,0.024803547,0.037808713,3089.378,5249.1963,2506.1987,6939.1475,0.31447697,0.0,0.0,0.0
261.87665,261.87665,3.216,0.0,0.0,186.74545,9588.0,0.0,100.0,-11.604394,0.0,5.0,0.0,0.0,4000000.0,110.0,1.0,0.0,0.0,10.0,0.0,0.0,549.63354,35.384937,680.5071,2.1144226,-1.8342876,-0.010935801,181.79024,182.92943,182.71613,184.1329,763.0,764.0,811.0,814.0,89.0,89.0,89.0,89.0,0.0,0.0,0.0,0.0,0.027643174,0.03283907,0.041563503,0.051712673,-0.6838515,-11.792555,-1.3200938,-11.374801,978.20154,542.4633,-313.97934,-1398.8925,0.0,0.0,0.0,2.0,1.0,2.5418494,0.0026073665,0.005221367,89.0,89.0,89.0,89.0,22.047926,22.047926,24.919281,24.919281,-0.019886602,-0.02532249,-0.014469955,-0.01687213,874.30756,0.0,0.0,0.0,0.0,0.0,0.0,0.0,0.0,0.0,0.0,0.0,0.0,0.0,30.045746,0.0033138797,-42.286377,-0.030253738,0.41064727,0.049165826,484187.1,0.0,0.024522906,0.037836354,2927.9314,5028.679,2375.5005,7033.275,0.31839466,0.0,0.0,0.0
264.42603,264.42603,3.266,0.0,0.0,182.76367,9370.0,0.0,100.0,-13.381214,0.0,5.0,0.0,0.0,4000000.0,110.0,1.0,0.0,0.0,10.0,0.0,0.0,551.0973,35.38466,678.4007,2.1570637,-2.25823,-0.048828136,177.9292,179.25099,175.01237,181.75623,773.0,774.0,820.0,823.0,89.0,89.0,89.0,89.0,0.0,0.0,0.0,0.0,0.026087765,0.033768076,0.041216694,0.051499642,-44.959183,8.727907,15.427842,-17.411335,-534.8323,-999.6189,1557.8134,-1231.4423,0.0,0.0,0.0,2.0,1.0,2.5632136,1.9408498E-4,0.00601542,89.0,89.0,89.0,89.0,22.047926,22.047926,24.919281,24.919281,-0.02074136,-0.025851227,-0.05221404,-0.008172824,818.9257,0.0,0.0,0.0,0.0,0.0,0.0,0.0,0.0,0.0,0.0,0.0,0.0,0.0,28.57139,-0.014245307,-41.96467,-0.05892965,0.454249,0.027898643,464068.3,0.0,0.025908092,0.03822739,2513.0085,5327.8057,2181.4834,6645.355,0.3224535,0.0,0.0,0.0
266.9166,266.9166,3.316,0.0,0.0,178.86536,9074.0,0.0,100.0,-15.397242,0.0,5.0,0.0,0.0,4000000.0,110.0,1.0,0.0,0.0,10.0,0.0,0.0,552.48645,35.382984,676.3079,2.314365,-2.500084,-0.100049086,171.05882,174.15698,161.33545,175.56892,782.0,783.0,828.0,832.0,89.0,89.0,89.0,89.0,0.0,0.0,0.0,0.0,0.023136003,0.034012523,0.04107637,0.051390126,-73.6073,-15.273838,3.163889,9.414553,-769.57275,-2024.5178,846.08936,514.86334,0.0,0.0,0.0,2.0,1.0,2.5881696,-3.4196934E-4,0.0076215267,89.0,89.0,89.0,89.0,22.047926,22.047926,24.919281,24.919281,-0.04540918,-0.034376986,-0.08948871,-0.034123823,741.18805,0.0,0.0,0.0,0.0,0.0,0.0,0.0,0.0,0.0,0.0,0.0,0.0,0.0,27.041185,-0.05278857,-41.681564,-0.043984067,0.5092171,-0.016524516,433717.2,0.0,0.027252458,0.041030906,1892.5466,5423.3657,2107.531,6525.8594,0.32582283,0.0,0.0,0.0
269.34552,269.34552,3.366,0.0,0.0,175.26976,10358.0,0.0,100.0,-17.654764,0.0,4.0,0.0,0.0,4000000.0,110.0,1.0,0.0,0.0,10.0,0.0,0.0,553.79785,35.378742,674.2287,2.5285132,-2.1025815,-0.14932713,167.30972,171.81673,158.13507,170.62267,790.0,791.0,836.0,839.0,89.0,89.0,89.0,89.0,0.0,0.0,0.0,0.0,0.020498132,0.033538397,0.040461846,0.051464766,-46.890823,5.3720174,-23.693739,16.27609,95.49316,696.1941,-10.621604,505.7841,0.0,0.0,0.0,2.0,1.0,2.615488,0.0010890755,0.00864768,89.0,89.0,89.0,89.0,22.047926,22.047926,24.919281,24.919281,-0.032434117,-0.025201807,-0.070783526,-0.029919267,1041.5433,0.0,0.0,0.0,0.0,0.0,0.0,0.0,0.0,0.0,0.0,0.0,0.0,0.0,25.483406,-0.1145426,-41.4839,0.0056923814,0.555769,-0.03442083,533922.75,0.0,0.02789135,0.04293075,1540.989,5625.613,1728.5287,6555.3125,0.32736588,0.0,0.0,0.0
271.71368,271.71368,3.416,0.0,0.0,171.63634,10122.0,0.0,100.0,-20.943233,0.0,4.0,0.0,0.0,4000000.0,110.0,1.0,0.0,0.0,10.0,0.0,0.0,555.0295,35.37212,672.1601,2.7363183,-2.040287,-0.06039072,163.59605,168.4389,156.63264,167.55417,798.0,799.0,843.0,847.0,89.0,89.0,89.0,89.0,0.0,0.0,0.0,0.0,0.019665185,0.03409825,0.039938513,0.051796477,-14.746337,25.908796,-18.154531,17.302483,-483.59546,1038.6183,-408.04443,963.9992,0.0,0.0,0.0,2.0,1.0,2.6442401,0.002553634,0.00897789,89.0,89.0,89.0,89.0,22.047926,22.047926,24.919281,24.919281,-0.033834096,-0.025674628,-0.061174423,-0.0269188,995.6178,0.0,0.0,0.0,0.0,0.0,0.0,0.0,0.0,0.0,0.0,0.0,0.0,0.0,23.859686,-0.14299898,-41.27673,0.008527109,0.5898386,-0.030999813,522279.9,0.0,0.027889296,0.042736426,1576.2885,5929.9443,1574.3876,6804.4624,0.32732868,0.0,0.0,0.0
274.01843,274.01843,3.466,0.0,0.0,167.88498,9888.0,0.0,100.0,-24.16463,0.0,4.0,0.0,0.0,4000000.0,110.0,1.0,0.0,0.0,10.0,0.0,0.0,556.1784,35.364944,670.103,2.8135624,-2.0846066,-0.031067155,159.58095,164.72633,150.89482,163.40948,805.0,806.0,849.0,854.0,89.0,89.0,89.0,89.0,0.0,0.0,0.0,0.0,0.019132452,0.034273706,0.039729666,0.052048728,-13.412721,1.4488398,-9.517147,9.784922,-651.95776,145.04044,-448.22385,768.2651,0.0,0.0,0.0,2.0,1.0,2.6746688,0.0033639884,0.009493828,89.0,89.0,89.0,89.0,22.047926,22.047926,24.919281,24.919281,-0.034742866,-0.0269394,-0.072553694,-0.02886439,945.1737,0.0,0.0,0.0,0.0,0.0,0.0,0.0,0.0,0.0,0.0,0.0,0.0,0.0,22.183676,-0.14372551,-41.02025,-0.0060015935,0.6231357,-0.016928336,507551.56,0.0,0.027954668,0.04300432,1469.3142,5938.0186,1517.3726,6902.412,0.3275547,0.0,0.0,0.0
