LapDistance [m],TotalDistance [m],LapTime [s],Sector1Time [s],Sector2Time [s],Speed [km/h],EngineRevs [rpm],ThrottlePercentage [%],BrakePercentage [%],Steer [%],Clutch [%],Gear [int],DRS [0/1],CanUseDRS [0/1],KERSLevel [J],EngineTemperature [C],RacePosition [int],Sector [int],InPits [int],FuelRemaining [kg],CurrentFlag [int],CurrentLapInvalid [int],X [m],Y [m],Z [m],GForceLatitudinal [G],GForceLongitudinal [G],GForceVertical [G],WheelSpeedRearLeft [km/h],WheelSpeedRearRight [km/h],WheelSpeedFrontLeft [km/h],WheelSpeedFrontRight [km/h],BrakeTemperatureRearLeft [C],BrakeTemperatureRearRight [C],BrakeTemperatureFrontLeft [C],BrakeTemperatureFrontRight [C],TyreTemperatureRearLeft [C],TyreTemperatureRearRight [C],TyreTemperatureFrontLeft [C],TyreTemperatureFrontRight [C],TyreWearRearLeft [%],TyreWearRearRight [%],TyreWearFrontLeft [%],TyreWearFrontRight [%],SuspensionPositionRearLeft [m],SuspensionPositionRearRight [m],SuspensionPositionFrontLeft [m],SuspensionPositionFrontRight [m],SuspensionVelocityRearLeft [m/s],SuspensionVelocityRearRight [m/s],SuspensionVelocityFrontLeft [m/s],SuspensionVelocityFrontRight [m/s],SuspensionAccelerationRearLeft [m/s^2],SuspensionAccelerationRearRight [m/s^2],SuspensionAccelerationFrontLeft [m/s^2],SuspensionAccelerationFrontRight [m/s^2],MGUKHarvested [J],MGUHHarvested [J],ERSSpent [J],ERSMode [int],FuelMixMode [int],Yaw [rad],Roll [rad],Pitch [rad],TyreCarcassTemperatureRearLeft [C],TyreCarcassTemperatureRearRight [C],TyreCarcassTemperatureFrontLeft [C],TyreCarcassTemperatureFrontRight [C],TyrePressureRearLeft [PSI],TyrePressureRearRight [PSI],TyrePressureFrontLeft [PSI],TyrePressureFrontRight [PSI],WheelSlipRearLeft [%],WheelSlipRearRight [%],WheelSlipFrontLeft [%],WheelSlipFrontRight [%],Torque [Nm],Handbrake [%],RearLeftInside [C],RearLeftMiddle [C],RearLeftOutside [C],RearRightInside [C],RearRightMiddle [C],RearRightOutside [C],FrontLeftInside [C],FrontLeftMiddle [C],FrontLeftOutside [C],FrontRightInside [C],FrontRightMiddle [C],FrontRightOutside [C],WoldSpeedX [km/h],WoldSpeedY [km/h],WoldSpeedZ [km/h],LocalAngularVelocityX [rad/s],LocalAngularVelocityY [rad/s],LocalAngularVelocityZ [rad/s],IcePower [W],MgukPower [W],FrontRideHeight [m],RearRideHeight [m],LoadRearLeft [N],LoadRearRight [N],LoadFrontLeft [N],LoadFrontRight [N],Extra1 [m],Extra2 [],Extra3 [],Extra4 []
4.1196847,4.1196847,0.033,0.0,0.0,313.42694,11268.0,100.0,0.0,-3.8242698,0.0,8.0,0.0,0.0,4000000.0,110.0,1.0,0.0,0.0,10.0,0.0,0.0,377.16483,35.32022,872.09357,2.197587,0.0857842,0.03712792,318.76996,318.6558,312.42136,313.84793,237.0,237.0,306.0,309.0,89.0,89.0,89.0,89.0,0.0,0.0,0.0,0.0,0.048413392,0.05384545,0.049355656,0.056947846,13.102366,1.6797333,7.505938,0.22038816,-570.78735,-241.35854,-47.139786,-131.10635,0.0,0.0,0.0,2.0,1.0,2.337874,-0.0040714806,-0.0024706125,89.0,89.0,89.0,89.0,22.047926,22.047926,24.919281,24.919281,0.019287724,0.015002435,-3.5037947E-4,-3.953454E-4,1167.045,0.0,0.0,0.0,0.0,0.0,0.0,0.0,0.0,0.0,0.0,0.0,0.0,0.0,63.944283,0.12814917,-59.08541,-0.0083453795,0.2416737,0.004330815,549943.1,119984.91,0.00845263,0.0054296404,6841.2207,10831.816,4902.844,8311.401,0.30314445,0.0,0.0,0.0
7.006996,7.006996,0.083,0.0,0.0,313.46893,11269.0,100.0,0.0,-3.6398902,0.0,8.0,0.0,0.0,4000000.0,110.0,1.0,0.0,0.0,10.0,0.0,0.0,379.2877,35.324646,870.11456,2.159914,0.08548796,0.020535218,318.82413,318.6964,312.49658,313.87396,236.0,236.0,305.0,308.0,89.0,89.0,89.0,89.0,0.0,0.0,0.0,0.0,0.04832793,0.05375476,0.049444757,0.056926407,0.0,0.0,0.0,0.0,-294.43945,-186.84267,-188.88113,-58.13687,0.0,0.0,0.0,2.0,1.0,2.3457751,-0.0042354176,-0.0023183823,89.0,89.0,89.0,89.0,22.047926,22.047926,24.919281,24.919281,0.019222293,0.0150554795,-3.5531638E-4,-3.9180677E-4,1167.1523,0.0,0.0,0.0,0.0,0.0,0.0,0.0,0.0,0.0,0.0,0.0,0.0,0.0,63.4686,0.13495815,-59.61311,-0.0067535033,0.23277426,-0.0012569176,549944.9,119984.9,0.008487098,0.005545785,6851.622,10751.471,4898.543,8271.143,0.30321503,0.0,0.0,0.0
11.342979,11.342979,0.133,0.0,0.0,313.5385,11273.0,100.0,0.0,-3.5012393,0.0,8.0,0.0,0.0,4000000.0,110.0,1.0,0.0,0.0,10.0,0.0,0.0,382.4425,35.331043,867.1135,2.0939488,0.08850789,-0.047299355,318.9515,318.7867,312.61185,313.91714,235.0,235.0,304.0,307.0,89.0,89.0,89.0,89.0,0.0,0.0,0.0,0.0,0.048106074,0.05342381,0.04943073,0.056731116,0.0,0.0,0.0,0.0,167.65147,92.57643,31.810991,-39.97833,0.0,0.0,0.0,2.0,1.0,2.3570843,-0.004526832,-0.00206995,89.0,89.0,89.0,89.0,22.047926,22.047926,24.919281,24.919281,0.01929884,0.0152127175,-3.5485797E-4,-3.9496933E-4,1167.5752,0.0,0.0,0.0,0.0,0.0,0.0,0.0,0.0,0.0,0.0,0.0,0.0,0.0,62.76674,0.116910405,-60.379578,-0.008039253,0.2206392,0.0027588778,549948.94,119984.9,0.008914414,0.006175687,6766.2925,10553.182,4847.686,8127.17,0.30373,0.0,0.0,0.0
15.684339,15.684339,0.183,0.0,0.0,313.62445,11275.0,100.0,0.0,-3.2138684,0.0,8.0,0.0,0.0,4000000.0,110.0,1.0,0.0,0.0,10.0,0.0,0.0,385.56277,35.33613,864.075,2.0082455,0.095071495,-0.03596149,319.01083,318.84436,312.751,313.979,234.0,234.0,303.0,306.0,89.0,89.0,89.0,89.0,0.0,0.0,0.0,0.0,0.04832299,0.05336901,0.049543448,0.05654301,0.0,0.0,0.0,0.0,101.61546,94.49421,65.45931,30.013903,0.0,0.0,0.0,2.0,1.0,2.3677769,-0.004979801,-0.0019574165,89.0,89.0,89.0,89.0,22.047926,22.047926,24.919281,24.919281,0.019092629,0.015225425,-3.670079E-4,-3.9268605E-4,1167.7871,0.0,0.0,0.0,0.0,0.0,0.0,0.0,0.0,0.0,0.0,0.0,0.0,0.0,62.085934,0.08996602,-61.11348,-0.008578343,0.20683482,0.006620257,549951.2,119984.9,0.0089128995,0.006056828,6872.3516,10510.914,4921.099,8062.5093,0.30369186,0.0,0.0,0.0
20.030497,20.030497,0.233,0.0,0.0,313.7276,11278.0,100.0,0.0,-2.9021513,0.0,8.0,0.0,0.0,4000000.0,110.0,1.0,0.0,0.0,10.0,0.0,0.0,388.64972,35.340275,861.0008,1.9027495,0.10019803,-0.003935897,319.07227,318.90466,312.9208,314.04907,233.0,233.0,302.0,304.0,89.0,89.0,89.0,89.0,0.0,0.0,0.0,0.0,0.048602805,0.053361483,0.04978184,0.056407202,0.0,0.0,0.0,0.0,-47.113007,-82.69249,31.207493,-21.176046,0.0,0.0,0.0,2.0,1.0,2.3776786,-0.0055261785,-0.0018469095,89.0,89.0,89.0,89.0,22.047926,22.047926,24.919281,24.919281,0.018782675,0.015205136,-3.7687685E-4,-3.934512E-4,1168.1028,0.0,0.0,0.0,0.0,0.0,0.0,0.0,0.0,0.0,0.0,0.0,0.0,0.0,61.434113,0.07875792,-61.80911,-0.010408825,0.18938845,0.0067959693,549953.5,119984.9,0.008703647,0.005735656,7032.2246,10479.097,5053.0566,8021.214,0.30344677,0.0,0.0,0.0
25.832085,25.832085,0.283,0.0,0.0,313.89594,11282.0,100.0,0.0,-2.2994804,0.0,8.0,0.0,0.0,4000000.0,110.0,1.0,0.0,0.0,10.0,0.0,0.0,392.71704,35.34512,856.8502,1.6963727,0.1086843,-0.017556027,319.2209,319.02832,313.2167,314.1462,232.0,232.0,300.0,303.0,89.0,89.0,89.0,89.0,0.0,0.0,0.0,0.0,0.04883343,0.0530492,0.050130364,0.056067344,4.2714176,-5.413815,5.503669,-6.2097607,72.942665,-0.25480267,24.87748,-37.49728,0.0,0.0,0.0,2.0,1.0,2.389144,-0.0065488955,-0.0016570091,89.0,89.0,89.0,89.0,22.047926,22.047926,24.919281,24.919281,0.018385246,0.015309471,-3.946414E-4,-3.9028644E-4,1168.528,0.0,0.0,0.0,0.0,0.0,0.0,0.0,0.0,0.0,0.0,0.0,0.0,0.0,60.635975,0.06487425,-62.657394,-0.014078732,0.1545341,0.011830805,549958.6,119984.91,0.008701202,0.0057895808,7188.9434,10259.201,5196.6455,7842.873,0.3034916,0.0,0.0,0.0
28.735632,28.735632,0.333,0.0,0.0,313.99612,11285.0,100.0,0.0,-2.0011888,0.0,8.0,0.0,0.0,4000000.0,110.0,1.0,0.0,0.0,10.0,0.0,0.0,394.7317,35.347103,854.7546,1.5710284,0.11414838,-0.018906103,319.28995,319.1018,313.3869,314.20435,231.0,231.0,299.0,302.0,89.0,89.0,89.0,89.0,0.0,0.0,0.0,0.0,0.049013942,0.05289639,0.050331783,0.05584293,0.0,0.0,0.0,0.0,45.43662,25.14573,44.524666,-7.92592,0.0,0.0,0.0,2.0,1.0,2.393949,-0.0071829255,-0.0015977621,89.0,89.0,89.0,89.0,22.047926,22.047926,24.919281,24.919281,0.018125923,0.0153605435,-4.0224387E-4,-3.9067434E-4,1168.8444,0.0,0.0,0.0,0.0,0.0,0.0,0.0,0.0,0.0,0.0,0.0,0.0,0.0,60.27699,0.054939665,-63.041332,-0.014951837,0.13520175,0.014040693,549961.3,119984.9,0.008681689,0.005747845,7301.5557,10145.738,5288.2456,7737.4756,0.30348015,0.0,0.0,0.0
33.094006,33.094006,0.383,0.0,0.0,314.1634,11289.0,100.0,0.0,-1.8366724,0.0,8.0,0.0,0.0,4000000.0,110.0,1.0,0.0,0.0,10.0,0.0,0.0,397.73245,35.349575,851.58844,1.3923581,0.11829603,-0.008259736,319.4138,319.23386,313.63464,314.32187,230.0,230.0,298.0,301.0,89.0,89.0,89.0,89.0,0.0,0.0,0.0,0.0,0.049311012,0.05273558,0.0506624,0.055517353,0.0,0.0,0.0,0.0,-6.8128104,-22.678068,-1.4483927,32.253567,0.0,0.0,0.0,2.0,1.0,2.4001036,-0.008103301,-0.0015252829,89.0,89.0,89.0,89.0,22.047926,22.047926,24.919281,24.919281,0.017747922,0.015378251,-3.9471273E-4,-4.0296998E-4,1169.2689,0.0,0.0,0.0,0.0,0.0,0.0,0.0,0.0,0.0,0.0,0.0,0.0,0.0,59.791775,0.044662036,-63.565536,-0.0134660825,0.11425157,0.011462443,549966.1,119984.914,0.008671409,0.0056234,7498.068,10005.776,5438.353,7593.3477,0.30343437,0.0,0.0,0.0
37.45603,37.45603,0.433,0.0,0.0,314.34616,11296.0,100.0,0.0,-1.6320474,0.0,8.0,0.0,0.0,4000000.0,110.0,1.0,0.0,0.0,10.0,0.0,0.0,400.71063,35.35163,848.3977,1.215172,0.12155229,-0.018543962,319.57526,319.4203,313.87357,314.47513,229.0,229.0,297.0,300.0,89.0,89.0,89.0,89.0,0.0,0.0,0.0,0.0,0.049422935,0.052509394,0.050958194,0.055266093,0.0,0.0,0.0,0.0,60.765434,-22.919481,-42.75441,-151.63866,0.0,0.0,0.0,2.0,1.0,2.4054286,-0.008877719,-0.0014036894,89.0,89.0,89.0,89.0,22.047926,22.047926,24.919281,24.919281,0.017539857,0.015467345,-3.9506797E-4,-4.0678296E-4,1170.0079,0.0,0.0,0.0,0.0,0.0,0.0,0.0,0.0,0.0,0.0,0.0,0.0,0.0,59.36974,0.03632262,-64.02915,-0.013611648,0.100169055,0.013886511,549972.7,119984.9,0.008657201,0.005754046,7633.0215,9816.854,5573.289,7480.769,0.3034582,0.0,0.0,0.0
41.822243,41.822243,0.483,0.0,0.0,314.54333,11302.0,100.0,0.0,-1.3452994,0.0,8.0,0.0,0.0,4000000.0,110.0,1.0,0.0,0.0,10.0,0.0,0.0,403.6693,35.35309,845.1851,1.0504463,0.12559211,-0.010465117,319.7332,319.6061,314.1238,314.6425,228.0,228.0,296.0,299.0,89.0,89.0,89.0,89.0,0.0,0.0,0.0,0.0,0.049778394,0.052318417,0.051274296,0.054908164,0.0,0.0,0.0,0.0,-263.47336,182.29631,-57.922295,95.76824,0.0,0.0,0.0,2.0,1.0,2.4100566,-0.009827159,-0.0013853312,89.0,89.0,89.0,89.0,22.047926,22.047926,24.919281,24.919281,0.017272957,0.015514754,-4.034825E-4,-4.0235376E-4,1170.6431,0.0,0.0,0.0,0.0,0.0,0.0,0.0,0.0,0.0,0.0,0.0,0.0,0.0,59.008327,0.02382232,-64.43667,-0.010856003,0.08579467,0.010665487,549979.1,119984.9,0.008600082,0.005541414,7811.1406,9697.277,5710.6553,7316.5684,0.30334663,0.0,0.0,0.0
47.64958,47.64958,0.533,0.0,0.0,314.8228,11311.0,100.0,0.0,-0.8511129,0.0,8.0,0.0,0.0,4000000.0,110.0,1.0,0.0,0.0,10.0,0.0,0.0,407.58917,35.35451,840.873,0.8188684,0.1281017,0.00366507,319.98755,319.85742,314.49786,314.854,226.0,227.0,295.0,297.0,89.0,89.0,89.0,89.0,0.0,0.0,0.0,0.0,0.05014105,0.052104328,0.05171352,0.054563846,3.7421284,-4.2497363,6.0387697,-6.6918874,-97.27031,1.3947486,-38.154427,-66.10301,0.0,0.0,0.0,2.0,1.0,2.4148133,-0.010971681,-0.0013264418,89.0,89.0,89.0,89.0,22.047926,22.047926,24.919281,24.919281,0.016922683,0.015617834,-4.1481672E-4,-3.9592004E-4,1171.5957,0.0,0.0,0.0,0.0,0.0,0.0,0.0,0.0,0.0,0.0,0.0,0.0,0.0,58.622437,0.020238403,-64.89259,-0.012494816,0.057625674,0.01213885,549988.7,119984.91,0.008483172,0.0053906864,8051.738,9523.641,5917.6797,7165.6875,0.30322647,0.0,0.0,0.0
50.565483,50.565483,0.583,0.0,0.0,314.96735,11316.0,100.0,0.0,-0.6313574,0.0,8.0,0.0,0.0,4000000.0,110.0,1.0,0.0,0.0,10.0,0.0,0.0,409.5404,35.35513,838.70636,0.70115006,0.12862033,0.0011186341,320.13263,319.99875,314.68884,314.96237,226.0,226.0,294.0,296.0,89.0,89.0,89.0,89.0,0.0,0.0,0.0,0.0,0.05025748,0.051940173,0.05191602,0.05437788,0.0,0.0,0.0,0.0,123.944855,38.449455,59.451168,86.52806,0.0,0.0,0.0,2.0,1.0,2.4164832,-0.01154047,-0.0012828112,89.0,89.0,89.0,89.0,22.047926,22.047926,24.919281,24.919281,0.016794842,0.015704941,-4.170085E-4,-3.9482542E-4,1172.125,0.0,0.0,0.0,0.0,0.0,0.0,0.0,0.0,0.0,0.0,0.0,0.0,0.0,58.47135,0.017401557,-65.08274,-0.012594639,0.043663304,0.013278187,549994.06,119984.9,0.008495417,0.005469439,8144.323,9406.514,6022.623,7100.963,0.30329323,0.0,0.0,0.0
54.942078,54.942078,0.633,0.0,0.0,315.18912,11323.0,100.0,0.0,-0.46209005,0.0,8.0,0.0,0.0,4000000.0,110.0,1.0,0.0,0.0,10.0,0.0,0.0,412.45908,35.355778,835.4456,0.5398791,0.12966652,-0.011910912,320.34793,320.2198,314.96722,315.13828,225.0,225.0,293.0,295.0,89.0,89.0,89.0,89.0,0.0,0.0,0.0,0.0,0.050456587,0.0517155,0.052185718,0.054050386,0.0,0.0,0.0,0.0,17.662352,18.453596,10.7958975,31.66348,0.0,0.0,0.0,2.0,1.0,2.4181952,-0.0123811485,-0.0012651682,89.0,89.0,89.0,89.0,22.047926,22.047926,24.919281,24.919281,0.016619828,0.015816754,-4.0929246E-4,-4.0137136E-4,1172.8677,0.0,0.0,0.0,0.0,0.0,0.0,0.0,0.0,0.0,0.0,0.0,0.0,0.0,58.296116,0.0088499375,-65.32235,-0.0105341505,0.02723096,0.01109534,550002.3,119984.91,0.008523735,0.005448632,8285.326,9239.728,6122.8867,6929.5327,0.30327034,0.0,0.0,0.0
59.32183,59.32183,0.683,0.0,0.0,315.41418,11331.0,100.0,0.0,-0.47914562,0.0,8.0,0.0,0.0,4000000.0,110.0,1.0,0.0,0.0,10.0,0.0,0.0,415.37036,35.35603,832.17413,0.42094034,0.12940611,-0.004026741,320.5478,320.45294,315.21176,315.34836,224.0,224.0,292.0,294.0,89.0,89.0,89.0,89.0,0.0,0.0,0.0,0.0,0.050632816,0.05160674,0.05242813,0.053858966,0.0,0.0,0.0,0.0,8.355087,-2.4005768,-23.227928,56.715298,0.0,0.0,0.0,2.0,1.0,2.419384,-0.012976451,-0.0012339354,89.0,89.0,89.0,89.0,22.047926,22.047926,24.919281,24.919281,0.016489893,0.015855694,-3.9994335E-4,-4.116983E-4,1173.7136,0.0,0.0,0.0,0.0,0.0,0.0,0.0,0.0,0.0,0.0,0.0,0.0,0.0,58.170273,0.0024989597,-65.51807,-0.0066340077,0.02263651,0.007059058,550010.44,119984.9,0.008298457,0.00529102,8414.23,9146.279,6245.927,6870.6084,0.30308437,0.0,0.0,0.0
63.70484,63.70484,0.733,0.0,0.0,315.6387,11338.0,100.0,0.0,-0.5359249,0.0,8.0,0.0,0.0,4000000.0,110.0,1.0,0.0,0.0,10.0,0.0,0.0,418.27628,35.356323,828.89374,0.35036933,0.12772655,0.010296746,320.73215,320.6876,315.427,315.58508,223.0,223.0,290.0,293.0,89.0,89.0,89.0,89.0,0.0,0.0,0.0,0.0,0.05079193,0.051622614,0.052599877,0.053772856,0.0,0.0,0.0,0.0,-178.1523,-98.02132,-80.18462,-61.087315,0.0,0.0,0.0,2.0,1.0,2.420612,-0.013332835,-0.0012521744,89.0,89.0,89.0,89.0,22.047926,22.047926,24.919281,24.919281,0.016385583,0.015823873,-3.9635264E-4,-4.143782E-4,1174.4557,0.0,0.0,0.0,0.0,0.0,0.0,0.0,0.0,0.0,0.0,0.0,0.0,0.0,58.07533,0.007878488,-65.68551,-0.0041189943,0.02684444,0.0029876623,550018.4,119984.914,0.008307657,0.0051796734,8524.752,9130.769,6310.888,6823.8257,0.30303574,0.0,0.0,0.0
69.55365,69.55365,0.783,0.0,0.0,315.93396,11349.0,100.0,0.0,-0.44916403,0.0,8.0,0.0,0.0,4000000.0,110.0,1.0,0.0,0.0,10.0,0.0,0.0,422.14438,35.35671,824.50775,0.2962395,0.12596437,-0.0147018,321.0224,321.01562,315.7167,315.88782,221.0,222.0,289.0,291.0,89.0,89.0,89.0,89.0,0.0,0.0,0.0,0.0,0.050760753,0.05146298,0.052664693,0.053657725,-0.05498528,-0.5281716,-0.105500214,-1.900345,27.291471,135.00897,-37.00107,10.01805,0.0,0.0,0.0,2.0,1.0,2.4224977,-0.013602087,-0.0011948347,89.0,89.0,89.0,89.0,22.047926,22.047926,24.919281,24.919281,0.016379124,0.0158955,-4.0161808E-4,-4.0696852E-4,1175.62,0.0,0.0,0.0,0.0,0.0,0.0,0.0,0.0,0.0,0.0,0.0,0.0,0.0,57.97599,0.0015776646,-65.88249,-0.0020832121,0.028681563,0.0020639547,550030.0,119984.91,0.008426155,0.005372646,8524.324,9038.301,6327.079,6769.5483,0.30319405,0.0,0.0,0.0
72.48019,72.48019,0.833,0.0,0.0,316.0809,11354.0,100.0,0.0,-0.43142965,0.0,8.0,0.0,0.0,4000000.0,110.0,1.0,0.0,0.0,10.0,0.0,0.0,424.07608,35.356655,822.30994,0.2822125,0.12547776,-0.0119480295,321.16504,321.16104,315.86642,316.03238,221.0,221.0,288.0,291.0,89.0,89.0,89.0,89.0,0.0,0.0,0.0,0.0,0.05080583,0.05146086,0.052690014,0.05362249,0.0,0.0,0.0,0.0,25.239586,33.42032,31.878042,49.298996,0.0,0.0,0.0,2.0,1.0,2.4234388,-0.013689294,-0.0011820793,89.0,89.0,89.0,89.0,22.047926,22.047926,24.919281,24.919281,0.016350964,0.015891626,-4.018075E-4,-4.0656145E-4,1176.1495,0.0,0.0,0.0,0.0,0.0,0.0,0.0,0.0,0.0,0.0,0.0,0.0,0.0,57.932823,-0.0040407986,-65.974785,-0.0017911787,0.027820203,0.0013901351,550035.44,119984.91,0.008344658,0.0052967444,8546.969,9033.426,6350.8765,6766.8916,0.30309868,0.0,0.0,0.0
76.87246,76.87246,0.883,0.0,0.0,316.29984,11361.0,100.0,0.0,-0.31698075,0.0,8.0,0.0,0.0,4000000.0,110.0,1.0,0.0,0.0,10.0,0.0,0.0,426.97116,35.356453,819.0076,0.2534006,0.12405799,0.017911822,321.36636,321.35718,316.0971,316.24014,220.0,220.0,287.0,290.0,89.0,89.0,89.0,89.0,0.0,0.0,0.0,0.0,0.050967135,0.051563695,0.052806478,0.053650465,0.0,0.0,0.0,0.0,-231.50142,-236.2087,-134.40547,-121.49064,0.0,0.0,0.0,2.0,1.0,2.4247406,-0.013802028,-0.0011894703,89.0,89.0,89.0,89.0,22.047926,22.047926,24.919281,24.919281,0.016249022,0.015841845,-4.0719396E-4,-4.02689E-4,1176.8907,0.0,0.0,0.0,0.0,0.0,0.0,0.0,0.0,0.0,0.0,0.0,0.0,0.0,57.875286,-0.0014059884,-66.10611,-0.0018959054,0.023560021,0.002532498,550042.94,119984.9,0.00818984,0.0050788126,8631.215,9076.25,6424.3765,6801.4697,0.30293846,0.0,0.0,0.0
81.2677,81.2677,0.933,0.0,0.0,316.51517,11369.0,100.0,0.0,-0.0702531,0.0,8.0,0.0,0.0,4000000.0,110.0,1.0,0.0,0.0,10.0,0.0,0.0,429.8637,35.356445,815.69916,0.19770202,0.12196466,0.0028419471,321.59818,321.57346,316.34396,316.42627,219.0,219.0,286.0,289.0,89.0,89.0,89.0,89.0,0.0,0.0,0.0,0.0,0.050974,0.05142697,0.052885693,0.053569693,0.0,0.0,0.0,0.0,74.69951,98.53094,92.99217,33.58125,0.0,0.0,0.0,2.0,1.0,2.4256651,-0.014059698,-0.0011576414,89.0,89.0,89.0,89.0,22.047926,22.047926,24.919281,24.919281,0.01619501,0.015921986,-4.148954E-4,-3.928655E-4,1177.7375,0.0,0.0,0.0,0.0,0.0,0.0,0.0,0.0,0.0,0.0,0.0,0.0,0.0,57.833355,-2.25195E-5,-66.22224,-0.0052079507,0.012483611,0.00539837,550051.4,119984.9,0.008245477,0.005183682,8656.029,9004.186,6461.8936,6758.31,0.3030262,0.0,0.0,0.0
85.66565,85.66565,0.983,0.0,0.0,316.72946,11377.0,100.0,0.0,0.17531788,0.0,8.0,0.0,0.0,4000000.0,110.0,1.0,0.0,0.0,10.0,0.0,0.0,432.75488,35.3563,812.3855,0.11444345,0.12189871,-0.013219072,321.8334,321.76474,316.60822,316.59183,218.0,218.0,285.0,287.0,89.0,89.0,89.0,89.0,0.0,0.0,0.0,0.0,0.051054366,0.051278643,0.053005103,0.053388257,0.0,0.0,0.0,0.0,23.040167,73.77415,11.734656,76.925735,0.0,0.0,0.0,2.0,1.0,2.4258404,-0.0144895315,-0.0011457205,89.0,89.0,89.0,89.0,22.047926,22.047926,24.919281,24.919281,0.016111676,0.015986595,-4.1789157E-4,-3.9049532E-4,1178.5834,0.0,0.0,0.0,0.0,0.0,0.0,0.0,0.0,0.0,0.0,0.0,0.0,0.0,57.81934,-0.006239408,-66.31347,-0.006155058,-0.0044152015,0.0070412084,550059.4,119984.91,0.008289319,0.005234661,8711.28,8903.508,6500.599,6659.124,0.30308914,0.0,0.0,0.0
90.06593,90.06593,1.033,0.0,0.0,316.9424,11384.0,100.0,0.0,0.27904412,0.0,8.0,0.0,0.0,4000000.0,110.0,1.0,0.0,0.0,10.0,0.0,0.0,435.6462,35.35586,809.06805,0.022692561,0.120335996,-0.0012868791,322.03845,321.96036,316.86316,316.76288,217.0,217.0,284.0,286.0,89.0,89.0,89.0,89.0,0.0,0.0,0.0,0.0,0.05124698,0.051220767,0.05319871,0.053240694,0.0,0.0,0.0,0.0,-21.886824,57.22492,5.9410853,1.7434357,0.0,0.0,0.0,2.0,1.0,2.4252234,-0.014965033,-0.0011649132,89.0,89.0,89.0,89.0,22.047926,22.047926,24.919281,24.919281,0.015961431,0.016029144,-4.1166713E-4,-3.9596763E-4,1179.0332,0.0,0.0,0.0,0.0,0.0,0.0,0.0,0.0,0.0,0.0,0.0,0.0,0.0,57.839012,-0.009716018,-66.37479,-0.0055513126,-0.017961344,0.0066762636,549930.94,119984.9,0.008095744,0.0050173425,8833.744,8850.27,6603.9116,6602.517,0.3028412,0.0,0.0,0.0
94.46908,94.46908,1.083,0.0,0.0,317.15167,11391.0,100.0,0.0,0.2119273,0.0,8.0,0.0,0.0,4000000.0,110.0,1.0,0.0,0.0,10.0,0.0,0.0,438.53934,35.35563,805.74835,-0.043642838,0.117464215,0.009569234,322.22348,322.17313,317.07944,316.9654,216.0,216.0,283.0,285.0,89.0,89.0,89.0,89.0,0.0,0.0,0.0,0.0,0.05136868,0.051201325,0.053365085,0.053177763,0.0,0.0,0.0,0.0,-155.8095,-67.162506,-102.58108,-41.869274,0.0,0.0,0.0,2.0,1.0,2.4242437,-0.015294299,-0.0011973381,89.0,89.0,89.0,89.0,22.047926,22.047926,24.919281,24.919281,0.015862273,0.016031535,-4.0197987E-4,-4.0390866E-4,1179.4597,0.0,0.0,0.0,0.0,0.0,0.0,0.0,0.0,0.0,0.0,0.0,0.0,0.0,57.88593,-0.0013720723,-66.41101,-0.0032314195,-0.019289311,0.003484425,549791.8,119984.9,0.008067572,0.004968097,8928.448,8815.725,6673.8745,6577.763,0.30282593,0.0,0.0,0.0
98.87515,98.87515,1.133,0.0,0.0,317.35666,11399.0,100.0,0.0,0.07555781,0.0,8.0,0.0,0.0,4000000.0,110.0,1.0,0.0,0.0,10.0,0.0,0.0,441.4352,35.35556,802.4272,-0.06972555,0.1154839,-0.0075875185,322.41815,322.41238,317.26584,317.18884,215.0,215.0,282.0,284.0,89.0,89.0,89.0,89.0,0.0,0.0,0.0,0.0,0.051324654,0.051097967,0.053407975,0.05310776,0.0,0.0,0.0,0.0,-10.594723,-15.087424,-95.74144,-41.413296,0.0,0.0,0.0,2.0,1.0,2.4234376,-0.015442518,-0.0011789799,89.0,89.0,89.0,89.0,22.047926,22.047926,24.919281,24.919281,0.01588553,0.016068576,-3.948941E-4,-4.087642E-4,1179.9631,0.0,0.0,0.0,0.0,0.0,0.0,0.0,0.0,0.0,0.0,0.0,0.0,0.0,57.947315,-0.0020099771,-66.43302,-4.3828692E-4,-0.0122784,0.0010849962,549640.44,119984.91,0.0081672035,0.005138725,8916.441,8750.766,6687.7026,6547.025,0.30296803,0.0,0.0,0.0
104.75438,104.75438,1.183,0.0,0.0,317.62698,11408.0,100.0,0.0,0.0643101,0.0,8.0,0.0,0.0,4000000.0,110.0,1.0,0.0,0.0,10.0,0.0,0.0,445.30127,35.35519,797.9974,-0.06725344,0.11429556,-0.00468511,322.66168,322.69077,317.51007,317.48532,213.0,214.0,280.0,283.0,89.0,89.0,89.0,89.0,0.0,0.0,0.0,0.0,0.051354602,0.051151693,0.053391732,0.053107373,1.0883062,1.1064111,0.35382804,0.7718056,-0.3620982,0.4962086,20.465252,27.653572,0.0,0.0,0.0,2.0,1.0,2.4229712,-0.015421147,-0.0011991262,89.0,89.0,89.0,89.0,22.047926,22.047926,24.919281,24.919281,0.015864499,0.016009498,-4.0096586E-4,-4.023138E-4,1180.5026,0.0,0.0,0.0,0.0,0.0,0.0,0.0,0.0,0.0,0.0,0.0,0.0,0.0,58.031094,-0.007672323,-66.45958,2.194151E-4,-0.0038929763,-3.3458858E-4,549457.94,119984.89,0.008049244,0.0049819276,8930.306,8782.367,6687.343,6559.7236,0.3028183,0.0,0.0,0.0
109.16701,109.16701,1.233,0.0,0.0,317.8262,11415.0,100.0,0.0,0.14999422,0.0,8.0,0.0,0.0,4000000.0,110.0,1.0,0.0,0.0,10.0,0.0,0.0,448.20444,35.354992,794.6739,-0.066395245,0.11198401,0.009405008,322.8517,322.8731,317.7144,317.67972,212.0,213.0,279.0,282.0,89.0,89.0,89.0,89.0,0.0,0.0,0.0,0.0,0.051424857,0.05121653,0.053440258,0.05315828,-0.5706399,-0.7595121,-0.07219612,-0.13276933,-90.64524,-100.01956,-40.970737,-52.370125,0.0,0.0,0.0,2.0,1.0,2.422742,-0.01541565,-0.001221776,89.0,89.0,89.0,89.0,22.047926,22.047926,24.919281,24.919281,0.015801506,0.015961377,-4.0574415E-4,-3.970575E-4,1180.947,0.0,0.0,0.0,0.0,0.0,0.0,0.0,0.0,0.0,0.0,0.0,0.0,0.0,58.092022,-0.0010986486,-66.479836,-2.874225E-4,-0.006073199,-4.5412686E-5,549327.7,119984.91,0.007996523,0.004887963,8967.339,8820.796,6712.156,6584.9414,0.30276203,0.0,0.0,0.0
112.11034,112.11034,1.283,0.0,0.0,317.9567,11419.0,100.0,0.0,0.1774516,0.0,8.0,0.0,0.0,4000000.0,110.0,1.0,0.0,0.0,10.0,0.0,0.0,450.14154,35.354984,792.4576,-0.068297714,0.11062978,0.0010147822,322.99365,323.00552,317.8521,317.8033,212.0,212.0,278.0,281.0,89.0,89.0,89.0,89.0,0.0,0.0,0.0,0.0,0.051382102,0.051172193,0.053441606,0.053156305,0.0,0.0,0.0,0.0,22.007524,22.611021,41.963154,40.47453,0.0,0.0,0.0,2.0,1.0,2.422496,-0.0154219875,-0.0012055635,89.0,89.0,89.0,89.0,22.047926,22.047926,24.919281,24.919281,0.0158106,0.01598193,-4.0528603E-4,-3.964448E-4,1181.1549,0.0,0.0,0.0,0.0,0.0,0.0,0.0,0.0,0.0,0.0,0.0,0.0,0.0,58.13244,-1.3780859E-4,-66.49265,-4.4787666E-4,-0.008498384,2.4320833E-4,549231.94,119984.89,0.00804523,0.0049836687,8947.601,8798.925,6718.453,6589.6074,0.30283737,0.0,0.0,0.0
116.527626,116.527626,1.333,0.0,0.0,318.15045,11426.0,100.0,0.0,0.22076792,0.0,8.0,0.0,0.0,4000000.0,110.0,1.0,0.0,0.0,10.0,0.0,0.0,453.04984,35.354893,789.13245,-0.08143814,0.10939292,-0.009458627,323.19415,323.19778,318.0566,317.98615,211.0,211.0,277.0,280.0,89.0,89.0,89.0,89.0,0.0,0.0,0.0,0.0,0.051378164,0.051134408,0.053442035,0.053120296,0.0,0.0,0.0,0.0,60.59109,24.421509,20.116564,31.770761,0.0,0.0,0.0,2.0,1.0,2.4219716,-0.015475741,-0.0012096167,89.0,89.0,89.0,89.0,22.047926,22.047926,24.919281,24.919281,0.015794408,0.016000675,-4.043531E-4,-3.955655E-4,1181.5839,0.0,0.0,0.0,0.0,0.0,0.0,0.0,0.0,0.0,0.0,0.0,0.0,0.0,58.19615,-0.003764738,-66.50842,-0.0010291049,-0.012167067,0.0017727485,549094.8,119984.9,0.008061564,0.0050057992,8947.535,8776.265,6710.9893,6564.1816,0.30286503,0.0,0.0,0.0
120.94739,120.94739,1.383,0.0,0.0,318.34238,11433.0,100.0,0.0,0.2290769,0.0,8.0,0.0,0.0,4000000.0,110.0,1.0,0.0,0.0,10.0,0.0,0.0,455.96143,35.35465,785.8069,-0.097194664,0.108359724,0.00203402,323.37524,323.37683,318.25568,318.17038,210.0,210.0,276.0,279.0,89.0,89.0,89.0,89.0,0.0,0.0,0.0,0.0,0.051465243,0.0511759,0.05349699,0.05311003,0.0,0.0,0.0,0.0,-18.265842,-47.984715,12.566149,15.771385,0.0,0.0,0.0,2.0,1.0,2.4212918,-0.015567393,-0.0012327433,89.0,89.0,89.0,89.0,22.047926,22.047926,24.919281,24.919281,0.01573167,0.015971757,-4.0272655E-4,-3.973833E-4,1182.0365,0.0,0.0,0.0,0.0,0.0,0.0,0.0,0.0,0.0,0.0,0.0,0.0,0.0,58.265366,-0.0044672918,-66.51869,-9.082643E-4,-0.014503738,0.0013006807,548968.8,119984.91,0.007895461,0.004810582,8996.834,8790.223,6748.6616,6570.681,0.30266857,0.0,0.0,0.0
126.84433,126.84433,1.433,0.0,0.0,318.59247,11442.0,100.0,0.0,0.29230663,0.0,8.0,0.0,0.0,4000000.0,110.0,1.0,0.0,0.0,10.0,0.0,0.0,459.8493,35.35468,781.3726,-0.12462142,0.105150424,-0.0025593664,323.6245,323.62784,318.51523,318.41147,209.0,209.0,275.0,277.0,89.0,89.0,89.0,89.0,0.0,0.0,0.0,0.0,0.051493242,0.051136065,0.05356601,0.05308592,-1.1891125,-2.478808,0.25682148,-1.5764682,-24.622673,-39.562572,-6.4775343,-31.368435,0.0,0.0,0.0,2.0,1.0,2.4202242,-0.015700838,-0.0012412071,89.0,89.0,89.0,89.0,22.047926,22.047926,24.919281,24.919281,0.015686773,0.015982995,-4.0312656E-4,-3.9456377E-4,1182.5905,0.0,0.0,0.0,0.0,0.0,0.0,0.0,0.0,0.0,0.0,0.0,0.0,0.0,58.367374,0.002148633,-66.521645,-0.0018882989,-0.017740907,0.0011871774,548794.1,119984.9,0.0079409545,0.004872638,9020.107,8766.421,6770.4097,6547.3066,0.3027277,0.0,0.0,0.0
131.27034,131.27034,1.483,0.0,0.0,318.77576,11448.0,100.0,0.0,0.33811525,0.0,8.0,0.0,0.0,4000000.0,110.0,1.0,0.0,0.0,10.0,0.0,0.0,462.7699,35.35474,778.04706,-0.14677523,0.103818156,-0.009190052,323.8267,323.81445,318.70694,318.58566,208.0,208.0,274.0,276.0,89.0,89.0,89.0,89.0,0.0,0.0,0.0,0.0,0.05149832,0.051085006,0.053599365,0.053044584,0.8077919,-0.9224563,0.42445955,-0.7000565,49.835438,-3.4198163,-4.747508,15.302001,0.0,0.0,0.0,2.0,1.0,2.4192579,-0.015796913,-0.0012484789,89.0,89.0,89.0,89.0,22.047926,22.047926,24.919281,24.919281,0.015717385,0.016012706,-4.0301593E-4,-3.93767E-4,1182.9178,0.0,0.0,0.0,0.0,0.0,0.0,0.0,0.0,0.0,0.0,0.0,0.0,0.0,58.452526,1.9162631E-5,-66.514626,-8.767891E-4,-0.020688912,0.0020946593,548658.3,119984.9,0.007963827,0.0049211583,9029.312,8735.623,6788.3477,6535.4395,0.30277824,0.0,0.0,0.0
135.69955,135.69955,1.533,0.0,0.0,318.95758,11454.0,100.0,0.0,0.37891954,0.0,8.0,0.0,0.0,4000000.0,110.0,1.0,0.0,0.0,10.0,0.0,0.0,465.69495,35.354694,774.72156,-0.16976023,0.10290038,6.22589E-4,323.9976,323.98624,318.89612,318.75958,207.0,207.0,273.0,275.0,89.0,89.0,89.0,89.0,0.0,0.0,0.0,0.0,0.051586725,0.0511192,0.053647906,0.053019118,1.5648453,1.3053416,1.277849,-0.3942847,-34.184746,29.83957,12.740492,12.9953,0.0,0.0,0.0,2.0,1.0,2.4181545,-0.015916925,-0.0012871027,89.0,89.0,89.0,89.0,22.047926,22.047926,24.919281,24.919281,0.015654705,0.015992932,-4.036732E-4,-3.9340035E-4,1183.279,0.0,0.0,0.0,0.0,0.0,0.0,0.0,0.0,0.0,0.0,0.0,0.0,0.0,58.545662,-5.489015E-4,-66.49998,-0.0013948302,-0.023271298,0.0021308712,548538.4,119984.9,0.007849242,0.004742565,9081.232,8747.135,6820.2773,6532.0615,0.30262375,0.0,0.0,0.0
138.6536,138.6536,1.583,0.0,0.0,319.07697,11459.0,100.0,0.0,0.38815156,0.0,8.0,0.0,0.0,4000000.0,110.0,1.0,0.0,0.0,10.0,0.0,0.0,467.64758,35.35476,772.50525,-0.1831783,0.10133858,0.009927234,324.11032,324.10022,319.01947,318.87488,206.0,206.0,272.0,274.0,89.0,89.0,89.0,89.0,0.0,0.0,0.0,0.0,0.0516412,0.051132288,0.05370866,0.05302274,0.0,0.0,0.0,0.0,-119.07665,-132.11218,-67.98058,-58.79401,0.0,0.0,0.0,2.0,1.0,2.4173543,-0.016000384,-0.0013017654,89.0,89.0,89.0,89.0,22.047926,22.047926,24.919281,24.919281,0.015616484,0.015979389,-4.0220816E-4,-3.9351263E-4,1183.6244,0.0,0.0,0.0,0.0,0.0,0.0,0.0,0.0,0.0,0.0,0.0,0.0,0.0,58.61176,0.0038983866,-66.48594,-0.0012599471,-0.02455107,0.0017741491,548459.06,119984.9,0.007820256,0.004710888,9113.596,8751.574,6854.2515,6540.494,0.3025961,0.0,0.0,0.0
143.08687,143.08687,1.633,0.0,0.0,319.2529,11465.0,100.0,0.0,0.41019562,0.0,8.0,0.0,0.0,4000000.0,110.0,1.0,0.0,0.0,10.0,0.0,0.0,470.5809,35.355022,769.1816,-0.20067719,0.099457085,-0.0025800955,324.29187,324.28314,319.19827,319.04788,205.0,205.0,271.0,273.0,89.0,89.0,89.0,89.0,0.0,0.0,0.0,0.0,0.051603105,0.051073078,0.05373107,0.052990325,0.0,0.0,0.0,0.0,39.079777,36.974247,28.190012,62.213825,0.0,0.0,0.0,2.0,1.0,2.4161065,-0.016063558,-0.0012968779,89.0,89.0,89.0,89.0,22.047926,22.047926,24.919281,24.919281,0.015618091,0.015999654,-4.0175315E-4,-3.9201693E-4,1183.9696,0.0,0.0,0.0,0.0,0.0,0.0,0.0,0.0,0.0,0.0,0.0,0.0,0.0,58.71556,0.005454462,-66.45951,-9.195597E-4,-0.025535492,0.0012320589,548331.9,119984.914,0.00787032,0.004810003,9104.206,8718.554,6859.673,6524.621,0.30268288,0.0,0.0,0.0
147.5225,147.5225,1.683,0.0,0.0,319.4265,11471.0,100.0,0.0,0.4093408,0.0,8.0,0.0,0.0,4000000.0,110.0,1.0,0.0,0.0,10.0,0.0,0.0,473.51956,35.35526,765.8595,-0.21322048,0.09852178,-0.0047279475,324.45914,324.4553,319.3738,319.21906,204.0,204.0,270.0,272.0,89.0,89.0,89.0,89.0,0.0,0.0,0.0,0.0,0.0516451,0.05106783,0.05374939,0.052963942,0.0,0.0,0.0,0.0,33.08504,127.48538,12.888014,12.660026,0.0,0.0,0.0,2.0,1.0,2.4148154,-0.01614202,-0.0013338327,89.0,89.0,89.0,89.0,22.047926,22.047926,24.919281,24.919281,0.015588542,0.015993234,-4.0038995E-4,-3.928184E-4,1184.3329,0.0,0.0,0.0,0.0,0.0,0.0,0.0,0.0,0.0,0.0,0.0,0.0,0.0,58.82436,0.0042342623,-66.42766,-3.1828892E-4,-0.026140908,0.0015548978,548213.25,119984.89,0.007845044,0.004745697,9127.434,8713.17,6864.556,6507.2246,0.30262566,0.0,0.0,0.0
151.96056,151.96056,1.733,0.0,0.0,319.5978,11477.0,100.0,0.0,0.43471548,0.0,8.0,0.0,0.0,4000000.0,110.0,1.0,0.0,0.0,10.0,0.0,0.0,476.46375,35.35551,762.539,-0.22618529,0.09696263,0.0012610629,324.62448,324.62256,319.5485,319.3869,203.0,204.0,269.0,271.0,89.0,89.0,89.0,89.0,0.0,0.0,0.0,0.0,0.05168904,0.051073566,0.053794626,0.05295752,0.0,0.0,0.0,0.0,-19.76788,-15.637275,1.4349817,-2.0518897,0.0,0.0,0.0,2.0,1.0,2.4134781,-0.01621776,-0.0013508797,89.0,89.0,89.0,89.0,22.047926,22.047926,24.919281,24.919281,0.015550052,0.015980428,-4.0094435E-4,-3.920436E-4,1184.7012,0.0,0.0,0.0,0.0,0.0,0.0,0.0,0.0,0.0,0.0,0.0,0.0,0.0,58.93761,0.0062723407,-66.39084,-7.550018E-4,-0.027345054,0.0010042875,548097.0,119984.9,0.007746471,0.004656911,9154.988,8713.784,6893.823,6513.497,0.30252838,0.0,0.0,0.0
157.88152,157.88152,1.783,0.0,0.0,319.82117,11485.0,100.0,0.0,0.4716164,0.0,8.0,0.0,0.0,4000000.0,110.0,1.0,0.0,0.0,10.0,0.0,0.0,480.3983,35.35614,758.11487,-0.24205817,0.09458512,-0.002942646,324.84723,324.84512,319.77664,319.6053,202.0,202.0,268.0,270.0,89.0,89.0,89.0,89.0,0.0,0.0,0.0,0.0,0.051701933,0.051058106,0.053830866,0.052948292,-0.3455579,-1.13748,0.10438263,-0.8153915,-4.5329328,-13.558562,-0.20116566,-20.478662,0.0,0.0,0.0,2.0,1.0,2.4116106,-0.016281411,-0.0013734102,89.0,89.0,89.0,89.0,22.047926,22.047926,24.919281,24.919281,0.015523615,0.01597919,-4.0103935E-4,-3.899385E-4,1185.1904,0.0,0.0,0.0,0.0,0.0,0.0,0.0,0.0,0.0,0.0,0.0,0.0,0.0,59.094048,0.010803032,-66.334755,-9.952459E-4,-0.029063448,0.0011852331,547941.44,119984.9,0.0077612014,0.0046854913,9167.743,8701.996,6903.853,6502.7656,0.30255795,0.0,0.0,0.0
160.84357,160.84357,1.833,0.0,0.0,319.93106,11489.0,100.0,0.0,0.4724233,0.0,8.0,0.0,0.0,4000000.0,110.0,1.0,0.0,0.0,10.0,0.0,0.0,482.36954,35.356506,755.9042,-0.24830481,0.09376273,-0.0048290184,324.95764,324.9546,319.8887,319.71286,202.0,202.0,267.0,269.0,89.0,89.0,89.0,89.0,0.0,0.0,0.0,0.0,0.051702373,0.05104604,0.053849205,0.05293064,0.0,0.0,0.0,0.0,-16.33465,21.22968,-33.554432,9.347496,0.0,0.0,0.0,2.0,1.0,2.4106288,-0.01631289,-0.001382947,89.0,89.0,89.0,89.0,22.047926,22.047926,24.919281,24.919281,0.015515772,0.015979199,-4.003062E-4,-3.904684E-4,1185.437,0.0,0.0,0.0,0.0,0.0,0.0,0.0,0.0,0.0,0.0,0.0,0.0,0.0,59.174606,0.010928275,-66.30382,-1.3993777E-4,-0.029740911,7.538279E-4,547864.6,119984.9,0.0077799326,0.0047060945,9170.527,8694.518,6913.9644,6498.5737,0.30258274,0.0,0.0,0.0
165.28845,165.28845,1.883,0.0,0.0,320.0941,11494.0,100.0,0.0,0.47553536,0.0,8.0,0.0,0.0,4000000.0,110.0,1.0,0.0,0.0,10.0,0.0,0.0,485.3315,35.357056,752.59033,-0.2578407,0.09270574,-0.0024856138,325.11432,325.11365,320.05377,319.87347,201.0,201.0,266.0,268.0,89.0,89.0,89.0,89.0,0.0,0.0,0.0,0.0,0.05174439,0.0510589,0.053868927,0.05292531,0.0,0.0,0.0,0.0,-6.531175,116.5822,-5.0023193,9.749827,0.0,0.0,0.0,2.0,1.0,2.409118,-0.016360564,-0.0014196634,89.0,89.0,89.0,89.0,22.047926,22.047926,24.919281,24.919281,0.015484741,0.015964972,-3.9930647E-4,-3.9067405E-4,1185.714,0.0,0.0,0.0,0.0,0.0,0.0,0.0,0.0,0.0,0.0,0.0,0.0,0.0,59.29827,0.0110601615,-66.25403,1.07253116E-4,-0.030417494,9.742556E-4,547754.25,119984.9,0.0077141635,0.0046191565,9195.264,8699.692,6927.3574,6500.705,0.30249977,0.0,0.0,0.0
169.73549,169.73549,1.933,0.0,0.0,320.25464,11500.0,100.0,0.0,0.482838,0.0,8.0,0.0,0.0,4000000.0,110.0,1.0,0.0,0.0,10.0,0.0,0.0,488.29974,35.35771,749.279,-0.26525328,0.09106189,0.006181458,325.2671,325.26993,320.21436,320.03384,200.0,200.0,265.0,267.0,89.0,89.0,89.0,89.0,0.0,0.0,0.0,0.0,0.05178744,0.051085576,0.05391102,0.052940004,0.0,0.0,0.0,0.0,-96.65339,-71.13217,-48.145645,-44.61854,0.0,0.0,0.0,2.0,1.0,2.4075928,-0.016403394,-0.0014442205,89.0,89.0,89.0,89.0,22.047926,22.047926,24.919281,24.919281,0.015451023,0.01594264,-3.9937187E-4,-3.9004E-4,1186.0989,0.0,0.0,0.0,0.0,0.0,0.0,0.0,0.0,0.0,0.0,0.0,0.0,0.0,59.424202,0.015596162,-66.20104,-2.2064307E-4,-0.030471822,7.998434E-4,547646.2,119984.9,0.0076599396,0.004557284,9220.39,8710.771,6953.9214,6514.6807,0.3024416,0.0,0.0,0.0
175.66795,175.66795,1.983,0.0,0.0,320.46423,11507.0,100.0,0.0,0.46377507,0.0,8.0,0.0,0.0,4000000.0,110.0,1.0,0.0,0.0,10.0,0.0,0.0,492.26718,35.358864,744.86804,-0.26688987,0.0891628,-0.004603814,325.47803,325.48486,320.42175,320.2461,198.0,199.0,264.0,266.0,89.0,89.0,89.0,89.0,0.0,0.0,0.0,0.0,0.051758695,0.051053043,0.053910527,0.052933175,0.14081596,-0.40389594,-0.08963048,-0.28945503,39.18707,-11.385976,-8.609889,-33.004578,0.0,0.0,0.0,2.0,1.0,2.405602,-0.016410464,-0.0014635324,89.0,89.0,89.0,89.0,22.047926,22.047926,24.919281,24.919281,0.015452924,0.015941437,-3.9789188E-4,-3.9020815E-4,1186.4987,0.0,0.0,0.0,0.0,0.0,0.0,0.0,0.0,0.0,0.0,0.0,0.0,0.0,59.592598,0.017639829,-66.12789,2.2122827E-4,-0.029550966,5.6834245E-4,547497.5,119984.91,0.0076957587,0.0046220273,9208.799,8694.592,6946.7637,6505.3394,0.3024912,0.0,0.0,0.0
178.63524,178.63524,2.033,0.0,0.0,320.56467,11508.0,99.432365,0.0,0.46208003,0.0,8.0,0.0,0.0,4000000.0,110.0,1.0,0.0,0.0,10.0,0.0,0.0,494.25513,35.35946,742.6645,-0.26694348,0.083243385,-0.0038861977,325.5156,325.52167,320.5234,320.34814,198.0,198.0,263.0,265.0,89.0,89.0,89.0,89.0,0.0,0.0,0.0,0.0,0.051765434,0.051055722,0.053913478,0.052930377,0.0,0.0,0.0,0.0,-7.7649937,-2.1859999,13.062356,14.39005,0.0,0.0,0.0,2.0,1.0,2.4046156,-0.016417297,-0.0014802217,89.0,89.0,89.0,89.0,22.047926,22.047926,24.919281,24.919281,0.015269728,0.01575575,-3.93967E-4,-3.8633854E-4,1186.5454,0.0,0.0,0.0,0.0,0.0,0.0,0.0,0.0,0.0,0.0,0.0,0.0,0.0,59.676315,0.017641734,-66.08994,3.0680848E-4,-0.029479977,1.433005E-4,547471.5,111092.57,0.007675337,0.004596755,9214.367,8698.804,6951.4785,6507.75,0.3024683,0.0,0.0,0.0
183.08664,183.08664,2.083,0.0,0.0,320.4359,11430.0,78.22995,2.653887,0.43751422,0.0,8.0,0.0,0.0,4000000.0,110.0,1.0,0.0,0.0,10.0,0.0,0.0,497.2414,35.360443,739.36237,-0.2645019,-0.21834077,0.011179727,323.32767,323.28848,320.21338,320.03745,198.0,198.0,262.0,265.0,89.0,89.0,89.0,89.0,0.0,0.0,0.0,0.0,0.05153243,0.050832454,0.053975567,0.053000826,0.0,0.0,0.0,0.0,-144.32965,-150.1098,-16.227364,-14.846026,0.0,0.0,0.0,2.0,1.0,2.403163,-0.016403455,-0.001308322,89.0,89.0,89.0,89.0,22.047926,22.047926,24.919281,24.919281,0.009129957,0.00946759,-9.989742E-4,-0.0010170552,1181.8282,0.0,0.0,0.0,0.0,0.0,0.0,0.0,0.0,0.0,0.0,0.0,0.0,0.0,59.74899,0.02280984,-65.976006,-0.006657621,-0.028350886,-0.006708072,549016.2,0.0,0.0074503473,0.004867581,9178.087,8667.625,7058.281,6619.4077,0.30244637,0.0,0.0,0.0
187.52771,187.52771,2.133,0.0,0.0,319.0646,11338.0,54.761578,19.804935,0.40333086,0.0,8.0,0.0,0.0,4000000.0,110.0,1.0,0.0,0.0,10.0,0.0,0.0,500.22556,35.361824,736.07214,-0.25449815,-1.0083183,0.0013625622,319.6379,319.5519,317.44916,317.24292,207.0,207.0,270.0,272.0,89.0,89.0,89.0,89.0,0.0,0.0,0.0,0.0,0.050961707,0.050271608,0.054112125,0.053159848,0.0,0.0,0.0,0.0,-228.17549,-182.873,97.39101,139.90399,0.0,0.0,0.0,2.0,1.0,2.4017825,-0.016368255,-5.661249E-4,89.0,89.0,89.0,89.0,22.047926,22.047926,24.919281,24.919281,0.0017798124,0.0019257993,-0.0053561167,-0.0055043707,1174.4546,0.0,0.0,0.0,0.0,0.0,0.0,0.0,0.0,0.0,0.0,0.0,0.0,0.0,59.586555,0.029759955,-65.60908,-0.009889338,-0.026642669,-0.011235783,550017.9,0.0,0.0069304677,0.00630636,8814.604,8321.799,7456.213,7029.502,0.30272484,0.0,0.0,0.0
191.94058,191.94058,2.183,0.0,0.0,316.4959,11158.0,32.993057,35.55736,0.23815241,0.0,8.0,0.0,0.0,4000000.0,110.0,1.0,0.0,0.0,10.0,0.0,0.0,503.19537,35.363174,732.8068,-0.22188962,-1.661354,-0.013139833,314.89316,314.79922,313.5932,313.3944,227.0,227.0,288.0,290.0,89.0,89.0,89.0,89.0,0.0,0.0,0.0,0.0,0.050462615,0.04987103,0.054082956,0.053177927,0.0,0.0,0.0,0.0,21.953886,878.8257,-385.55405,387.6596,0.0,0.0,0.0,2.0,1.0,2.400625,-0.015872717,-1.1920929E-6,89.0,89.0,89.0,89.0,22.047926,22.047926,24.919281,24.919281,-0.0049728607,-0.0049738004,-0.009419167,-0.009684948,1155.407,0.0,0.0,0.0,0.0,0.0,0.0,0.0,0.0,0.0,0.0,0.0,0.0,0.0,59.190376,0.024169002,-65.00492,0.0044392473,-0.019249087,-0.019231739,549826.44,0.0,0.0064837406,0.0073511875,8477.067,8067.1826,7648.5537,7271.111,0.30288887,0.0,0.0,0.0
197.75465,197.75465,2.233,0.0,0.0,311.49423,10882.0,9.295795,53.322186,0.09609972,0.0,8.0,0.0,0.0,4000000.0,110.0,1.0,0.0,0.0,10.0,0.0,0.0,507.11398,35.365192,728.50977,-0.15982127,-2.4210718,0.021330133,307.40524,307.33792,307.0894,306.9125,265.0,265.0,321.0,323.0,89.0,89.0,89.0,89.0,0.0,0.0,0.0,0.0,0.049921278,0.049504325,0.053876877,0.05314954,-11.075734,-9.304806,-3.557056,-4.4155865,-417.48578,-265.1363,19.097326,-36.598747,0.0,0.0,0.0,2.0,1.0,2.3998044,-0.015301367,5.5253506E-4,89.0,89.0,89.0,89.0,22.047926,22.047926,24.919281,24.919281,-0.012969941,-0.013102094,-0.014246251,-0.014671074,1122.2762,0.0,0.0,0.0,0.0,0.0,0.0,0.0,0.0,0.0,0.0,0.0,0.0,0.0,58.34109,0.037919253,-63.8991,-0.0016368316,-0.0067004543,-0.014600698,547605.8,0.0,0.0064132605,0.008589461,8077.1055,7780.97,7814.7725,7476.7,0.30322933,0.0,0.0,0.0
202.04326,202.04326,2.283,0.0,0.0,306.27582,10602.0,0.0,77.55747,-0.019584281,0.0,8.0,0.0,0.0,4000000.0,110.0,1.0,0.0,0.0,10.0,0.0,0.0,510.0075,35.36723,725.34283,-0.092406034,-3.2287292,-0.025181793,299.54086,299.56116,299.33286,297.9492,304.0,304.0,359.0,360.0,89.0,89.0,89.0,89.0,0.0,0.0,0.0,0.0,0.048919514,0.04907714,0.053552356,0.052531976,-25.12738,-11.379271,-8.518024,-12.861415,-142.42537,152.26901,-264.3987,-40.43432,0.0,0.0,0.0,2.0,1.0,2.399717,-0.0142637575,0.0014129877,89.0,89.0,89.0,89.0,22.047926,22.047926,24.919281,24.919281,-0.021690715,-0.021684991,-0.022709848,-0.027039165,1083.6635,0.0,0.0,0.0,0.0,0.0,0.0,0.0,0.0,0.0,0.0,0.0,0.0,0.0,57.40305,0.03868387,-62.792664,0.006255619,8.3868724E-4,-0.0411708,542729.75,0.0,0.007473363,0.01101854,7371.023,7396.3647,7973.2144,7500.683,0.30396652,0.0,0.0,0.0
204.85794,204.85794,2.333,0.0,0.0,302.16623,10410.0,0.0,86.159645,-0.12283926,0.0,8.0,0.0,0.0,4000000.0,110.0,1.0,0.0,0.0,10.0,0.0,0.0,511.90747,35.3684,723.2651,-0.07254958,-3.545249,-0.020222135,294.27487,293.86978,294.2167,292.74704,333.0,333.0,387.0,389.0,89.0,89.0,89.0,89.0,0.0,0.0,0.0,0.0,0.048099436,0.04855147,0.05326433,0.052601855,0.0,0.0,0.0,0.0,515.19855,-128.69241,-240.51369,651.45483,0.0,0.0,0.0,2.0,1.0,2.3998623,-0.013187181,0.0019841194,89.0,89.0,89.0,89.0,22.047926,22.047926,24.919281,24.919281,-0.025684228,-0.027268806,-0.026166622,-0.031072339,1051.8289,0.0,0.0,0.0,0.0,0.0,0.0,0.0,0.0,0.0,0.0,0.0,0.0,0.0,56.649036,0.03316885,-61.935287,0.00971949,0.010465148,-0.022432383,536502.0,0.0,0.0074684843,0.012733203,6939.97,7014.7847,8055.6494,7813.845,0.30426884,0.0,0.0,0.0
209.00328,209.00328,2.383,0.0,0.0,295.19702,10103.0,0.0,100.0,-0.21864872,0.0,8.0,0.0,0.0,4000000.0,110.0,1.0,0.0,0.0,10.0,0.0,0.0,514.70636,35.36946,720.2057,0.016646862,-4.072161,-0.020479664,285.58594,285.24008,285.12057,282.61243,379.0,379.0,435.0,436.0,89.0,89.0,89.0,89.0,0.0,0.0,0.0,0.0,0.047175117,0.048121147,0.052725527,0.05199034,0.0,0.0,0.0,0.0,-804.8637,24.166687,136.49762,873.8368,0.0,0.0,0.0,2.0,1.0,2.4008048,-0.010779208,0.002487421,89.0,89.0,89.0,89.0,22.047926,22.047926,24.919281,24.919281,-0.03217955,-0.03379746,-0.03388779,-0.04293113,992.0231,0.0,0.0,0.0,0.0,0.0,0.0,0.0,0.0,0.0,0.0,0.0,0.0,0.0,55.348473,0.015764954,-60.501324,0.030299414,0.02383508,-0.051373884,521372.88,0.0,0.00878068,0.014655188,6440.6885,6765.632,7956.128,7666.6807,0.30403233,0.0,0.0,0.0
213.04948,213.04948,2.433,0.0,0.0,288.01712,9842.0,0.0,100.0,-0.32959417,0.0,8.0,0.0,0.0,4000000.0,110.0,1.0,0.0,0.0,10.0,0.0,0.0,517.43774,35.370575,717.219,0.09742427,-4.051663,0.01490438,278.23706,277.85364,277.8515,275.72693,422.0,422.0,479.0,479.0,89.0,89.0,89.0,89.0,0.0,0.0,0.0,0.0,0.045500178,0.047596574,0.052318566,0.05209081,0.0,0.0,0.0,0.0,42.539974,-556.6655,-97.96768,-206.27525,0.0,0.0,0.0,2.0,1.0,2.4021761,-0.008341069,0.0029278994,89.0,89.0,89.0,89.0,22.047926,22.047926,24.919281,24.919281,-0.033596277,-0.035372753,-0.034851238,-0.04286818,934.1821,0.0,0.0,0.0,0.0,0.0,0.0,0.0,0.0,0.0,0.0,0.0,0.0,0.0,53.978127,0.028676383,-59.05186,0.028136052,0.031099938,-0.03867193,503993.8,0.0,0.009590186,0.016660338,6210.0933,6525.82,7739.3877,7648.171,0.30389404,0.0,0.0,0.0
218.29013,218.29013,2.483,0.0,0.0,278.52863,9500.0,0.0,100.0,-0.6117404,0.0,8.0,0.0,0.0,4000000.0,110.0,1.0,0.0,0.0,10.0,0.0,0.0,520.97217,35.372734,713.34766,0.20920455,-4.0154047,-0.0053965654,268.5167,268.24768,267.91733,266.26385,472.0,472.0,530.0,531.0,89.0,89.0,89.0,89.0,0.0,0.0,0.0,0.0,0.043026112,0.045609158,0.051438596,0.051939104,-40.38356,-33.13042,-11.270418,-2.9598174,-143.83345,-233.95567,83.60446,12.364983,0.0,0.0,0.0,2.0,1.0,2.4046214,-0.005274899,0.0033599138,89.0,89.0,89.0,89.0,22.047926,22.047926,24.919281,24.919281,-0.035425067,-0.037161037,-0.037546664,-0.04439175,853.9995,0.0,0.0,0.0,0.0,0.0,0.0,0.0,0.0,0.0,0.0,0.0,0.0,0.0,52.124077,0.035125643,-57.175613,0.019849474,0.04281764,-0.03757397,477321.53,0.0,0.011470223,0.01964215,5784.9116,6240.76,7216.2188,7464.2183,0.3044939,0.0,0.0,0.0
222.10605,222.10605,2.533,0.0,0.0,271.5108,10572.0,0.0,100.0,-1.0038518,0.0,7.0,0.0,0.0,4000000.0,110.0,1.0,0.0,0.0,10.0,0.0,0.0,523.5412,35.374527,710.52496,0.31032395,-3.912782,-0.018323008,262.16736,261.9545,260.59683,259.37854,506.0,506.0,565.0,565.0,89.0,89.0,89.0,89.0,0.0,0.0,0.0,0.0,0.040864237,0.04377289,0.050913934,0.05185176,-42.49401,-35.426613,-11.0448885,-1.0078399,127.10998,174.69244,-54.033047,23.13405,0.0,0.0,0.0,2.0,1.0,2.4071496,-0.0032057834,0.003920436,89.0,89.0,89.0,89.0,22.047926,22.047926,24.919281,24.919281,-0.033055905,-0.034967784,-0.039340727,-0.045152545,1079.5374,0.0,0.0,0.0,0.0,0.0,0.0,0.0,0.0,0.0,0.0,0.0,0.0,0.0,50.71701,0.035703555,-55.820335,0.022464398,0.058307633,-0.03691123,542197.5,0.0,0.012765814,0.022396073,5420.282,5998.246,6935.5073,7388.2314,0.30527687,0.0,0.0,0.0
225.82562,225.82562,2.583,0.0,0.0,264.56897,10246.0,0.0,100.0,-1.4735227,0.0,7.0,0.0,0.0,4000000.0,110.0,1.0,0.0,0.0,10.0,0.0,0.0,526.03955,35.3762,707.76843,0.42449522,-3.9454498,-0.02119669,254.19484,254.19055,253.118,252.60062,537.0,537.0,595.0,595.0,89.0,89.0,89.0,89.0,0.0,0.0,0.0,0.0,0.0387294,0.042140163,0.050271146,0.05180124,-43.59394,-32.73882,-12.101679,0.53152436,-41.65466,-23.684004,68.074486,107.8516,0.0,0.0,0.0,2.0,1.0,2.410671,-0.0011061883,0.0043536425,89.0,89.0,89.0,89.0,22.047926,22.047926,24.919281,24.919281,-0.03817993,-0.039772704,-0.042190097,-0.046060745,1019.6796,0.0,0.0,0.0,0.0,0.0,0.0,0.0,0.0,0.0,0.0,0.0,0.0,0.0,49.28695,0.032020427,-54.514027,0.018294143,0.08187094,-0.037094347,528428.7,0.0,0.014046087,0.024810502,5126.625,5858.9893,6575.2383,7304.118,0.306015,0.0,0.0,0.0
228.25165,228.25165,2.633,0.0,0.0,259.92346,10049.0,0.0,100.0,-1.6912907,0.0,7.0,0.0,0.0,4000000.0,110.0,1.0,0.0,0.0,10.0,0.0,0.0,527.66486,35.377293,705.96686,0.49890482,-3.9410088,-0.013760683,249.27344,249.33899,248.04263,248.22592,556.0,556.0,614.0,614.0,89.0,89.0,89.0,89.0,0.0,0.0,0.0,0.0,0.03730282,0.041013047,0.04990772,0.051876135,0.0,0.0,0.0,0.0,174.0351,-216.6419,215.6496,-277.59518,0.0,0.0,0.0,2.0,1.0,2.4136631,-6.388758E-5,0.004726529,89.0,89.0,89.0,89.0,22.047926,22.047926,24.919281,24.919281,-0.039825037,-0.041434474,-0.044373974,-0.04593081,981.63666,0.0,0.0,0.0,0.0,0.0,0.0,0.0,0.0,0.0,0.0,0.0,0.0,0.0,48.310997,0.033575464,-53.656548,0.010452313,0.09645744,-0.027971517,518686.47,0.0,0.01475228,0.026481913,4936.721,5726.325,6407.718,7322.769,0.30659866,0.0,0.0,0.0
231.8104,231.8104,2.683,0.0,0.0,252.9811,9756.0,0.0,100.0,-1.6637146,0.0,7.0,0.0,0.0,4000000.0,110.0,1.0,0.0,0.0,10.0,0.0,0.0,530.04144,35.37901,703.3174,0.5832422,-3.92099,-0.021038022,241.93896,242.11629,240.33998,241.44012,582.0,582.0,640.0,640.0,89.0,89.0,89.0,89.0,0.0,0.0,0.0,0.0,0.03530423,0.039214768,0.04939473,0.05184708,0.0,0.0,0.0,0.0,0.2817535,84.167854,-91.27555,96.224236,0.0,0.0,0.0,2.0,1.0,2.418834,0.0012013797,0.005222082,89.0,89.0,89.0,89.0,22.047926,22.047926,24.919281,24.919281,-0.04236392,-0.043761905,-0.048378162,-0.04665146,913.61224,0.0,0.0,0.0,0.0,0.0,0.0,0.0,0.0,0.0,0.0,0.0,0.0,0.0,46.829353,0.034251336,-52.395023,0.0061189756,0.106823884,-0.021037526,497241.22,0.0,0.01592905,0.028946122,4640.634,5551.781,6102.744,7260.791,0.30772972,0.0,0.0,0.0
235.2731,235.2731,2.733,0.0,0.0,246.07886,9463.0,0.0,100.0,-1.7109467,0.0,7.0,0.0,0.0,4000000.0,110.0,1.0,0.0,0.0,10.0,0.0,0.0,532.3435,35.380688,700.7304,0.6482644,-3.8956618,-0.028123014,234.6302,234.87747,232.64044,234.58348,606.0,606.0,664.0,664.0,89.0,89.0,89.0,89.0,0.0,0.0,0.0,0.0,0.03347658,0.03740527,0.04894006,0.051724784,0.0,0.0,0.0,0.0,26.24542,64.29244,-5.994758,32.68272,0.0,0.0,0.0,2.0,1.0,2.424264,0.0020753844,0.005672455,89.0,89.0,89.0,89.0,22.047926,22.047926,24.919281,24.919281,-0.04513333,-0.046359036,-0.052880988,-0.047785558,843.9521,0.0,0.0,0.0,0.0,0.0,0.0,0.0,0.0,0.0,0.0,0.0,0.0,0.0,45.336155,0.0323752,-51.157314,0.003879292,0.109537415,-0.017904077,473550.12,0.0,0.017088598,0.031290513,4394.2686,5344.031,5846.1777,7138.412,0.30903912,0.0,0.0,0.0
238.64041,238.64041,2.783,0.0,0.0,239.21385,10991.0,0.0,100.0,-2.0205152,0.0,7.0,0.0,0.0,4000000.0,110.0,1.0,0.0,0.0,10.0,0.0,0.0,534.5708,35.382256,698.2047,0.70993066,-3.876439,-0.028306194,227.12866,227.48367,224.68576,227.74594,628.0,628.0,685.0,685.0,89.0,89.0,89.0,89.0,0.0,0.0,0.0,0.0,0.031730417,0.03570698,0.04849044,0.051646233,0.0,0.0,0.0,0.0,45.450207,17.219923,20.867556,-15.650688,0.0,0.0,0.0,2.0,1.0,2.4299057,0.0027329798,0.0060994625,89.0,89.0,89.0,89.0,22.047926,22.047926,24.919281,24.919281,-0.048935298,-0.04988484,-0.05869713,-0.049061008,1137.4628,0.0,0.0,0.0,0.0,0.0,0.0,0.0,0.0,0.0,0.0,0.0,0.0,0.0,43.834034,0.030701146,-49.939484,2.951594E-5,0.11682816,-0.0128835365,549511.75,0.0,0.018100543,0.033440884,4160.094,5170.609,5597.493,7057.402,0.31047916,0.0,0.0,0.0
242.98666,242.98666,2.833,0.0,0.0,230.90921,10147.0,0.0,100.0,-4.0023284,0.0,6.0,0.0,0.0,4000000.0,110.0,1.0,0.0,0.0,10.0,0.0,0.0,537.42474,35.384167,694.92645,1.0210763,-3.1501112,-0.044448223,221.05284,222.09421,219.96817,222.05801,654.0,654.0,710.0,711.0,89.0,89.0,89.0,89.0,0.0,0.0,0.0,0.0,0.030071,0.034804814,0.047009483,0.051488664,-18.726065,11.938958,-42.424496,-1.4955549,198.34933,1664.4847,-1277.8309,474.97894,0.0,0.0,0.0,2.0,1.0,2.4390302,0.0036162029,0.0059233904,89.0,89.0,89.0,89.0,22.047926,22.047926,24.919281,24.919281,-0.039032035,-0.038957883,-0.03949846,-0.037155706,1000.4297,0.0,0.0,0.0,0.0,0.0,0.0,0.0,0.0,0.0,0.0,0.0,0.0,0.0,41.904224,0.02448217,-48.560894,0.0314371,0.17044923,-0.010884164,523511.12,0.0,0.020063711,0.0350039,3880.4304,5339.8906,4813.717,6928.117,0.31264114,0.0,0.0,0.0
245.1043,245.1043,2.883,0.0,0.0,226.96573,9995.0,0.0,100.0,-5.9803143,0.0,6.0,0.0,0.0,4000000.0,110.0,1.0,0.0,0.0,10.0,0.0,0.0,538.80365,35.384842,693.319,1.2158623,-3.1931558,-0.038733937,218.16843,218.95288,218.00887,220.45383,666.0,666.0,722.0,723.0,89.0,89.0,89.0,89.0,0.0,0.0,0.0,0.0,0.029374756,0.034999043,0.04620898,0.05155249,0.0,0.0,0.0,0.0,133.04419,-704.64307,474.17426,-241.86818,0.0,0.0,0.0,2.0,1.0,2.4456103,0.004266488,0.0058164597,89.0,89.0,89.0,89.0,22.047926,22.047926,24.919281,24.919281,-0.035581935,-0.03720834,-0.03652383,-0.029377215,971.12384,0.0,0.0,0.0,0.0,0.0,0.0,0.0,0.0,0.0,0.0,0.0,0.0,0.0,40.919193,0.017641371,-47.962715,0.016653486,0.22984296,-0.018069655,515903.9,0.0,0.020773232,0.03546567,3712.2837,5300.5713,4499.816,6969.1035,0.3136673,0.0,0.0,0.0
248.21417,248.21417,2.933,0.0,0.0,221.3088,9723.0,0.0,100.0,-8.954296,0.0,6.0,0.0,0.0,4000000.0,110.0,1.0,0.0,0.0,10.0,0.0,0.0,540.80945,35.38565,690.9414,1.6393754,-3.0551708,-0.019221619,211.36845,213.31653,208.20824,214.07356,683.0,684.0,738.0,740.0,89.0,89.0,89.0,89.0,0.0,0.0,0.0,0.0,0.028044604,0.03525649,0.04496593,0.052270006,0.0,0.0,0.0,0.0,180.15059,169.58264,-410.84732,-148.36635,0.0,0.0,0.0,2.0,1.0,2.4600425,0.005625225,0.005896449,89.0,89.0,89.0,89.0,22.047926,22.047926,24.919281,24.919281,-0.03827105,-0.03967339,-0.048703253,-0.033585463,905.89264,0.0,0.0,0.0,0.0,0.0,0.0,0.0,0.0,0.0,0.0,0.0,0.0,0.0,39.371956,0.017292785,-47.212116,0.020107018,0.34782064,-0.023201454,494713.16,0.0,0.021266479,0.036252473,3292.2898,5523.259,3954.3628,7376.0693,0.31538296,0.0,0.0,0.0
251.24615,251.24615,2.983,0.0,0.0,215.95009,9578.0,0.0,100.0,-12.411643,0.0,6.0,0.0,0.0,4000000.0,110.0,1.0,0.0,0.0,10.0,0.0,0.0,542.7347,35.386665,688.59686,2.0514803,-2.9259968,-0.022366714,210.03197,211.3425,206.85652,215.14824,699.0,699.0,753.0,755.0,89.0,89.0,89.0,89.0,0.0,0.0,0.0,0.0,0.026750054,0.03590858,0.043219093,0.05324708,0.0,0.0,0.0,0.0,200.46156,-2.6419256,134.44563,-147.34714,0.0,0.0,0.0,2.0,1.0,2.4805171,0.0063489377,0.005715847,89.0,89.0,89.0,89.0,22.047926,22.047926,24.919281,24.919281,-0.027286401,-0.030162102,-0.056519482,-0.02128367,871.9438,0.0,0.0,0.0,0.0,0.0,0.0,0.0,0.0,0.0,0.0,0.0,0.0,0.0,37.71796,0.022602085,-46.644306,-2.5846716E-4,0.45809165,0.013137223,483382.22,0.0,0.02208739,0.036757346,2977.451,5783.953,3149.4402,7716.25,0.3178835,0.0,0.0,0.0
254.21431,254.21431,3.033,0.0,0.0,212.06114,9442.0,0.0,100.0,-15.903832,0.0,6.0,0.0,0.0,4000000.0,110.0,1.0,0.0,0.0,10.0,0.0,0.0,544.5798,35.387123,686.26697,2.4320436,-2.3905873,-0.10771967,206.4329,207.90945,198.66095,209.44366,714.0,714.0,767.0,769.0,89.0,89.0,89.0,89.0,0.0,0.0,0.0,0.0,0.026807679,0.037988786,0.04056685,0.053196974,0.0,0.0,0.0,0.0,-309.7951,-490.0664,2343.7007,535.03357,0.0,0.0,0.0,2.0,1.0,2.5058436,0.0067064865,0.004473567,89.0,89.0,89.0,89.0,22.047926,22.047926,24.919281,24.919281,-0.024420716,-0.026427848,-0.061193664,-0.025493795,838.3297,0.0,0.0,0.0,0.0,0.0,0.0,0.0,0.0,0.0,0.0,0.0,0.0,0.0,36.13703,-0.0100177135,-46.518993,-0.014381699,0.5112174,0.022488382,471441.56,0.0,0.023784656,0.035217594,2848.3777,6187.064,1935.5706,7493.648,0.3205862,0.0,0.0,0.0
258.07907,258.07907,3.083,0.0,0.0,206.75043,9192.0,0.0,100.0,-21.238022,0.0,6.0,0.0,0.0,4000000.0,110.0,1.0,0.0,0.0,10.0,0.0,0.0,546.9102,35.385754,683.1701,2.9562669,-2.168575,-0.03417055,198.97572,202.44011,191.05772,202.19608,732.0,732.0,783.0,786.0,89.0,89.0,89.0,89.0,0.0,0.0,0.0,0.0,0.02578699,0.03995483,0.039856847,0.05363497,-38.946453,49.580406,-19.99743,16.200989,-1101.5361,1342.8344,-844.7616,693.7131,0.0,0.0,0.0,2.0,1.0,2.5429492,0.0059921225,0.0052347183,89.0,89.0,89.0,89.0,22.047926,22.047926,24.919281,24.919281,-0.025556708,-0.027743924,-0.054432046,-0.023552487,771.8277,0.0,0.0,0.0,0.0,0.0,0.0,0.0,0.0,0.0,0.0,0.0,0.0,0.0,33.828743,-0.024216875,-46.410107,-0.011879797,0.61274517,-0.017189693,445848.53,0.0,0.023875602,0.034860943,2282.9365,6604.158,1788.7025,7937.662,0.32357788,0.0,0.0,0.0
260.90674,260.90674,3.133,0.0,0.0,202.86154,10790.0,0.0,100.0,-25.938467,0.0,6.0,0.0,0.0,4000000.0,110.0,1.0,0.0,0.0,10.0,0.0,0.0,548.5539,35.384075,680.85046,3.1625082,-2.1355002,-0.094323486,198.83012,200.59906,190.17442,200.77025,744.0,745.0,795.0,798.0,89.0,89.0,89.0,89.0,0.0,0.0,0.0,0.0,0.023489997,0.040496256,0.039319668,0.053512022,-52.839962,-8.271485,-13.68597,1.0543315,-804.41455,-1390.6179,-165.46542,493.41907,0.0,0.0,0.0,2.0,1.0,2.5756915,0.0060190954,0.0064044,89.0,89.0,89.0,89.0,22.047926,22.047926,24.919281,24.919281,-0.013751718,-0.021359991,-0.05426096,-0.013542673,1109.5273,0.0,0.0,0.0,0.0,0.0,0.0,0.0,0.0,0.0,0.0,0.0,0.0,0.0,32.005676,-0.0469202,-46.378933,-0.02582552,0.6687666,-0.012580806,546001.2,0.0,0.025255647,0.036647297,1784.4841,6717.9277,1513.0693,7779.3003,0.3263178,0.0,0.0,0.0
262.75867,262.75867,3.183,0.0,0.0,200.47675,10506.0,0.0,100.0,-29.691835,0.0,5.0,0.0,0.0,4000000.0,110.0,1.0,0.0,0.0,10.0,0.0,0.0,549.59894,35.381893,679.3037,3.1881852,-1.9998105,-0.1547844,195.57417,197.40263,185.74756,197.20506,752.0,753.0,802.0,806.0,89.0,89.0,89.0,89.0,0.0,0.0,0.0,0.0,0.021880219,0.04022086,0.03893651,0.05339255,0.0,0.0,0.0,0.0,-86.19941,-831.592,-273.5987,607.2789,0.0,0.0,0.0,2.0,1.0,2.5982869,0.006372436,0.0070869923,89.0,89.0,89.0,89.0,22.047926,22.047926,24.919281,24.919281,-0.016962826,-0.021472244,-0.060850028,-0.020389168,1070.5297,0.0,0.0,0.0,0.0,0.0,0.0,0.0,0.0,0.0,0.0,0.0,0.0,0.0,30.788609,-0.08302379,-46.402653,-0.011584113,0.675293,-0.02038537,541051.1,0.0,0.026005764,0.037986066,1610.071,6542.4033,1331.06,7666.2065,0.3276558,0.0,0.0,0.0
265.4858,265.4858,3.233,0.0,0.0,196.6691,10272.0,0.0,100.0,-32.806236,0.0,5.0,0.0,0.0,4000000.0,110.0,1.0,0.0,0.0,10.0,0.0,0.0,551.089,35.37662,676.98456,3.3053863,-1.9808778,-0.09464909,190.16544,193.2793,180.40874,190.67555,763.0,764.0,811.0,816.0,89.0,89.0,89.0,89.0,0.0,0.0,0.0,0.0,0.020409033,0.039402384,0.03872188,0.05352881,0.0,0.0,0.0,0.0,579.632,134.94191,-41.96315,-171.3529,0.0,0.0,0.0,2.0,1.0,2.6318629,0.00711701,0.007939458,89.0,89.0,89.0,89.0,22.047926,22.047926,24.919281,24.919281,-0.018479744,-0.026452335,-0.05675887,-0.024060044,1024.746,0.0,0.0,0.0,0.0,0.0,0.0,0.0,0.0,0.0,0.0,0.0,0.0,0.0,28.909607,-0.1203251,-46.35397,-0.004241875,0.6649929,-0.02053465,529710.06,0.0,0.02627213,0.03920079,1514.1631,6707.8535,1324.292,7892.373,0.32853222,0.0,0.0,0.0
268.1469,268.1469,3.283,0.0,0.0,192.73903,10072.0,0.0,100.0,-35.218758,0.0,5.0,0.0,0.0,4000000.0,110.0,1.0,0.0,0.0,10.0,0.0,0.0,552.4842,35.37015,674.67004,3.2973857,-2.0535336,-0.07019388,187.32977,189.17097,177.09251,187.51549,773.0,774.0,820.0,825.0,89.0,89.0,89.0,89.0,0.0,0.0,0.0,0.0,0.019565614,0.038918268,0.038605634,0.053630944,0.0,0.0,0.0,0.0,-5.10292,-53.71124,31.851225,46.227867,0.0,0.0,0.0,2.0,1.0,2.6642761,0.0075203343,0.008606553,89.0,89.0,89.0,89.0,22.047926,22.047926,24.919281,24.919281,-0.017925933,-0.024664152,-0.060735628,-0.020630488,986.0841,0.0,0.0,0.0,0.0,0.0,0.0,0.0,0.0,0.0,0.0,0.0,0.0,0.0,27.007425,-0.13610813,-46.22731,-0.010362545,0.631894,-0.006796357,519846.66,0.0,0.026715178,0.040016513,1459.4192,6689.5996,1285.5406,7854.0215,0.32923317,0.0,0.0,0.0
270.73972,270.73972,3.333,0.0,0.0,188.8528,9846.0,0.0,100.0,-36.89802,0.0,5.0,0.0,0.0,4000000.0,110.0,1.0,0.0,0.0,10.0,0.0,0.0,553.7851,35.362713,672.3633,3.2216203,-2.040874,-0.10634967,183.00117,185.9318,171.10332,181.82877,783.0,784.0,829.0,834.0,89.0,89.0,89.0,89.0,0.0,0.0,0.0,0.0,0.01886932,0.037876848,0.038562097,0.053266495,0.0,0.0,0.0,0.0,271.7681,-49.205128,266.91998,577.7611,0.0,0.0,0.0,2.0,1.0,2.6947012,0.007209203,0.009277105,89.0,89.0,89.0,89.0,22.047926,22.047926,24.919281,24.919281,-0.028853921,-0.024296032,-0.07302079,-0.03333204,935.061,0.0,0.0,0.0,0.0,0.0,0.0,0.0,0.0,0.0,0.0,0.0,0.0,0.0,25.142815,-0.16370486,-46.040962,-0.016719924,0.58629405,-9.841258E-4,504263.0,0.0,0.027206326,0.041041333,1377.6152,6472.841,1217.2095,7619.8145,0.32994843,0.0,0.0,0.0
273.26306,273.26306,3.383,0.0,0.0,184.9668,9648.0,0.0,100.0,-38.087215,0.0,5.0,0.0,0.0,4000000.0,110.0,1.0,0.0,0.0,10.0,0.0,0.0,554.99335,35.354,670.0674,3.2163184,-1.9952834,-0.06963223,179.2371,181.09233,168.43362,177.98558,791.0,793.0,837.0,842.0,89.0,89.0,89.0,89.0,0.0,0.0,0.0,0.0,0.018257923,0.03706527,0.038617097,0.05318009,0.0,0.0,0.0,0.0,129.3227,104.92801,155.74243,-142.62645,0.0,0.0,0.0,2.0,1.0,2.723122,0.00722678,0.009928703,89.0,89.0,89.0,89.0,22.047926,22.047926,24.919281,24.919281,-0.020522807,-0.026134405,-0.063522615,-0.025267957,888.20825,0.0,0.0,0.0,0.0,0.0,0.0,0.0,0.0,0.0,0.0,0.0,0.0,0.0,23.295406,-0.18186389,-45.79477,-0.009419617,0.55373806,-0.0059251627,488826.25,0.0,0.027234653,0.041785628,1327.4877,6429.6733,1264.8085,7635.1533,0.3303156,0.0,0.0,0.0
275.7151,275.7151,3.433,0.0,0.0,181.07863,9450.0,0.0,100.0,-39.050507,0.0,5.0,0.0,0.0,4000000.0,110.0,1.0,0.0,0.0,10.0,0.0,0.0,556.11,35.344635,667.78564,3.12677,-2.0528536,-0.070220046,175.91331,177.79547,164.9395,174.96162,800.0,801.0,844.0,850.0,89.0,89.0,89.0,89.0,0.0,0.0,0.0,0.0,0.017773192,0.03638803,0.038623348,0.053044975,0.0,0.0,0.0,0.0,-79.2525,-22.73174,-96.358345,232.74867,0.0,0.0,0.0,2.0,1.0,2.7500296,0.0070749926,0.010423422,89.0,89.0,89.0,89.0,22.047926,22.047926,24.919281,24.919281,-0.022710247,-0.023083856,-0.072435275,-0.029829852,840.348,0.0,0.0,0.0,0.0,0.0,0.0,0.0,0.0,0.0,0.0,0.0,0.0,0.0,21.47825,-0.19304337,-45.482956,-0.012205284,0.52482086,0.0035882927,472176.5,0.0,0.027641429,0.042501282,1302.2775,6330.691,1226.6874,7475.4014,0.3309269,0.0,0.0,0.0
278.854,278.854,3.483,0.0,0.0,176.02478,9189.0,0.0,100.0,-40.16424,0.0,5.0,0.0,0.0,4000000.0,110.0,1.0,0.0,0.0,10.0,0.0,0.0,557.45996,35.33101,664.7697,2.9893079,-2.0053272,-0.09992486,171.01297,172.76915,160.41345,169.93488,810.0,811.0,853.0,859.0,89.0,89.0,89.0,89.0,0.0,0.0,0.0,0.0,0.017251026,0.035180483,0.038685564,0.05254869,-11.571049,-19.25379,-1.3138353,-6.9230046,-331.26617,-84.958984,-170.85669,111.91517,0.0,0.0,0.0,2.0,1.0,2.784267,0.0064501353,0.011096239,89.0,89.0,89.0,89.0,22.047926,22.047926,24.919281,24.919281,-0.021368617,-0.023825675,-0.07129396,-0.028626159,770.91406,0.0,0.0,0.0,0.0,0.0,0.0,0.0,0.0,0.0,0.0,0.0,0.0,0.0,19.139399,-0.2183959,-44.99369,-0.01539694,0.505236,0.00757508,445466.16,0.0,0.028317928,0.043626748,1235.927,6056.615,1190.5934,7162.0312,0.3319025,0.0,0.0,0.0
281.10846,281.10846,3.533,0.0,0.0,172.25339,8969.0,0.0,100.0,-41.038605,0.0,5.0,0.0,0.0,4000000.0,110.0,1.0,0.0,0.0,10.0,0.0,0.0,558.3717,35.319607,662.53107,2.9786081,-1.9971964,-0.060755223,165.32712,169.19176,153.87195,163.8596,817.0,818.0,859.0,865.0,89.0,89.0,89.0,89.0,0.0,0.0,0.0,0.0,0.016904678,0.03437008,0.038832292,0.05241081,-6.4784284,-12.243836,0.77113503,-1.021698,93.72977,198.96622,-213.89273,-76.73799,0.0,0.0,0.0,2.0,1.0,2.8097332,0.0061935848,0.011618257,89.0,89.0,89.0,89.0,22.047926,22.047926,24.919281,24.919281,-0.02535228,-0.02623087,-0.07538829,-0.0349537,714.90234,0.0,0.0,0.0,0.0,0.0,0.0,0.0,0.0,0.0,0.0,0.0,0.0,0.0,17.430395,-0.2335744,-44.559776,-0.008922126,0.515332,-0.0012761415,423233.2,0.0,0.02850507,0.044267196,1215.2947,6017.017,1281.855,7185.824,0.33237934,0.0,0.0,0.0
