LapDistance [m],TotalDistance [m],LapTime [s],Sector1Time [s],Sector2Time [s],Speed [km/h],EngineRevs [rpm],ThrottlePercentage [%],BrakePercentage [%],Steer [%],Clutch [%],Gear [int],DRS [0/1],CanUseDRS [0/1],KERSLevel [J],EngineTemperature [C],RacePosition [int],Sector [int],InPits [int],FuelRemaining [kg],CurrentFlag [int],CurrentLapInvalid [int],X [m],Y [m],Z [m],GForceLatitudinal [G],GForceLongitudinal [G],GForceVertical [G],WheelSpeedRearLeft [km/h],WheelSpeedRearRight [km/h],WheelSpeedFrontLeft [km/h],WheelSpeedFrontRight [km/h],BrakeTemperatureRearLeft [C],BrakeTemperatureRearRight [C],BrakeTemperatureFrontLeft [C],BrakeTemperatureFrontRight [C],TyreTemperatureRearLeft [C],TyreTemperatureRearRight [C],TyreTemperatureFrontLeft [C],TyreTemperatureFrontRight [C],TyreWearRearLeft [%],TyreWearRearRight [%],TyreWearFrontLeft [%],TyreWearFrontRight [%],SuspensionPositionRearLeft [m],SuspensionPositionRearRight [m],SuspensionPositionFrontLeft [m],SuspensionPositionFrontRight [m],SuspensionVelocityRearLeft [m/s],SuspensionVelocityRearRight [m/s],SuspensionVelocityFrontLeft [m/s],SuspensionVelocityFrontRight [m/s],SuspensionAccelerationRearLeft [m/s^2],SuspensionAccelerationRearRight [m/s^2],SuspensionAccelerationFrontLeft [m/s^2],SuspensionAccelerationFrontRight [m/s^2],MGUKHarvested [J],MGUHHarvested [J],ERSSpent [J],ERSMode [int],FuelMixMode [int],Yaw [rad],Roll [rad],Pitch [rad],TyreCarcassTemperatureRearLeft [C],TyreCarcassTemperatureRearRight [C],TyreCarcassTemperatureFrontLeft [C],TyreCarcassTemperatureFrontRight [C],TyrePressureRearLeft [PSI],TyrePressureRearRight [PSI],TyrePressureFrontLeft [PSI],TyrePressureFrontRight [PSI],WheelSlipRearLeft [%],WheelSlipRearRight [%],WheelSlipFrontLeft [%],WheelSlipFrontRight [%],Torque [Nm],Handbrake [%],RearLeftInside [C],RearLeftMiddle [C],RearLeftOutside [C],RearRightInside [C],RearRightMiddle [C],RearRightOutside [C],FrontLeftInside [C],FrontLeftMiddle [C],FrontLeftOutside [C],FrontRightInside [C],FrontRightMiddle [C],FrontRightOutside [C],WoldSpeedX [km/h],WoldSpeedY [km/h],WoldSpeedZ [km/h],LocalAngularVelocityX [rad/s],LocalAngularVelocityY [rad/s],LocalAngularVelocityZ [rad/s],IcePower [W],MgukPower [W],FrontRideHeight [m],RearRideHeight [m],LoadRearLeft [N],LoadRearRight [N],LoadFrontLeft [N],LoadFrontRight [N],Extra1 [m],Extra2 [],Extra3 [],Extra4 []
1.813299,1.813299,0.016,0.0,0.0,223.7778,10507.0,100.0,0.0,0.3289136,0.0,6.0,0.0,0.0,4000000.0,110.0,1.0,0.0,0.0,10.0,0.0,0.0,-169.66278,3.1526437,-98.31058,-0.12094395,0.7868756,0.09889683,229.98203,230.00949,223.67618,223.55858,523.0,521.0,569.0,560.0,89.0,89.0,89.0,89.0,0.0,0.0,0.0,0.0,0.03982513,0.038984273,0.050071243,0.04939899,-9.179189,-7.483139,0.32655892,1.567304,-449.43085,-393.17157,-71.02488,-54.529297,0.0,0.0,0.0,2.0,1.0,0.44386142,-0.026174938,0.0055561066,89.0,89.0,89.0,89.0,21.842827,21.842827,24.816736,24.816736,0.027482126,0.028066983,-6.936393E-4,-7.122505E-4,1070.677,0.0,0.0,0.0,0.0,0.0,0.0,0.0,0.0,0.0,0.0,0.0,0.0,0.0,26.768528,-0.26600456,56.10083,-0.012071297,-0.018862585,0.008471825,541074.1,119984.9,0.022627449,0.025967827,6393.539,6196.203,4512.17,4207.3223,0.3205967,0.0,0.0,0.0
4.933337,4.933337,0.066,0.0,0.0,225.16742,10572.0,100.0,0.0,0.22933392,0.0,6.0,0.0,0.0,4000000.0,110.0,1.0,0.0,0.0,10.0,0.0,0.0,-168.32137,3.139822,-95.49574,-0.10689828,0.79904556,0.07250491,231.39368,231.42636,225.05339,224.95903,521.0,519.0,567.0,558.0,89.0,89.0,89.0,89.0,0.0,0.0,0.0,0.0,0.03918112,0.0384141,0.050029006,0.04940997,-2.812296,-0.13343988,7.569864,9.404718,1339.3341,1464.003,897.21216,1000.26263,0.0,0.0,0.0,2.0,1.0,0.44300473,-0.026028061,0.0048651695,89.0,89.0,89.0,89.0,21.842827,21.842827,24.816736,24.816736,0.027619354,0.028139176,-6.9358386E-4,-7.1825786E-4,1079.5452,0.0,0.0,0.0,0.0,0.0,0.0,0.0,0.0,0.0,0.0,0.0,0.0,0.0,26.884296,-0.24660501,56.47335,-0.014656054,-0.014623598,0.011514865,542201.44,119984.9,0.021372125,0.025223052,6391.1714,6209.9404,4570.4526,4292.247,0.32021046,0.0,0.0,0.0
8.072649,8.072649,0.116,0.0,0.0,226.5456,10627.0,100.0,0.0,0.23460285,0.0,6.0,0.0,0.0,4000000.0,110.0,1.0,0.0,0.0,10.0,0.0,0.0,-166.97392,3.1300898,-92.66234,-0.0969833,0.7738111,0.15529841,232.59715,232.62794,226.42297,226.34877,519.0,517.0,565.0,556.0,89.0,89.0,89.0,89.0,0.0,0.0,0.0,0.0,0.040643524,0.039979566,0.050261725,0.049723417,19.553972,20.132437,-2.2215395,-1.3480334,-224.25955,-307.56888,-61.959023,-105.75949,0.0,0.0,0.0,2.0,1.0,0.4423889,-0.02588771,0.003585577,89.0,89.0,89.0,89.0,21.842827,21.842827,24.816736,24.816736,0.026612397,0.027026504,-6.852263E-4,-6.9746975E-4,1087.0819,0.0,0.0,0.0,0.0,0.0,0.0,0.0,0.0,0.0,0.0,0.0,0.0,0.0,27.006285,-0.15589441,56.839573,-0.018521184,-0.011464462,0.010414938,543161.0,119984.89,0.02132752,0.024195006,6656.875,6490.482,4609.7773,4365.825,0.31931686,0.0,0.0,0.0
11.230711,11.230711,0.166,0.0,0.0,227.89146,10693.0,100.0,0.0,0.23963736,0.0,6.0,0.0,0.0,4000000.0,110.0,1.0,0.0,0.0,10.0,0.0,0.0,-165.62038,3.1239333,-89.81094,-0.08718565,0.75940204,0.06280624,234.05045,234.08577,227.76593,227.69559,517.0,515.0,564.0,554.0,89.0,89.0,89.0,89.0,0.0,0.0,0.0,0.0,0.040434092,0.039783645,0.050121058,0.049626376,-12.593864,-12.739598,-5.161017,-4.6572084,-355.5938,-397.9191,-132.28654,-171.82227,0.0,0.0,0.0,2.0,1.0,0.44184035,-0.025826808,0.0027154684,89.0,89.0,89.0,89.0,21.842827,21.842827,24.816736,24.816736,0.026944047,0.027369417,-6.883685E-4,-6.941709E-4,1096.1675,0.0,0.0,0.0,0.0,0.0,0.0,0.0,0.0,0.0,0.0,0.0,0.0,0.0,27.12817,-0.10348705,57.19567,-0.012579499,-0.011209248,0.0066889157,544320.06,119984.9,0.021500355,0.024624402,6463.6797,6305.6924,4491.8774,4266.4834,0.31910515,0.0,0.0,0.0
14.407336,14.407336,0.216,0.0,0.0,229.22772,10754.0,100.0,0.0,0.27839833,0.0,6.0,0.0,0.0,4000000.0,110.0,1.0,0.0,0.0,10.0,0.0,0.0,-164.26071,3.120089,-86.94181,-0.085763276,0.7500565,0.09722716,235.38663,235.41353,229.10677,229.02908,515.0,513.0,562.0,553.0,89.0,89.0,89.0,89.0,0.0,0.0,0.0,0.0,0.0402662,0.03963574,0.050310545,0.04983279,-8.047968,-7.845237,3.0834227,3.5264342,-493.58005,-530.0849,-150.53896,-152.97977,0.0,0.0,0.0,2.0,1.0,0.44125864,-0.02580368,0.0018334389,89.0,89.0,89.0,89.0,21.842827,21.842827,24.816736,24.816736,0.026776748,0.0271859,-6.744977E-4,-6.786211E-4,1104.5706,0.0,0.0,0.0,0.0,0.0,0.0,0.0,0.0,0.0,0.0,0.0,0.0,0.0,27.250366,-0.05245281,57.548588,-0.024110753,-0.012200452,0.010631707,545381.56,119984.9,0.020062545,0.02384504,6467.6016,6319.8984,4716.176,4498.621,0.31828022,0.0,0.0,0.0
17.602367,17.602367,0.266,0.0,0.0,230.55759,10809.0,100.0,0.0,0.27846017,0.0,6.0,0.0,0.0,4000000.0,110.0,1.0,0.0,0.0,10.0,0.0,0.0,-162.89499,3.118792,-84.05507,-0.08672328,0.74766254,0.14088628,236.58673,236.60178,230.44182,230.35733,513.0,511.0,560.0,551.0,89.0,89.0,89.0,89.0,0.0,0.0,0.0,0.0,0.041142866,0.040494062,0.050292302,0.049798176,23.754759,24.229734,1.765564,1.9749997,16.723593,85.65639,118.92913,169.62288,0.0,0.0,0.0,2.0,1.0,0.44060877,-0.025816005,7.3707104E-4,89.0,89.0,89.0,89.0,21.842827,21.842827,24.816736,24.816736,0.026011271,0.026394775,-6.7165034E-4,-6.7904685E-4,1112.1595,0.0,0.0,0.0,0.0,0.0,0.0,0.0,0.0,0.0,0.0,0.0,0.0,0.0,27.371151,0.0039192233,57.90013,-0.011986229,-0.013597782,0.0057573197,546334.44,119984.9,0.01949866,0.022063544,6755.388,6601.2627,4683.7554,4458.7275,0.3172331,0.0,0.0,0.0
20.815548,20.815548,0.316,0.0,0.0,231.85912,10873.0,100.0,0.0,0.2738276,0.0,6.0,0.0,0.0,4000000.0,110.0,1.0,0.0,0.0,10.0,0.0,0.0,-161.52339,3.1202147,-81.1509,-0.09011367,0.73527706,0.058234986,237.98248,238.0011,231.74763,231.65598,511.0,509.0,558.0,549.0,89.0,89.0,89.0,89.0,0.0,0.0,0.0,0.0,0.040977642,0.040300928,0.050232682,0.049716905,-7.051527,-7.724314,-1.4501809,-1.8630176,-57.60043,-35.338093,17.903744,38.905434,0.0,0.0,0.0,2.0,1.0,0.43987545,-0.025840657,4.1663647E-4,89.0,89.0,89.0,89.0,21.842827,21.842827,24.816736,24.816736,0.026250929,0.026679935,-6.6792313E-4,-6.7842373E-4,1121.0233,0.0,0.0,0.0,0.0,0.0,0.0,0.0,0.0,0.0,0.0,0.0,0.0,0.0,27.48592,0.044375017,58.24574,-0.0011975864,-0.015035381,6.9574703E-4,547447.25,119984.89,0.019560952,0.022250734,6592.458,6427.618,4601.8994,4364.7754,0.31707382,0.0,0.0,0.0
24.04653,24.04653,0.366,0.0,0.0,233.14532,10935.0,100.0,0.0,0.2110529,0.0,6.0,0.0,0.0,4000000.0,110.0,1.0,0.0,0.0,10.0,0.0,0.0,-160.1461,3.1227527,-78.22959,-0.08489664,0.7270775,-0.005835625,239.3463,239.37302,233.02704,232.94865,509.0,507.0,556.0,547.0,89.0,89.0,89.0,89.0,0.0,0.0,0.0,0.0,0.040321972,0.03967046,0.05013072,0.04963903,-13.32186,-12.494846,-2.1672246,-1.3650208,88.70069,105.39739,-3.2856987,17.286837,0.0,0.0,0.0,2.0,1.0,0.43917254,-0.02580162,4.7445297E-4,89.0,89.0,89.0,89.0,21.842827,21.842827,24.816736,24.816736,0.026484406,0.026889607,-6.6509075E-4,-6.7829096E-4,1129.659,0.0,0.0,0.0,0.0,0.0,0.0,0.0,0.0,0.0,0.0,0.0,0.0,0.0,27.599504,0.051704418,58.58718,0.002667191,-0.012776536,-4.8738904E-5,548536.6,119984.89,0.019783052,0.02296515,6465.949,6311.8145,4535.5283,4312.906,0.31734085,0.0,0.0,0.0
27.2952,27.2952,0.416,0.0,0.0,234.41989,10993.0,100.0,0.0,0.110296205,0.0,6.0,0.0,0.0,4000000.0,110.0,1.0,0.0,0.0,10.0,0.0,0.0,-158.76308,3.1252756,-75.29131,-0.07002106,0.71809804,-0.005311576,240.6146,240.64574,234.29028,234.23553,507.0,505.0,554.0,545.0,89.0,89.0,89.0,89.0,0.0,0.0,0.0,0.0,0.039979585,0.039386515,0.050135303,0.049691305,-4.483759,-2.9450653,-0.5641579,0.68664545,27.962034,57.613846,-186.30621,-162.74301,0.0,0.0,0.0,2.0,1.0,0.43863145,-0.025728546,5.829334E-4,89.0,89.0,89.0,89.0,21.842827,21.842827,24.816736,24.816736,0.02636717,0.026695108,-6.559384E-4,-6.751272E-4,1137.7472,0.0,0.0,0.0,0.0,0.0,0.0,0.0,0.0,0.0,0.0,0.0,0.0,0.0,27.715921,0.050199185,58.92369,0.0021315273,-0.008530639,0.0016388234,549549.2,119984.9,0.019929146,0.023327766,6474.206,6339.0947,4564.6777,4364.935,0.31759453,0.0,0.0,0.0
30.56132,30.56132,0.466,0.0,0.0,235.67743,11050.0,100.0,0.0,0.06010541,0.0,6.0,0.0,0.0,4000000.0,110.0,1.0,0.0,0.0,10.0,0.0,0.0,-157.3741,3.127582,-72.33642,-0.052968413,0.7097973,-0.016453143,241.86472,241.89908,235.53586,235.50568,505.0,503.0,553.0,544.0,89.0,89.0,89.0,89.0,0.0,0.0,0.0,0.0,0.039801378,0.03931169,0.050115395,0.049750037,-1.5914439,0.6960332,-0.04559755,1.656264,157.16402,183.78494,-13.732908,3.1784174,0.0,0.0,0.0,2.0,1.0,0.43830922,-0.025614282,6.161928E-4,89.0,89.0,89.0,89.0,21.842827,21.842827,24.816736,24.816736,0.02626082,0.02650371,-6.5341895E-4,-6.6788954E-4,1143.9841,0.0,0.0,0.0,0.0,0.0,0.0,0.0,0.0,0.0,0.0,0.0,0.0,0.0,27.83739,0.042428922,59.252586,6.960558E-4,-0.0044493955,0.002654398,549711.4,119984.9,0.019923793,0.023419557,6471.605,6364.46,4566.4277,4403.6396,0.3176403,0.0,0.0,0.0
33.844666,33.844666,0.516,0.0,0.0,236.91913,11105.0,100.0,0.0,0.050886843,0.0,6.0,0.0,0.0,4000000.0,110.0,1.0,0.0,0.0,10.0,0.0,0.0,-155.97888,3.1295717,-69.365295,-0.03728719,0.6999305,-0.0040673064,243.0644,243.09837,236.76984,236.75644,503.0,501.0,551.0,542.0,89.0,89.0,89.0,89.0,0.0,0.0,0.0,0.0,0.039965913,0.039605007,0.050137136,0.0498623,5.437508,7.4786687,0.7845461,2.352297,117.18571,77.998634,21.766123,0.8448886,0.0,0.0,0.0,2.0,1.0,0.4381707,-0.025487961,5.556345E-4,89.0,89.0,89.0,89.0,21.842827,21.842827,24.816736,24.816736,0.025977261,0.026155235,-6.504636E-4,-6.5751356E-4,1149.8004,0.0,0.0,0.0,0.0,0.0,0.0,0.0,0.0,0.0,0.0,0.0,0.0,0.0,27.965107,0.03846804,59.573666,-7.8573433E-4,-0.0018208919,0.0023212335,549769.8,119984.91,0.019677017,0.02302468,6525.6016,6441.3125,4597.9146,4475.8315,0.31732464,0.0,0.0,0.0
37.14503,37.14503,0.566,0.0,0.0,238.14307,11160.0,100.0,0.0,0.0714977,0.0,6.0,0.0,0.0,4000000.0,110.0,1.0,0.0,0.0,10.0,0.0,0.0,-154.5772,3.1315215,-66.378296,-0.027429372,0.6897051,0.0045026117,244.25629,244.28404,237.99353,237.98228,501.0,499.0,549.0,540.0,89.0,89.0,89.0,89.0,0.0,0.0,0.0,0.0,0.040304277,0.040001538,0.050187465,0.049960285,6.5942106,7.6543536,0.87507063,1.7262249,-25.910137,-29.182404,-12.043114,-16.629694,0.0,0.0,0.0,2.0,1.0,0.438095,-0.02542224,4.6253204E-4,89.0,89.0,89.0,89.0,21.842827,21.842827,24.816736,24.816736,0.025707053,0.025854068,-6.466796E-4,-6.476267E-4,1155.6167,0.0,0.0,0.0,0.0,0.0,0.0,0.0,0.0,0.0,0.0,0.0,0.0,0.0,28.096336,0.03997896,59.88764,-0.0013211857,-0.0016826555,0.001384229,549827.7,119984.91,0.019396015,0.022509925,6573.8555,6504.6826,4632.6978,4530.8555,0.31693268,0.0,0.0,0.0
40.462166,40.462166,0.616,0.0,0.0,239.3491,11214.0,100.0,0.0,0.16696396,0.0,6.0,0.0,0.0,4000000.0,110.0,1.0,0.0,0.0,10.0,0.0,0.0,-153.16898,3.133596,-63.375732,-0.034024835,0.6796335,0.0042578247,245.44508,245.46313,239.21092,239.17848,499.0,497.0,547.0,538.0,89.0,89.0,89.0,89.0,0.0,0.0,0.0,0.0,0.040610865,0.04027666,0.050252568,0.050005686,5.6637073,4.3389196,1.3846903,0.50067896,-35.244225,-69.28147,0.7644295,-23.36204,0.0,0.0,0.0,2.0,1.0,0.43791986,-0.025456851,3.8802624E-4,89.0,89.0,89.0,89.0,21.842827,21.842827,24.816736,24.816736,0.025457937,0.02565157,-6.437983E-4,-6.377663E-4,1161.3302,0.0,0.0,0.0,0.0,0.0,0.0,0.0,0.0,0.0,0.0,0.0,0.0,0.0,28.224735,0.04273669,60.197445,-0.0017602643,-0.0055546546,-9.6021546E-4,549885.4,119984.9,0.019185793,0.022119552,6615.039,6535.324,4671.1143,4555.6797,0.316638,0.0,0.0,0.0
43.79582,43.79582,0.666,0.0,0.0,240.53769,11267.0,100.0,0.0,0.22901586,0.0,6.0,0.0,0.0,4000000.0,110.0,1.0,0.0,0.0,10.0,0.0,0.0,-151.75452,3.135783,-60.35773,-0.048067212,0.6699096,0.0016169962,246.62183,246.63004,240.414,240.35382,497.0,495.0,545.0,536.0,89.0,89.0,89.0,89.0,0.0,0.0,0.0,0.0,0.040858082,0.0404343,0.05033314,0.05002103,4.750639,2.7065723,1.7065554,0.154227,-3.956251,-27.841328,8.744,-12.60638,0.0,0.0,0.0,2.0,1.0,0.4375196,-0.02555238,3.3521652E-4,89.0,89.0,89.0,89.0,21.842827,21.842827,24.816736,24.816736,0.025228824,0.02548789,-6.361983E-4,-6.3342944E-4,1166.94,0.0,0.0,0.0,0.0,0.0,0.0,0.0,0.0,0.0,0.0,0.0,0.0,0.0,28.34574,0.044437736,60.505356,-0.0018698784,-0.010179427,-0.0015469212,549942.44,119984.914,0.019020272,0.021845387,6654.463,6551.871,4717.8833,4570.802,0.3164215,0.0,0.0,0.0
47.145733,47.145733,0.716,0.0,0.0,241.70932,11320.0,100.0,0.0,0.26287058,0.0,6.0,0.0,0.0,4000000.0,110.0,1.0,0.0,0.0,10.0,0.0,0.0,-150.33424,3.1380258,-57.32436,-0.06437877,0.6604175,-2.1378743E-4,247.77672,247.7826,241.59486,241.51741,495.0,493.0,543.0,535.0,89.0,89.0,89.0,89.0,0.0,0.0,0.0,0.0,0.041086324,0.040576752,0.05041313,0.050033335,4.6104937,3.031343,1.5816091,0.30599532,7.295608,10.50084,0.6437301,2.6822088,0.0,0.0,0.0,2.0,1.0,0.43693238,-0.025649859,2.7918816E-4,89.0,89.0,89.0,89.0,21.842827,21.842827,24.816736,24.816736,0.025007496,0.025316976,-6.287938E-4,-6.2924426E-4,1172.5491,0.0,0.0,0.0,0.0,0.0,0.0,0.0,0.0,0.0,0.0,0.0,0.0,0.0,28.457655,0.045163035,60.812317,-0.0019930971,-0.012981978,-0.0013956601,549998.6,119984.89,0.018865025,0.021584561,6696.3936,6571.449,4762.9365,4585.6187,0.31621552,0.0,0.0,0.0
50.511692,50.511692,0.766,0.0,0.0,242.86438,11372.0,100.0,0.0,0.36407825,0.0,6.0,0.0,0.0,4000000.0,110.0,1.0,0.0,0.0,10.0,0.0,0.0,-148.90863,3.1402924,-54.27563,-0.090457186,0.6511562,-0.0013351617,248.91418,248.91838,242.76366,242.65971,493.0,491.0,542.0,533.0,89.0,89.0,89.0,89.0,0.0,0.0,0.0,0.0,0.041355234,0.040701684,0.050512675,0.050025266,5.883872,2.3049114,2.364367,-0.24877486,41.46695,3.5673378,32.70953,6.8932757,0.0,0.0,0.0,2.0,1.0,0.43617064,-0.025809115,2.1743774E-4,89.0,89.0,89.0,89.0,21.842827,21.842827,24.816736,24.816736,0.02476609,0.02516883,-6.247215E-4,-6.219621E-4,1178.0538,0.0,0.0,0.0,0.0,0.0,0.0,0.0,0.0,0.0,0.0,0.0,0.0,0.0,28.557026,0.045450166,61.120045,-0.0027647163,-0.017560493,-0.0028980228,550053.94,119984.9,0.01868197,0.02129119,6748.335,6585.1777,4820.126,4589.7363,0.3159809,0.0,0.0,0.0
53.893383,53.893383,0.816,0.0,0.0,244.00246,11423.0,100.0,0.0,0.44432545,0.0,6.0,0.0,0.0,4000000.0,110.0,1.0,0.0,0.0,10.0,0.0,0.0,-147.47849,3.1426013,-51.211475,-0.1182504,0.64111245,9.624264E-4,250.0269,250.02559,243.91779,243.78288,491.0,489.0,540.0,531.0,89.0,89.0,89.0,89.0,0.0,0.0,0.0,0.0,0.041677095,0.04084703,0.050633658,0.050015695,6.326213,3.1236558,2.2780893,-0.12248753,-20.17021,8.891529,-11.225051,8.23438,0.0,0.0,0.0,2.0,1.0,0.43514922,-0.02599553,1.4233589E-4,89.0,89.0,89.0,89.0,21.842827,21.842827,24.816736,24.816736,0.02449285,0.02498573,-6.1730243E-4,-6.1701867E-4,1181.4347,0.0,0.0,0.0,0.0,0.0,0.0,0.0,0.0,0.0,0.0,0.0,0.0,0.0,28.641846,0.047019895,61.429325,-0.002886022,-0.022713931,-0.0024059569,549169.7,119984.9,0.018476574,0.020958452,6806.913,6603.943,4885.743,4596.823,0.31571484,0.0,0.0,0.0
57.290462,57.290462,0.866,0.0,0.0,245.12152,11472.0,100.0,0.0,0.52279377,0.0,6.0,0.0,0.0,4000000.0,110.0,1.0,0.0,0.0,10.0,0.0,0.0,-146.0445,3.145012,-48.131817,-0.14849003,0.63035667,0.0012626387,251.11859,251.11534,245.05087,244.88911,489.0,487.0,538.0,529.0,89.0,89.0,89.0,89.0,0.0,0.0,0.0,0.0,0.041982286,0.040992558,0.050746895,0.05000598,6.0468163,2.727136,2.2852418,-0.2597272,-4.117183,-11.613964,1.1265277,-3.5673368,0.0,0.0,0.0,2.0,1.0,0.43389475,-0.026174476,6.055832E-5,89.0,89.0,89.0,89.0,21.842827,21.842827,24.816736,24.816736,0.024220109,0.024800086,-6.105596E-4,-6.110494E-4,1184.3746,0.0,0.0,0.0,0.0,0.0,0.0,0.0,0.0,0.0,0.0,0.0,0.0,0.0,28.711288,0.04937258,61.739887,-0.0031304536,-0.027211396,-0.002853645,548184.75,119984.9,0.01828443,0.020637847,6862.634,6617.7793,4946.988,4600.959,0.31546307,0.0,0.0,0.0
60.7025,60.7025,0.916,0.0,0.0,246.2206,11522.0,100.0,0.0,0.5591146,0.0,6.0,0.0,0.0,4000000.0,110.0,1.0,0.0,0.0,10.0,0.0,0.0,-144.60745,3.1475496,-45.0366,-0.1751971,0.61946416,8.5505284E-4,252.21689,252.19055,246.16225,245.9771,487.0,485.0,536.0,527.0,89.0,89.0,89.0,89.0,0.0,0.0,0.0,0.0,0.042275924,0.041108403,0.050864056,0.049988225,5.6836004,2.3802369,2.241209,-0.24743375,-9.267024,11.587142,-8.864693,10.004638,0.0,0.0,0.0,2.0,1.0,0.43242338,-0.026363906,-2.002716E-5,89.0,89.0,89.0,89.0,21.842827,21.842827,24.816736,24.816736,0.024065642,0.024633382,-6.0077413E-4,-6.0817937E-4,1187.4072,0.0,0.0,0.0,0.0,0.0,0.0,0.0,0.0,0.0,0.0,0.0,0.0,0.0,28.764921,0.052012302,62.051586,-0.002723563,-0.03091377,-0.00208854,547203.44,119984.9,0.018103126,0.02034609,6915.574,6628.95,5009.58,4602.389,0.31523037,0.0,0.0,0.0
64.129395,64.129395,0.966,0.0,0.0,247.30206,11570.0,100.0,0.0,0.5294013,0.0,6.0,0.0,0.0,4000000.0,110.0,1.0,0.0,0.0,10.0,0.0,0.0,-143.16806,3.1502206,-41.9258,-0.19049232,0.60947007,0.0012007905,253.27112,253.24823,247.2456,247.05798,485.0,483.0,534.0,526.0,89.0,89.0,89.0,89.0,0.0,0.0,0.0,0.0,0.042523053,0.041264944,0.050950065,0.05000147,4.901513,3.4929066,1.6493349,0.48078594,8.207559,22.275751,1.9982455,12.71367,0.0,0.0,0.0,2.0,1.0,0.43086314,-0.026462965,-1.01447105E-4,89.0,89.0,89.0,89.0,21.842827,21.842827,24.816736,24.816736,0.023851175,0.024431566,-5.913056E-4,-6.058843E-4,1190.2761,0.0,0.0,0.0,0.0,0.0,0.0,0.0,0.0,0.0,0.0,0.0,0.0,0.0,28.80768,0.05478599,62.36281,-0.002062947,-0.031033317,-4.6989264E-4,546249.9,119984.9,0.01793074,0.020064369,6959.537,6651.8,5057.6406,4620.55,0.3150053,0.0,0.0,0.0
67.570885,67.570885,1.016,0.0,0.0,248.3656,11618.0,100.0,0.0,0.5072306,0.0,6.0,0.0,0.0,4000000.0,110.0,1.0,0.0,0.0,10.0,0.0,0.0,-141.7267,3.153026,-38.799503,-0.19734436,0.5994275,-7.6427497E-4,254.30666,254.29161,248.305,248.12706,483.0,481.0,533.0,524.0,89.0,89.0,89.0,89.0,0.0,0.0,0.0,0.0,0.042731255,0.041439984,0.05100789,0.050031953,4.0709224,3.5221872,1.1193751,0.69200987,1.2874602,0.14751433,1.6763805,3.661215,0.0,0.0,0.0,2.0,1.0,0.42935783,-0.026499188,-1.8107891E-4,89.0,89.0,89.0,89.0,21.842827,21.842827,24.816736,24.816736,0.023656722,0.0242257,-5.8586086E-4,-6.0012116E-4,1193.1604,0.0,0.0,0.0,0.0,0.0,0.0,0.0,0.0,0.0,0.0,0.0,0.0,0.0,28.843866,0.05719254,62.67144,-0.0016203664,-0.029361444,1.10365916E-4,545311.25,119984.91,0.01776131,0.019787787,6992.0386,6677.045,5089.521,4641.7686,0.314785,0.0,0.0,0.0
71.02672,71.02672,1.066,0.0,0.0,249.41193,11664.0,100.0,0.0,0.50250435,0.0,6.0,0.0,0.0,4000000.0,110.0,1.0,0.0,0.0,10.0,0.0,0.0,-140.28363,3.1559443,-35.657864,-0.19931625,0.5897772,-7.664133E-4,255.32234,255.31363,249.34872,249.17747,481.0,480.0,531.0,522.0,89.0,89.0,89.0,89.0,0.0,0.0,0.0,0.0,0.04293884,0.041631106,0.05106142,0.05007437,4.2877345,3.9430704,1.0789185,0.85741276,13.4378805,2.6151464,3.98308,-3.1515954,0.0,0.0,0.0,2.0,1.0,0.4279265,-0.02651228,-2.5832653E-4,89.0,89.0,89.0,89.0,21.842827,21.842827,24.816736,24.816736,0.023448188,0.024015263,-5.816038E-4,-5.936072E-4,1195.8635,0.0,0.0,0.0,0.0,0.0,0.0,0.0,0.0,0.0,0.0,0.0,0.0,0.0,28.876204,0.05943764,62.976433,-0.0015540636,-0.02829537,4.1153043E-4,544391.25,119984.9,0.017568294,0.019489305,7026.3667,6709.6655,5123.4536,4671.3184,0.31454372,0.0,0.0,0.0
74.496605,74.496605,1.116,0.0,0.0,250.44135,11710.0,100.0,0.0,0.48361272,0.0,6.0,0.0,0.0,4000000.0,110.0,1.0,0.0,0.0,10.0,0.0,0.0,-138.83904,3.158999,-32.50108,-0.19754732,0.5801119,0.0018811729,256.32062,256.31396,250.37761,250.20886,479.0,478.0,529.0,520.0,89.0,89.0,89.0,89.0,0.0,0.0,0.0,0.0,0.043177724,0.041859638,0.051117845,0.05012658,4.7785788,4.701912,0.90233976,0.89831644,-24.314201,-15.945738,-31.770758,-26.996428,0.0,0.0,0.0,2.0,1.0,0.42651996,-0.026514888,-3.4737587E-4,89.0,89.0,89.0,89.0,21.842827,21.842827,24.816736,24.816736,0.023231104,0.023795387,-5.752728E-4,-5.887819E-4,1198.5896,0.0,0.0,0.0,0.0,0.0,0.0,0.0,0.0,0.0,0.0,0.0,0.0,0.0,28.905935,0.06281459,63.277294,-0.0015382625,-0.027807249,0.001218567,543488.8,119984.9,0.01738894,0.019171799,7064.2725,6748.734,5158.481,4705.3584,0.31430244,0.0,0.0,0.0
77.96946,77.96946,1.166,0.0,0.0,249.76248,11248.0,100.0,0.0,0.48426226,0.0,6.0,0.0,0.0,4000000.0,110.0,1.0,0.0,0.0,10.0,0.0,0.0,-137.39748,3.1631432,-29.339283,-0.20105623,-0.53921926,0.09583666,249.79694,249.71783,249.85219,249.69905,478.0,476.0,527.0,519.0,89.0,89.0,89.0,89.0,0.0,0.0,0.0,0.0,0.040398557,0.03908472,0.051826518,0.05082632,-75.0482,-75.40919,20.355284,20.007267,-625.18243,-630.5337,128.55833,135.86734,0.0,0.0,0.0,2.0,1.0,0.42513,-0.026525678,0.0012689829,89.0,89.0,89.0,89.0,21.842827,21.842827,24.816736,24.816736,-1.1354171E-4,1.15099305E-4,3.308739E-5,5.570286E-5,1164.929,0.0,0.0,0.0,0.0,0.0,0.0,0.0,0.0,0.0,0.0,0.0,0.0,0.0,28.738941,0.10596326,63.14613,0.037840646,-0.02773921,-0.017144661,549922.06,0.0,0.016207019,0.022225648,6801.0654,6477.7046,5853.2725,5395.8877,0.31502438,0.0,0.0,0.0
81.43498,81.43498,1.216,0.0,0.0,250.01323,10838.0,100.0,0.0,0.45926604,0.0,7.0,0.0,0.0,4000000.0,110.0,1.0,0.0,0.0,10.0,0.0,0.0,-135.96327,3.1685164,-26.181803,-0.185539,0.59153265,-0.12963732,256.7794,256.80362,249.92729,249.76112,476.0,474.0,525.0,517.0,89.0,89.0,89.0,89.0,0.0,0.0,0.0,0.0,0.03916426,0.03787518,0.05155609,0.05058277,17.938166,19.539892,-21.82625,-20.410715,2679.6472,2774.8254,-966.68134,-894.67755,0.0,0.0,0.0,2.0,1.0,0.4237646,-0.026474455,0.0012528896,89.0,89.0,89.0,89.0,21.842827,21.842827,24.816736,24.816736,0.026707632,0.027360559,-6.1959564E-4,-6.32814E-4,1116.1682,0.0,0.0,0.0,0.0,0.0,0.0,0.0,0.0,0.0,0.0,0.0,0.0,0.0,28.680521,0.08826654,63.2492,-0.03397074,-0.0262912,0.018648475,546836.5,119984.89,0.018020747,0.024086947,6611.241,6309.915,5184.3716,4746.753,0.31685925,0.0,0.0,0.0
84.91338,84.91338,1.266,0.0,0.0,251.20988,10508.0,100.0,0.0,0.45615706,0.0,7.0,0.0,0.0,4000000.0,110.0,1.0,0.0,0.0,10.0,0.0,0.0,-134.52782,3.1710305,-23.010351,-0.1836862,0.67676336,-0.08667171,257.72305,257.73575,251.11942,250.96701,474.0,472.0,524.0,515.0,89.0,89.0,89.0,89.0,0.0,0.0,0.0,0.0,0.04174753,0.04059019,0.050722398,0.04983486,55.46875,56.339348,-4.66302,-4.01549,90.631935,-55.74989,828.8159,740.8529,0.0,0.0,0.0,2.0,1.0,0.42252046,-0.026367037,-3.2126904E-4,89.0,89.0,89.0,89.0,21.842827,21.842827,24.816736,24.816736,0.025753113,0.026325934,-6.4264325E-4,-6.567794E-4,1070.795,0.0,0.0,0.0,0.0,0.0,0.0,0.0,0.0,0.0,0.0,0.0,0.0,0.0,28.734238,0.025396604,63.589813,-0.015125447,-0.024575852,0.0062742895,541082.25,119984.91,0.018645095,0.02075214,7012.3037,6720.5986,4842.2495,4436.879,0.31570625,0.0,0.0,0.0
88.40768,88.40768,1.316,0.0,0.0,252.31587,10383.0,100.0,0.0,0.47734585,0.0,7.0,0.0,0.0,4000000.0,110.0,1.0,0.0,0.0,10.0,0.0,0.0,-133.08987,3.1724522,-19.822157,-0.1907888,0.5643259,0.07555461,257.97787,257.9852,252.25145,252.0905,472.0,470.0,522.0,513.0,89.0,89.0,89.0,89.0,0.0,0.0,0.0,0.0,0.04399496,0.04271213,0.051183857,0.05022023,35.31754,32.376495,11.314451,9.488314,-689.79694,-687.1014,43.19698,43.612686,0.0,0.0,0.0,2.0,1.0,0.42122796,-0.0264714,-7.5268745E-4,89.0,89.0,89.0,89.0,21.842827,21.842827,24.816736,24.816736,0.02226025,0.02285588,-5.623013E-4,-5.713694E-4,1046.5098,0.0,0.0,0.0,0.0,0.0,0.0,0.0,0.0,0.0,0.0,0.0,0.0,0.0,28.77526,0.04244145,63.908325,-0.0044421614,-0.026624182,6.2683655E-4,535177.0,119984.9,0.016725317,0.017809136,7292.9893,6983.3745,5313.159,4867.861,0.31332493,0.0,0.0,0.0
91.915565,91.915565,1.366,0.0,0.0,253.27814,10422.0,100.0,0.0,0.49230042,0.0,7.0,0.0,0.0,4000000.0,110.0,1.0,0.0,0.0,10.0,0.0,0.0,-131.65045,3.175734,-16.619287,-0.19102392,0.54256743,0.062238906,258.95386,258.95612,253.21454,253.0535,470.0,468.0,520.0,512.0,89.0,89.0,89.0,89.0,0.0,0.0,0.0,0.0,0.044737205,0.04345775,0.051392876,0.050439052,5.4209676,6.0658154,0.3547221,0.8978694,-547.5729,-536.2272,-215.83733,-210.05716,0.0,0.0,0.0,2.0,1.0,0.4198975,-0.026455022,-9.124279E-4,89.0,89.0,89.0,89.0,21.842827,21.842827,24.816736,24.816736,0.022153134,0.02272254,-5.5708823E-4,-5.622239E-4,1054.2346,0.0,0.0,0.0,0.0,0.0,0.0,0.0,0.0,0.0,0.0,0.0,0.0,0.0,28.800077,0.0833287,64.190186,-0.0015725894,-0.026788792,0.0011165787,537110.0,119984.9,0.016219154,0.016979063,7286.9355,6988.0674,5337.288,4903.0195,0.3126707,0.0,0.0,0.0
95.436325,95.436325,1.416,0.0,0.0,254.2291,10463.0,100.0,0.0,0.35706484,0.0,7.0,0.0,0.0,4000000.0,110.0,1.0,0.0,0.0,10.0,0.0,0.0,-130.20975,3.1802793,-13.402444,-0.1727263,0.5374976,-0.0075251013,259.98328,259.98157,254.1554,254.01524,468.0,466.0,518.0,510.0,89.0,89.0,89.0,89.0,0.0,0.0,0.0,0.0,0.04441855,0.043203063,0.05126576,0.05036396,-10.088458,-7.951631,-2.9522178,-1.323223,-180.15053,-128.65213,-2.1591709,29.66523,0.0,0.0,0.0,2.0,1.0,0.4186427,-0.026369158,-8.803606E-4,89.0,89.0,89.0,89.0,21.842827,21.842827,24.816736,24.816736,0.022419214,0.02288748,-5.4984074E-4,-5.6842656E-4,1062.3993,0.0,0.0,0.0,0.0,0.0,0.0,0.0,0.0,0.0,0.0,0.0,0.0,0.0,28.827621,0.09253245,64.46728,0.0032075117,-0.022881517,0.0015254586,539148.7,119984.9,0.016628066,0.017551275,7155.995,6882.3555,5223.823,4817.2183,0.31315422,0.0,0.0,0.0
98.96985,98.96985,1.466,0.0,0.0,255.17416,10502.0,100.0,0.0,0.29263666,0.0,7.0,0.0,0.0,4000000.0,110.0,1.0,0.0,0.0,10.0,0.0,0.0,-128.76747,3.184709,-10.171885,-0.15476078,0.5344072,-0.021350479,260.94513,260.95657,255.0846,254.97603,466.0,464.0,516.0,508.0,89.0,89.0,89.0,89.0,0.0,0.0,0.0,0.0,0.04399481,0.04291054,0.051199883,0.050393224,-5.9730554,-3.6167352,-0.4519522,1.221299,167.97331,139.99786,43.10309,19.419188,0.0,0.0,0.0,2.0,1.0,0.4176511,-0.026232876,-7.8344345E-4,89.0,89.0,89.0,89.0,21.842827,21.842827,24.816736,24.816736,0.022478852,0.022880964,-5.506925E-4,-5.64869E-4,1070.0021,0.0,0.0,0.0,0.0,0.0,0.0,0.0,0.0,0.0,0.0,0.0,0.0,0.0,28.862267,0.084730476,64.73932,0.0017304035,-0.017622048,0.0016700417,540990.5,119984.914,0.016735164,0.017970646,7129.7437,6883.0386,5220.632,4856.134,0.31339836,0.0,0.0,0.0
102.51604,102.51604,1.516,0.0,0.0,256.11197,10539.0,100.0,0.0,0.33282158,0.0,7.0,0.0,0.0,4000000.0,110.0,1.0,0.0,0.0,10.0,0.0,0.0,-127.32332,3.1887712,-6.9278464,-0.1443586,0.52984023,-0.014763178,261.84195,261.87842,256.0183,255.91805,464.0,462.0,515.0,506.0,89.0,89.0,89.0,89.0,0.0,0.0,0.0,0.0,0.043986216,0.04298955,0.05121034,0.050466742,2.1913645,3.2973287,0.7950514,1.6897916,119.96178,71.53451,67.605064,34.104286,0.0,0.0,0.0,2.0,1.0,0.4168262,-0.026149867,-7.715225E-4,89.0,89.0,89.0,89.0,21.842827,21.842827,24.816736,24.816736,0.02226683,0.022732932,-5.54761E-4,-5.564489E-4,1075.0396,0.0,0.0,0.0,0.0,0.0,0.0,0.0,0.0,0.0,0.0,0.0,0.0,0.0,28.902073,0.078499086,65.00676,2.1122783E-4,-0.016645111,6.901826E-4,541629.2,119984.9,0.016466292,0.01778596,7173.374,6939.62,5244.115,4906.387,0.31316757,0.0,0.0,0.0
106.074814,106.074814,1.566,0.0,0.0,257.03918,10575.0,100.0,0.0,0.36442855,0.0,7.0,0.0,0.0,4000000.0,110.0,1.0,0.0,0.0,10.0,0.0,0.0,-125.87713,3.1926255,-3.6705356,-0.1405049,0.523414,-0.00556237,262.74783,262.7776,256.95135,256.83984,462.0,460.0,513.0,505.0,89.0,89.0,89.0,89.0,0.0,0.0,0.0,0.0,0.044252504,0.043266967,0.051279023,0.050549667,6.3908095,6.566271,1.3614445,1.5818326,52.718807,55.70949,-4.1037793,-4.6938653,0.0,0.0,0.0,2.0,1.0,0.41594294,-0.026136274,-8.1956387E-4,89.0,89.0,89.0,89.0,21.842827,21.842827,24.816736,24.816736,0.022067474,0.02256204,-5.516226E-4,-5.518534E-4,1079.9744,0.0,0.0,0.0,0.0,0.0,0.0,0.0,0.0,0.0,0.0,0.0,0.0,0.0,28.942892,0.07646069,65.27044,-0.0014937272,-0.0186172,6.4692716E-4,542263.1,119984.89,0.015930237,0.017201535,7226.484,6997.369,5293.3877,4960.9473,0.31262302,0.0,0.0,0.0
109.64601,109.64601,1.616,0.0,0.0,257.95782,10610.0,100.0,0.0,0.34009552,0.0,7.0,0.0,0.0,4000000.0,110.0,1.0,0.0,0.0,10.0,0.0,0.0,-124.428925,3.1965387,-0.4001071,-0.13949695,0.51984274,0.059828736,263.60242,263.6215,257.87363,257.75607,460.0,458.0,511.0,503.0,89.0,89.0,89.0,89.0,0.0,0.0,0.0,0.0,0.044834994,0.043838654,0.051459175,0.050720043,21.177603,20.98806,8.676723,8.302107,859.19183,867.4799,461.46063,452.19354,0.0,0.0,0.0,2.0,1.0,0.41497284,-0.026136206,-9.485483E-4,89.0,89.0,89.0,89.0,21.842827,21.842827,24.816736,24.816736,0.021728657,0.022204166,-5.4355356E-4,-5.479017E-4,1084.7417,0.0,0.0,0.0,0.0,0.0,0.0,0.0,0.0,0.0,0.0,0.0,0.0,0.0,28.983255,0.086603284,65.53164,-0.0051635173,-0.01941552,0.0032520443,542860.1,119984.9,0.015474911,0.016447289,7393.752,7162.5815,5499.1133,5159.7954,0.3121338,0.0,0.0,0.0
113.229355,113.229355,1.666,0.0,0.0,258.85983,10647.0,100.0,0.0,0.31433868,0.0,7.0,0.0,0.0,4000000.0,110.0,1.0,0.0,0.0,10.0,0.0,0.0,-122.97874,3.2012448,2.8832548,-0.13728136,0.50995266,0.024745915,264.5505,264.55173,258.7739,258.65973,458.0,456.0,509.0,501.0,89.0,89.0,89.0,89.0,0.0,0.0,0.0,0.0,0.045114703,0.044150524,0.051470157,0.050741896,1.2172757,1.5588104,3.4444032,3.47279,-129.45682,-150.15005,340.10406,332.9694,0.0,0.0,0.0,2.0,1.0,0.41401476,-0.026097896,-0.0011924505,89.0,89.0,89.0,89.0,21.842827,21.842827,24.816736,24.816736,0.021837922,0.022227172,-5.3960626E-4,-5.469642E-4,1089.846,0.0,0.0,0.0,0.0,0.0,0.0,0.0,0.0,0.0,0.0,0.0,0.0,0.0,29.02225,0.0995421,65.78831,-0.005614107,-0.018697599,0.003325224,543519.2,119984.91,0.015437446,0.016175749,7326.996,7103.753,5443.379,5110.6953,0.3123455,0.0,0.0,0.0
116.82398,116.82398,1.716,0.0,0.0,259.754,10683.0,100.0,0.0,0.3235065,0.0,7.0,0.0,0.0,4000000.0,110.0,1.0,0.0,0.0,10.0,0.0,0.0,-121.526596,3.206418,6.179372,-0.13488485,0.51072824,-0.03436684,265.42804,265.43646,259.664,259.5563,456.0,455.0,508.0,499.0,89.0,89.0,89.0,89.0,0.0,0.0,0.0,0.0,0.04534218,0.044371832,0.051244684,0.050567657,7.3481345,6.548836,-12.3775,-10.959059,186.6817,147.06549,-629.70215,-614.05145,0.0,0.0,0.0,2.0,1.0,0.41311064,-0.026090689,-0.0015089512,89.0,89.0,89.0,89.0,21.842827,21.842827,24.816736,24.816736,0.02172039,0.022106277,-5.477791E-4,-5.5498054E-4,1094.776,0.0,0.0,0.0,0.0,0.0,0.0,0.0,0.0,0.0,0.0,0.0,0.0,0.0,29.06131,0.10090936,66.04252,0.0034518715,-0.017846724,-0.002987216,544138.0,119984.9,0.016505856,0.015913673,7380.1104,7153.4663,5120.8184,4813.9834,0.31143093,0.0,0.0,0.0
120.430756,120.430756,1.766,0.0,0.0,260.63004,10724.0,100.0,0.0,0.3242866,0.0,7.0,0.0,0.0,4000000.0,110.0,1.0,0.0,0.0,10.0,0.0,0.0,-120.07257,3.2109506,9.488137,-0.13370606,0.48815063,-0.044387516,266.46066,266.45236,260.5467,260.43536,454.0,453.0,506.0,498.0,89.0,89.0,89.0,89.0,0.0,0.0,0.0,0.0,0.04485739,0.04388967,0.05135453,0.050618608,-25.424881,-23.252068,10.718777,9.856894,-1207.7583,-1060.1161,446.96323,485.8016,0.0,0.0,0.0,2.0,1.0,0.41217613,-0.026125291,-5.9247017E-4,89.0,89.0,89.0,89.0,21.842827,21.842827,24.816736,24.816736,0.022177503,0.022515247,-5.3026184E-4,-5.3170405E-4,1100.4265,0.0,0.0,0.0,0.0,0.0,0.0,0.0,0.0,0.0,0.0,0.0,0.0,0.0,29.097454,0.08209023,66.292465,0.010995178,-0.018919874,-0.004320233,544855.4,119984.89,0.01627368,0.017500447,7074.209,6864.2197,5440.19,5101.885,0.3140974,0.0,0.0,0.0
124.04944,124.04944,1.816,0.0,0.0,261.50626,10752.0,100.0,0.0,0.32770115,0.0,7.0,0.0,0.0,4000000.0,110.0,1.0,0.0,0.0,10.0,0.0,0.0,-118.616745,3.2147348,12.809344,-0.13749102,0.49797255,0.013225075,267.1352,267.15225,261.4178,261.30435,453.0,451.0,504.0,496.0,89.0,89.0,89.0,89.0,0.0,0.0,0.0,0.0,0.044882774,0.04392838,0.05159607,0.050876252,25.282724,25.172083,0.6730109,1.3350694,1611.2966,1609.3118,-235.31017,-201.62164,0.0,0.0,0.0,2.0,1.0,0.41124758,-0.026078632,-0.0012463331,89.0,89.0,89.0,89.0,21.842827,21.842827,24.816736,24.816736,0.021442804,0.021890078,-5.376647E-4,-5.410492E-4,1104.2812,0.0,0.0,0.0,0.0,0.0,0.0,0.0,0.0,0.0,0.0,0.0,0.0,0.0,29.13344,0.07635356,66.54245,-0.02186367,-0.01826387,0.010563346,545340.1,119984.9,0.01525276,0.016324855,7438.6504,7214.708,5493.3726,5167.1177,0.31231976,0.0,0.0,0.0
127.68006,127.68006,1.866,0.0,0.0,262.3734,10784.0,100.0,0.0,0.32497022,0.0,7.0,0.0,0.0,4000000.0,110.0,1.0,0.0,0.0,10.0,0.0,0.0,-117.1591,3.2192607,16.143,-0.13611227,0.48934197,0.07277325,267.9329,267.93054,262.28284,262.17786,451.0,449.0,502.0,494.0,89.0,89.0,89.0,89.0,0.0,0.0,0.0,0.0,0.046533007,0.045593433,0.051625937,0.050928153,27.402117,27.622728,2.0413845,2.3563204,-358.97333,-366.17508,130.99907,126.14426,0.0,0.0,0.0,2.0,1.0,0.41037393,-0.026047263,-0.0020879507,89.0,89.0,89.0,89.0,21.842827,21.842827,24.816736,24.816736,0.021063609,0.021400034,-5.356611E-4,-5.3540786E-4,1108.6932,0.0,0.0,0.0,0.0,0.0,0.0,0.0,0.0,0.0,0.0,0.0,0.0,0.0,29.16974,0.10660428,66.78944,-0.008778238,-0.017327173,0.0034418511,545894.25,119984.9,0.014346542,0.013709903,7630.203,7413.589,5527.827,5209.88,0.31023693,0.0,0.0,0.0
131.32242,131.32242,1.916,0.0,0.0,263.2261,10820.0,100.0,0.0,0.2499884,0.0,7.0,0.0,0.0,4000000.0,110.0,1.0,0.0,0.0,10.0,0.0,0.0,-115.69966,3.2252123,19.488895,-0.124271706,0.4798666,0.008648403,268.8456,268.84885,263.1346,263.03857,449.0,447.0,500.0,492.0,89.0,89.0,89.0,89.0,0.0,0.0,0.0,0.0,0.046860453,0.045892645,0.05142696,0.050742622,-5.284175,-4.825741,-3.1607597,-2.7152894,-688.25476,-591.13196,138.92499,184.50914,0.0,0.0,0.0,2.0,1.0,0.409521,-0.026054459,-0.0018476248,89.0,89.0,89.0,89.0,21.842827,21.842827,24.816736,24.816736,0.021197714,0.021520523,-5.271951E-4,-5.378786E-4,1113.7024,0.0,0.0,0.0,0.0,0.0,0.0,0.0,0.0,0.0,0.0,0.0,0.0,0.0,29.206326,0.124296986,67.03186,0.01668382,-0.016101371,-0.0052959356,546536.2,119984.9,0.015486436,0.01388492,7518.4287,7304.914,5338.755,5028.426,0.31087494,0.0,0.0,0.0
134.97629,134.97629,1.966,0.0,0.0,264.06003,10860.0,100.0,0.0,0.23461224,0.0,7.0,0.0,0.0,4000000.0,110.0,1.0,0.0,0.0,10.0,0.0,0.0,-114.23836,3.2309463,22.846725,-0.11523214,0.47245997,-0.097902924,269.81607,269.84506,263.96152,263.87662,447.0,445.0,499.0,491.0,89.0,89.0,89.0,89.0,0.0,0.0,0.0,0.0,0.04556326,0.04470113,0.051424097,0.050782986,-27.93677,-26.497093,-3.0959396,-2.1435318,26.030844,-2.8430555,-351.85214,-339.24576,0.0,0.0,0.0,2.0,1.0,0.40877068,-0.025981426,-0.0012629032,89.0,89.0,89.0,89.0,21.842827,21.842827,24.816736,24.816736,0.02171593,0.022097753,-5.2591186E-4,-5.320281E-4,1119.2284,0.0,0.0,0.0,0.0,0.0,0.0,0.0,0.0,0.0,0.0,0.0,0.0,0.0,29.244308,0.097959496,67.268005,0.002749223,-0.013991714,2.4102151E-4,547224.94,119984.89,0.015691835,0.016083859,7185.5195,6997.3633,5341.312,5051.834,0.31212616,0.0,0.0,0.0
138.64162,138.64162,2.033,0.0,0.0,264.89816,10888.0,100.0,0.0,0.2241072,0.0,7.0,0.0,0.0,4000000.0,110.0,1.0,0.0,0.0,10.0,0.0,0.0,-112.77504,3.2352607,26.216364,-0.10862798,0.47214344,-0.0013465811,270.50333,270.52664,264.7947,264.71817,445.0,443.0,497.0,489.0,89.0,89.0,89.0,89.0,0.0,0.0,0.0,0.0,0.045757197,0.044950727,0.051538467,0.05094207,0.0,0.0,0.0,0.0,755.83295,763.303,-40.662285,-40.70251,0.0,0.0,0.0,2.0,1.0,0.40811816,-0.025918404,-0.0014802217,89.0,89.0,89.0,89.0,21.842827,21.842827,24.816736,24.816736,0.021099798,0.021433936,-5.2634295E-4,-5.2925013E-4,1123.103,0.0,0.0,0.0,0.0,0.0,0.0,0.0,0.0,0.0,0.0,0.0,0.0,0.0,29.286537,0.0836633,67.50351,-0.0055032857,-0.012479432,0.003530324,547707.25,119984.9,0.015010102,0.015049589,7504.269,7322.5757,5486.9746,5217.0015,0.31115437,0.0,0.0,0.0
142.31833,142.31833,2.066,0.0,0.0,265.72256,10919.0,100.0,0.0,0.17496704,0.0,7.0,0.0,0.0,4000000.0,110.0,1.0,0.0,0.0,10.0,0.0,0.0,-111.30951,3.2397819,29.597618,-0.09554364,0.46484998,0.03203644,271.28702,271.30847,265.61386,265.54904,443.0,441.0,495.0,487.0,89.0,89.0,89.0,89.0,0.0,0.0,0.0,0.0,0.046632893,0.045894742,0.051638044,0.0510926,14.269351,16.10443,0.983253,2.305582,-232.46709,-200.34758,-69.0937,-50.30482,0.0,0.0,0.0,2.0,1.0,0.40754333,-0.025841411,-0.0017546415,89.0,89.0,89.0,89.0,21.842827,21.842827,24.816736,24.816736,0.020884553,0.0211682,-5.219377E-4,-5.270322E-4,1127.4316,0.0,0.0,0.0,0.0,0.0,0.0,0.0,0.0,0.0,0.0,0.0,0.0,0.0,29.332811,0.09812209,67.73302,-0.003189622,-0.010467377,0.0033976678,548257.25,119984.89,0.01446353,0.013858144,7587.283,7424.047,5543.1953,5297.836,0.31031036,0.0,0.0,0.0
146.00629,146.00629,2.116,0.0,0.0,266.53558,10952.0,100.0,0.0,0.08338092,0.0,7.0,0.0,0.0,4000000.0,110.0,1.0,0.0,0.0,10.0,0.0,0.0,-109.84153,3.245063,32.99021,-0.07643526,0.4585745,0.013925215,272.1098,272.13248,266.41943,266.37115,441.0,440.0,493.0,486.0,89.0,89.0,89.0,89.0,0.0,0.0,0.0,0.0,0.04690267,0.04624814,0.05161501,0.051127892,1.0802596,2.7582047,-1.1003761,0.44725832,-254.74277,-204.90732,-43.344486,2.6822088,0.0,0.0,0.0,2.0,1.0,0.4070721,-0.025748901,-0.0018647909,89.0,89.0,89.0,89.0,21.842827,21.842827,24.816736,24.816736,0.020877354,0.02110708,-5.154517E-4,-5.2837835E-4,1132.0311,0.0,0.0,0.0,0.0,0.0,0.0,0.0,0.0,0.0,0.0,0.0,0.0,0.0,29.384016,0.11045739,67.95692,9.1349095E-4,-0.0074852295,0.0032764704,548835.2,119984.9,0.014416007,0.013558921,7566.814,7425.0776,5509.999,5293.1543,0.310153,0.0,0.0,0.0
149.70534,149.70534,2.183,0.0,0.0,267.33868,10985.0,100.0,0.0,-0.011079953,0.0,7.0,0.0,0.0,4000000.0,110.0,1.0,0.0,0.0,10.0,0.0,0.0,-108.37075,3.2506416,36.393806,-0.04977227,0.45320043,-0.006634821,272.92545,272.95547,267.2056,267.19208,440.0,438.0,492.0,484.0,89.0,89.0,89.0,89.0,0.0,0.0,0.0,0.0,0.046760384,0.046258345,0.051543128,0.051180184,0.0,0.0,0.0,0.0,-13.45127,3.7685025,17.957388,25.038416,0.0,0.0,0.0,2.0,1.0,0.40684536,-0.025569586,-0.0018407106,89.0,89.0,89.0,89.0,21.842827,21.842827,24.816736,24.816736,0.020925283,0.021060767,-5.128428E-4,-5.262059E-4,1136.632,0.0,0.0,0.0,0.0,0.0,0.0,0.0,0.0,0.0,0.0,0.0,0.0,0.0,29.445318,0.11109121,68.17345,0.0022302896,-0.0015934374,0.0032096487,549410.3,119984.9,0.014459395,0.01367905,7520.5054,7423.5996,5478.6006,5320.156,0.31023216,0.0,0.0,0.0
153.41542,153.41542,2.233,0.0,0.0,268.13306,11017.0,100.0,0.0,0.023616558,0.0,7.0,0.0,0.0,4000000.0,110.0,1.0,0.0,0.0,10.0,0.0,0.0,-106.89666,3.2561054,39.808044,-0.03258352,0.44819295,-0.0077391155,273.70984,273.74316,267.99222,267.99442,438.0,436.0,490.0,482.0,89.0,89.0,89.0,89.0,0.0,0.0,0.0,0.0,0.046693627,0.046339083,0.051521234,0.05126134,0.0,0.0,0.0,0.0,118.49998,66.65289,40.60864,-0.7241964,0.0,0.0,0.0,2.0,1.0,0.4068506,-0.025429789,-0.0018279552,89.0,89.0,89.0,89.0,21.842827,21.842827,24.816736,24.816736,0.020854963,0.020957695,-5.1703845E-4,-5.1744154E-4,1140.4935,0.0,0.0,0.0,0.0,0.0,0.0,0.0,0.0,0.0,0.0,0.0,0.0,0.0,29.515612,0.10772572,68.38345,3.8668702E-4,5.792533E-4,0.0017823849,549675.6,119984.9,0.014360764,0.013613641,7533.4326,7458.407,5485.435,5370.293,0.3101473,0.0,0.0,0.0
157.13644,157.13644,2.266,0.0,0.0,268.91742,11048.0,100.0,0.0,0.09857946,0.0,7.0,0.0,0.0,4000000.0,110.0,1.0,0.0,0.0,10.0,0.0,0.0,-105.418945,3.2614555,43.232655,-0.02829726,0.44218996,-0.0011977097,274.4813,274.50055,268.78525,268.77042,436.0,434.0,488.0,480.0,89.0,89.0,89.0,89.0,0.0,0.0,0.0,0.0,0.046879817,0.046556763,0.051556315,0.051322207,5.0783153,4.706159,1.0326504,0.82544976,77.08667,8.328265,22.557373,-28.270477,0.0,0.0,0.0,2.0,1.0,0.40681174,-0.02539883,-0.0018796921,89.0,89.0,89.0,89.0,21.842827,21.842827,24.816736,24.816736,0.020713016,0.02083034,-5.1788625E-4,-5.1153917E-4,1143.771,0.0,0.0,0.0,0.0,0.0,0.0,0.0,0.0,0.0,0.0,0.0,0.0,0.0,29.588762,0.10685369,68.58919,-0.0014854181,-0.0025910088,3.1883223E-4,549708.44,119984.9,0.014185702,0.013306576,7574.306,7503.3965,5513.4937,5405.991,0.3099165,0.0,0.0,0.0
160.86826,160.86826,2.316,0.0,0.0,269.6913,11078.0,100.0,0.0,0.13128756,0.0,7.0,0.0,0.0,4000000.0,110.0,1.0,0.0,0.0,10.0,0.0,0.0,-103.93764,3.2668304,46.667492,-0.033428,0.4362524,2.3608422E-4,275.24643,275.25262,269.57043,269.53357,434.0,432.0,487.0,479.0,89.0,89.0,89.0,89.0,0.0,0.0,0.0,0.0,0.04714716,0.046786916,0.05160481,0.051344015,4.851445,4.1458006,0.7335841,0.16920267,-50.22437,-35.968433,-24.233753,-16.790627,0.0,0.0,0.0,2.0,1.0,0.40656966,-0.02543668,-0.0019586086,89.0,89.0,89.0,89.0,21.842827,21.842827,24.816736,24.816736,0.020582598,0.020725988,-5.141232E-4,-5.104006E-4,1146.9447,0.0,0.0,0.0,0.0,0.0,0.0,0.0,0.0,0.0,0.0,0.0,0.0,0.0,29.659294,0.108086675,68.79288,-0.0015169823,-0.0062670535,-1.1879369E-5,549741.0,119984.89,0.014023054,0.012958936,7611.484,7532.4883,5536.795,5416.628,0.3096714,0.0,0.0,0.0
164.61072,164.61072,2.366,0.0,0.0,270.45486,11108.0,100.0,0.0,0.089886636,0.0,7.0,0.0,0.0,4000000.0,110.0,1.0,0.0,0.0,10.0,0.0,0.0,-102.45286,3.2723048,50.11247,-0.03465928,0.42995492,0.017392777,275.99176,275.99658,270.3335,270.29807,432.0,430.0,485.0,477.0,89.0,89.0,89.0,89.0,0.0,0.0,0.0,0.0,0.04740627,0.047033314,0.051675353,0.051415686,5.198344,6.3237543,2.697855,2.9587,-41.225536,124.883644,119.34488,129.96642,0.0,0.0,0.0,2.0,1.0,0.40626225,-0.025430063,-0.0020360947,89.0,89.0,89.0,89.0,21.842827,21.842827,24.816736,24.816736,0.0204678,0.020587763,-5.07879E-4,-5.09992E-4,1150.1176,0.0,0.0,0.0,0.0,0.0,0.0,0.0,0.0,0.0,0.0,0.0,0.0,0.0,29.727762,0.112463556,68.99432,-0.0026024017,-0.0057333712,0.0013940634,549772.94,119984.9,0.013920619,0.012676574,7644.7344,7581.5815,5610.992,5493.283,0.3094902,0.0,0.0,0.0
168.36368,168.36368,2.416,0.0,0.0,271.20694,11138.0,100.0,0.0,0.07818705,0.0,7.0,0.0,0.0,4000000.0,110.0,1.0,0.0,0.0,10.0,0.0,0.0,-100.964714,3.2781084,53.56745,-0.036549747,0.42374712,0.007698097,276.73065,276.7427,271.0833,271.05316,430.0,429.0,483.0,475.0,89.0,89.0,89.0,89.0,0.0,0.0,0.0,0.0,0.04764252,0.04726644,0.051679067,0.05140262,3.8693097,3.203228,-0.23089348,-0.65602356,-73.85463,-85.736786,-5.860626,-2.0250676,0.0,0.0,0.0,2.0,1.0,0.40599868,-0.025453167,-0.0021857023,89.0,89.0,89.0,89.0,21.842827,21.842827,24.816736,24.816736,0.0203634,0.02049869,-5.053968E-4,-5.0810014E-4,1153.2905,0.0,0.0,0.0,0.0,0.0,0.0,0.0,0.0,0.0,0.0,0.0,0.0,0.0,29.793764,0.118570454,69.193344,-0.0019397388,-0.0048363693,6.076697E-4,549804.8,119984.91,0.014192238,0.01258118,7681.4683,7596.0444,5573.035,5445.463,0.30960274,0.0,0.0,0.0
172.12694,172.12694,2.466,0.0,0.0,271.94714,11168.0,100.0,0.0,0.13288148,0.0,7.0,0.0,0.0,4000000.0,110.0,1.0,0.0,0.0,10.0,0.0,0.0,-99.47334,3.2841399,57.032322,-0.043033823,0.41693693,0.0056176996,277.46957,277.48108,271.8268,271.7912,429.0,427.0,481.0,474.0,89.0,89.0,89.0,89.0,0.0,0.0,0.0,0.0,0.047742367,0.04734115,0.051692702,0.051399782,1.804009,0.8813291,0.65691763,0.018775461,2.6553867,-29.866392,22.919474,0.1206994,0.0,0.0,0.0,2.0,1.0,0.405738,-0.02548089,-0.002247572,89.0,89.0,89.0,89.0,21.842827,21.842827,24.816736,24.816736,0.020292751,0.020447137,-5.0555775E-4,-5.0153595E-4,1156.4636,0.0,0.0,0.0,0.0,0.0,0.0,0.0,0.0,0.0,0.0,0.0,0.0,0.0,29.85669,0.1224045,69.39011,-0.0013409043,-0.006044455,-5.867432E-4,549836.5,119984.91,0.01455975,0.012802124,7690.4814,7598.906,5589.455,5453.9736,0.3099022,0.0,0.0,0.0
175.90036,175.90036,2.516,0.0,0.0,272.67682,11198.0,100.0,0.0,0.12461624,0.0,7.0,0.0,0.0,4000000.0,110.0,1.0,0.0,0.0,10.0,0.0,0.0,-97.97894,3.2898993,60.506977,-0.046005465,0.4149677,-0.04365384,278.2314,278.23953,272.56097,272.51706,427.0,425.0,480.0,472.0,89.0,89.0,89.0,89.0,0.0,0.0,0.0,0.0,0.04744884,0.047010362,0.05160381,0.05128341,-4.9772854,-5.24573,2.25462,2.0015984,580.40314,614.1319,638.41925,660.82916,0.0,0.0,0.0,2.0,1.0,0.40538675,-0.025513932,-0.0021681786,89.0,89.0,89.0,89.0,21.842827,21.842827,24.816736,24.816736,0.020362426,0.020530827,-5.028324E-4,-5.0364377E-4,1159.6389,0.0,0.0,0.0,0.0,0.0,0.0,0.0,0.0,0.0,0.0,0.0,0.0,0.0,29.915583,0.10390542,69.58544,0.0027960353,-0.007381805,-0.0011555548,549869.1,119984.91,0.01443967,0.012919267,7626.716,7528.6807,5545.8203,5399.3457,0.3098879,0.0,0.0,0.0
179.68382,179.68382,2.566,0.0,0.0,273.40225,11226.0,100.0,0.0,0.046408568,0.0,7.0,0.0,0.0,4000000.0,110.0,1.0,0.0,0.0,10.0,0.0,0.0,-96.481606,3.2948146,63.99137,-0.040295362,0.41175097,0.011664262,278.91098,278.91916,273.27948,273.2467,425.0,423.0,478.0,470.0,89.0,89.0,89.0,89.0,0.0,0.0,0.0,0.0,0.047551963,0.047166727,0.05187895,0.05154753,6.6288557,8.541718,12.450143,12.601687,706.1585,756.95953,856.2817,917.9189,0.0,0.0,0.0,2.0,1.0,0.40506184,-0.02546444,-0.0021959543,89.0,89.0,89.0,89.0,21.842827,21.842827,24.816736,24.816736,0.020177817,0.020304514,-4.977307E-4,-5.056726E-4,1162.6002,0.0,0.0,0.0,0.0,0.0,0.0,0.0,0.0,0.0,0.0,0.0,0.0,0.0,29.975098,0.09609619,69.77921,-0.0074305185,-0.004886516,0.0059831426,549898.3,119984.91,0.012308916,0.011743285,7717.583,7634.454,5840.099,5690.593,0.30871964,0.0,0.0,0.0
183.47733,183.47733,2.616,0.0,0.0,274.12772,11248.0,100.0,0.0,-0.055464294,0.0,7.0,0.0,0.0,4000000.0,110.0,1.0,0.0,0.0,10.0,0.0,0.0,-94.981155,3.300539,67.48539,-0.023006886,0.41187465,0.10117163,279.45093,279.4885,273.98956,273.98483,423.0,421.0,476.0,469.0,89.0,89.0,89.0,89.0,0.0,0.0,0.0,0.0,0.04896119,0.0488571,0.051935192,0.05172459,28.066856,41.59793,-8.388608,-4.2794642,-484.56775,287.0233,-592.1914,-450.11487,0.0,0.0,0.0,2.0,1.0,0.4049453,-0.02526382,-0.003140092,89.0,89.0,89.0,89.0,21.842827,21.842827,24.816736,24.816736,0.019488927,0.019613441,-4.9678766E-4,-5.1247375E-4,1164.9293,0.0,0.0,0.0,0.0,0.0,0.0,0.0,0.0,0.0,0.0,0.0,0.0,0.0,30.041134,0.1356561,69.9701,-0.006128515,2.7001748E-4,0.011225301,549922.25,119984.9,0.011864699,0.008718461,8148.558,8039.066,5668.95,5591.081,0.30574322,0.0,0.0,0.0
187.28079,187.28079,2.666,0.0,0.0,274.829,11286.0,100.0,0.0,-0.17500624,0.0,7.0,0.0,0.0,4000000.0,110.0,1.0,0.0,0.0,10.0,0.0,0.0,-93.477104,3.308132,70.98871,0.011603937,0.3858275,-0.102953054,280.3842,280.42245,274.6761,274.7194,421.0,420.0,475.0,467.0,89.0,89.0,89.0,89.0,0.0,0.0,0.0,0.0,0.047819566,0.047824617,0.05137946,0.051397182,-45.376938,-42.351185,-13.440772,-8.477792,-1386.9834,-1187.2262,-350.52444,-245.87807,0.0,0.0,0.0,2.0,1.0,0.40513697,-0.025115058,-0.0020221472,89.0,89.0,89.0,89.0,21.842827,21.842827,24.816736,24.816736,0.020220803,0.020181049,-4.8228283E-4,-4.973222E-4,1168.9496,0.0,0.0,0.0,0.0,0.0,0.0,0.0,0.0,0.0,0.0,0.0,0.0,0.0,30.117691,0.14334077,70.149216,0.03556859,0.007084337,-0.018044388,549962.06,119984.91,0.013939198,0.011450161,7555.8105,7550.335,5262.1616,5290.9937,0.30457878,0.0,0.0,0.0
191.09387,191.09387,2.716,0.0,0.0,275.5173,11318.0,100.0,0.0,-0.20403573,0.0,7.0,0.0,0.0,4000000.0,110.0,1.0,0.0,0.0,10.0,0.0,0.0,-91.96905,3.3129663,74.500694,0.039878383,0.39356846,-0.16580886,281.1829,281.22015,275.34958,275.41278,420.0,418.0,473.0,465.0,89.0,89.0,89.0,89.0,0.0,0.0,0.0,0.0,0.04611564,0.04605938,0.0514276,0.051418368,-21.233036,-20.598022,2.134591,2.8105078,928.8757,1115.7051,-31.12704,114.50348,0.0,0.0,0.0,2.0,1.0,0.40558803,-0.02520051,-8.369684E-4,89.0,89.0,89.0,89.0,21.842827,21.842827,24.816736,24.816736,0.020756183,0.02067471,-4.879531E-4,-4.986496E-4,1172.3368,0.0,0.0,0.0,0.0,0.0,0.0,0.0,0.0,0.0,0.0,0.0,0.0,0.0,30.203016,0.05648218,70.32077,0.008007996,0.011062007,1.3737334E-4,549996.25,119984.91,0.014662148,0.01438496,7312.8687,7321.419,5466.9487,5466.9473,0.30546665,0.0,0.0,0.0
194.91667,194.91667,2.766,0.0,0.0,276.20245,11341.0,100.0,0.0,-0.28131828,0.0,7.0,0.0,0.0,4000000.0,110.0,1.0,0.0,0.0,10.0,0.0,0.0,-90.45621,3.314382,78.021095,0.07626389,0.38332444,-0.063319646,281.7624,281.7966,276.02087,276.1151,418.0,416.0,471.0,464.0,89.0,89.0,89.0,89.0,0.0,0.0,0.0,0.0,0.046522677,0.04679702,0.051434144,0.051620413,0.7887929,8.2026415,15.152469,18.596424,-487.0891,-470.64713,1751.4689,1721.522,0.0,0.0,0.0,2.0,1.0,0.40627262,-0.024933944,-1.8560886E-4,89.0,89.0,89.0,89.0,21.842827,21.842827,24.816736,24.816736,0.02035061,0.020150173,-4.8373285E-4,-4.939376E-4,1174.7723,0.0,0.0,0.0,0.0,0.0,0.0,0.0,0.0,0.0,0.0,0.0,0.0,0.0,30.306026,0.006606914,70.48367,0.014101044,0.016138714,2.3355708E-4,550021.1,119984.9,0.01419778,0.014349304,7495.4077,7576.2925,5638.742,5732.6074,0.31330013,0.0,0.0,0.0
198.74902,198.74902,2.816,0.0,0.0,276.8813,11357.0,100.0,0.0,-0.34497368,0.0,7.0,0.0,0.0,4000000.0,110.0,1.0,0.0,0.0,10.0,0.0,0.0,-88.93781,3.3153267,81.549324,0.11358871,0.3942716,0.1574879,282.15588,282.19998,276.66858,276.79422,416.0,414.0,470.0,462.0,89.0,89.0,89.0,89.0,0.0,0.0,0.0,0.0,0.04786923,0.048532225,0.05244439,0.052827407,80.42514,91.37861,2.1108983,11.910125,4617.1543,4872.2593,-1767.5889,-1221.9069,0.0,0.0,0.0,2.0,1.0,0.40728736,-0.024543459,-0.0024284124,89.0,89.0,89.0,89.0,21.842827,21.842827,24.816736,24.816736,0.019452496,0.019180024,-4.937308E-4,-5.002198E-4,1176.4669,0.0,0.0,0.0,0.0,0.0,0.0,0.0,0.0,0.0,0.0,0.0,0.0,0.0,30.42734,0.046475433,70.63674,-0.0786095,0.023714175,0.042038802,550038.5,119984.9,0.00796373,0.009197786,8133.5503,8286.152,6214.677,6423.6133,0.30456066,0.0,0.0,0.0
202.59131,202.59131,2.866,0.0,0.0,277.58167,11372.0,100.0,0.0,-0.500283,0.0,7.0,0.0,0.0,4000000.0,110.0,1.0,0.0,0.0,10.0,0.0,0.0,-87.41274,3.3228104,85.085205,0.15790488,0.38499403,0.64512783,282.4941,282.5611,277.371,277.52594,414.0,413.0,468.0,460.0,89.0,89.0,89.0,89.0,0.0,0.0,0.0,0.0,0.051261593,0.051516935,0.052451238,0.0528335,-62.179188,-45.81235,-6.967261,-4.5693665,-11558.871,-9351.574,-1788.9393,-1355.5078,0.0,0.0,0.0,2.0,1.0,0.40850535,-0.024528958,-0.004286647,89.0,89.0,89.0,89.0,21.842827,21.842827,24.816736,24.816736,0.01786615,0.017582715,-4.878664E-4,-5.0398096E-4,1178.0535,0.0,0.0,0.0,0.0,0.0,0.0,0.0,0.0,0.0,0.0,0.0,0.0,0.0,30.572372,0.28864992,70.785484,0.03690067,0.026024114,-0.0072217807,550053.8,119984.9,0.008364791,0.0033314652,9235.866,9471.839,6066.6045,6253.9736,0.30070686,0.0,0.0,0.0
206.44287,206.44287,2.916,0.0,0.0,278.1888,11432.0,100.0,0.0,-0.43597612,0.0,7.0,0.0,0.0,4000000.0,110.0,1.0,0.0,0.0,10.0,0.0,0.0,-85.88034,3.337974,88.62771,0.1749053,0.3420441,-0.3702194,284.00946,284.06204,277.97253,278.14844,412.0,411.0,466.0,459.0,89.0,89.0,89.0,89.0,0.0,0.0,0.0,0.0,0.045995053,0.04660567,0.051229194,0.05180306,-84.80876,-74.0341,-30.7399,-27.981697,1803.2491,2459.7866,-506.18637,-537.19275,0.0,0.0,0.0,2.0,1.0,0.40990144,-0.024262656,-0.0015963316,89.0,89.0,89.0,89.0,21.842827,21.842827,24.816736,24.816736,0.021097211,0.020698752,-4.6681246E-4,-4.655505E-4,1181.9813,0.0,0.0,0.0,0.0,0.0,0.0,0.0,0.0,0.0,0.0,0.0,0.0,0.0,30.71534,0.24785917,70.907555,0.04331549,0.028627796,-0.013776733,548991.25,119984.9,0.015001737,0.014136247,6886.872,7135.896,5013.9355,5284.989,0.31013107,0.0,0.0,0.0
210.30344,210.30344,2.966,0.0,0.0,278.82605,11457.0,100.0,0.0,-0.6376761,0.0,7.0,0.0,0.0,4000000.0,110.0,1.0,0.0,0.0,10.0,0.0,0.0,-84.34029,3.3450184,92.17631,0.23553196,0.36622465,-0.31599575,284.65143,284.69147,278.5705,278.80704,411.0,409.0,465.0,457.0,89.0,89.0,89.0,89.0,0.0,0.0,0.0,0.0,0.04317193,0.04433126,0.050843198,0.05173868,-29.323471,-17.87044,2.9631703,11.130943,1977.4048,1962.1562,541.55133,573.9659,0.0,0.0,0.0,2.0,1.0,0.41166726,-0.023772506,-4.9316883E-4,89.0,89.0,89.0,89.0,21.842827,21.842827,24.816736,24.816736,0.021427855,0.020802746,-4.7538028E-4,-4.8507706E-4,1183.4725,0.0,0.0,0.0,0.0,0.0,0.0,0.0,0.0,0.0,0.0,0.0,0.0,0.0,30.881836,0.05810854,71.02866,-0.002144288,0.04060466,0.010136854,548484.4,119984.9,0.015604122,0.01789853,6839.176,7171.3936,5215.095,5644.2495,0.3127823,0.0,0.0,0.0
214.17339,214.17339,3.016,0.0,0.0,279.47473,11465.0,100.0,0.0,-0.61122805,0.0,7.0,0.0,0.0,4000000.0,110.0,1.0,0.0,0.0,10.0,0.0,0.0,-82.79132,3.3461719,95.730835,0.26882124,0.36411375,0.023444911,284.8243,284.89587,279.21384,279.4527,409.0,407.0,463.0,455.0,89.0,89.0,89.0,89.0,0.0,0.0,0.0,0.0,0.04631864,0.047742907,0.05135676,0.05242271,89.71765,92.59611,10.632946,12.421085,980.3205,869.06244,-43.73342,-132.66208,0.0,0.0,0.0,2.0,1.0,0.4137276,-0.023530668,-0.0016392469,89.0,89.0,89.0,89.0,21.842827,21.842827,24.816736,24.816736,0.019645715,0.019129029,-4.8275266E-4,-4.8446294E-4,1183.9604,0.0,0.0,0.0,0.0,0.0,0.0,0.0,0.0,0.0,0.0,0.0,0.0,0.0,31.069199,0.016754419,71.1436,-0.024246752,0.0410918,0.014466402,548327.6,119984.91,0.012660515,0.011944135,7811.679,8152.894,5623.549,6112.8027,0.30848312,0.0,0.0,0.0
218.05272,218.05272,3.066,0.0,0.0,280.1126,11484.0,100.0,0.0,-0.34974223,0.0,7.0,0.0,0.0,4000000.0,110.0,1.0,0.0,0.0,10.0,0.0,0.0,-81.23274,3.3487685,99.29089,0.2533384,0.36119205,0.22759733,285.30014,285.33026,279.881,280.0687,407.0,406.0,461.0,454.0,89.0,89.0,89.0,89.0,0.0,0.0,0.0,0.0,0.049472447,0.049811658,0.05185867,0.05263848,20.309015,-1.5145539,11.210739,-2.4021416,-3569.644,-2109.6777,80.72107,-395.03568,0.0,0.0,0.0,2.0,1.0,0.41559172,-0.023986872,-0.002541542,89.0,89.0,89.0,89.0,21.842827,21.842827,24.816736,24.816736,0.018876078,0.018382428,-4.9756316E-4,-4.712652E-4,1185.1326,0.0,0.0,0.0,0.0,0.0,0.0,0.0,0.0,0.0,0.0,0.0,0.0,0.0,31.26083,0.09678422,71.253075,-0.0069273296,0.030526768,-0.013450469,547962.4,119984.9,0.011016289,0.00787505,8253.089,8747.121,5863.7373,6177.3237,0.30577755,0.0,0.0,0.0
221.9411,221.9411,3.116,0.0,0.0,280.71915,11515.0,100.0,0.0,-0.35465577,0.0,7.0,0.0,0.0,4000000.0,110.0,1.0,0.0,0.0,10.0,0.0,0.0,-79.66493,3.3553693,102.856346,0.23793273,0.33937275,0.012259947,286.1124,286.10178,280.51343,280.65753,405.0,404.0,460.0,452.0,89.0,89.0,89.0,89.0,0.0,0.0,0.0,0.0,0.04824013,0.048789926,0.05178996,0.052529775,-28.51635,-24.308187,-6.291121,-3.2063572,-7.2419353,-89.116394,-243.07518,-128.51804,0.0,0.0,0.0,2.0,1.0,0.4168972,-0.024000894,-0.0020157099,89.0,89.0,89.0,89.0,21.842827,21.842827,24.816736,24.816736,0.019419134,0.018944753,-4.738875E-4,-4.6915887E-4,1186.9745,0.0,0.0,0.0,0.0,0.0,0.0,0.0,0.0,0.0,0.0,0.0,0.0,0.0,31.43955,0.14392239,71.35847,0.011394628,0.023676785,-0.0020257165,547336.56,119984.9,0.011912431,0.010040577,7789.8633,8180.3633,5686.222,6032.8086,0.30722427,0.0,0.0,0.0
225.8382,225.8382,3.166,0.0,0.0,281.31918,11543.0,100.0,0.0,-0.396695,0.0,7.0,0.0,0.0,4000000.0,110.0,1.0,0.0,0.0,10.0,0.0,0.0,-78.08859,3.3615324,106.42714,0.21546409,0.34179658,-0.09926327,286.79272,286.78796,281.12125,281.2465,404.0,402.0,458.0,451.0,89.0,89.0,89.0,89.0,0.0,0.0,0.0,0.0,0.047619697,0.048229333,0.051545903,0.05223001,-5.276352,-1.6218423,-2.9571352,-4.57406,372.49173,676.72125,117.18569,157.7273,0.0,0.0,0.0,2.0,1.0,0.4179735,-0.024087097,-0.001814127,89.0,89.0,89.0,89.0,21.842827,21.842827,24.816736,24.816736,0.01971022,0.01929943,-4.67837E-4,-4.771132E-4,1188.6821,0.0,0.0,0.0,0.0,0.0,0.0,0.0,0.0,0.0,0.0,0.0,0.0,0.0,31.604221,0.10025478,71.46805,-7.0619443E-4,0.02136793,7.281789E-4,546794.4,119984.9,0.0128585575,0.011430266,7599.502,7910.7085,5539.3394,5845.452,0.30836296,0.0,0.0,0.0
229.74399,229.74399,3.216,0.0,0.0,281.92072,11563.0,100.0,0.0,-0.44296566,0.0,7.0,0.0,0.0,4000000.0,110.0,1.0,0.0,0.0,10.0,0.0,0.0,-76.50409,3.3656406,110.00346,0.20977432,0.3400497,-0.01799111,287.29675,287.302,281.70938,281.86002,402.0,400.0,456.0,449.0,89.0,89.0,89.0,89.0,0.0,0.0,0.0,0.0,0.048189748,0.048749648,0.051605295,0.052307,19.963457,11.571496,4.3512135,3.0972807,517.7334,48.212696,233.84837,85.58929,0.0,0.0,0.0,2.0,1.0,0.41916513,-0.024078622,-0.0019681454,89.0,89.0,89.0,89.0,21.842827,21.842827,24.816736,24.816736,0.019376336,0.018915733,-4.691241E-4,-4.7701708E-4,1189.8564,0.0,0.0,0.0,0.0,0.0,0.0,0.0,0.0,0.0,0.0,0.0,0.0,0.0,31.766523,0.07306954,71.57893,-0.0053276597,0.025745621,-0.001886395,546387.9,119984.9,0.012270023,0.010369457,7798.045,8149.086,5668.2397,5979.3945,0.3075695,0.0,0.0,0.0
233.65843,233.65843,3.283,0.0,0.0,282.51376,11584.0,100.0,0.0,-0.5239563,0.0,7.0,0.0,0.0,4000000.0,110.0,1.0,0.0,0.0,10.0,0.0,0.0,-74.91144,3.3696408,113.58527,0.2212805,0.33327472,0.05359297,287.7991,287.83313,282.28998,282.46725,400.0,399.0,455.0,447.0,89.0,89.0,89.0,89.0,0.0,0.0,0.0,0.0,0.048620857,0.049103282,0.05181643,0.05246786,0.0,0.0,0.0,0.0,-432.51956,-250.5719,-130.38217,45.62437,0.0,0.0,0.0,2.0,1.0,0.4205647,-0.024124255,-0.0020576715,89.0,89.0,89.0,89.0,21.842827,21.842827,24.816736,24.816736,0.019034863,0.018590024,-4.6479143E-4,-4.7663646E-4,1191.1182,0.0,0.0,0.0,0.0,0.0,0.0,0.0,0.0,0.0,0.0,0.0,0.0,0.0,31.931074,0.089899555,71.68604,0.0023762994,0.030345099,0.0025539203,545975.7,119984.89,0.011625826,0.009407734,7999.7476,8343.806,5786.4873,6087.218,0.30678558,0.0,0.0,0.0
237.58134,237.58134,3.316,0.0,0.0,283.09073,11609.0,100.0,0.0,-0.5435326,0.0,7.0,0.0,0.0,4000000.0,110.0,1.0,0.0,0.0,10.0,0.0,0.0,-73.31042,3.3745434,117.17224,0.23739779,0.32486188,0.007329664,288.4107,288.44266,282.85736,283.05536,399.0,397.0,453.0,446.0,89.0,89.0,89.0,89.0,0.0,0.0,0.0,0.0,0.04838718,0.048930313,0.051788427,0.052528862,-5.6172156,-5.0856915,-1.4045833,-0.32052395,-24.676292,-63.125782,-42.271606,-86.42076,0.0,0.0,0.0,2.0,1.0,0.42217878,-0.02400803,-0.0019240379,89.0,89.0,89.0,89.0,21.842827,21.842827,24.816736,24.816736,0.019138228,0.018621756,-4.628508E-4,-4.701899E-4,1192.6287,0.0,0.0,0.0,0.0,0.0,0.0,0.0,0.0,0.0,0.0,0.0,0.0,0.0,32.100735,0.10090807,71.78581,0.0032017205,0.03362989,1.9216444E-5,545490.8,119984.9,0.011769688,0.009792179,7879.913,8272.847,5734.632,6072.716,0.3070345,0.0,0.0,0.0
241.51253,241.51253,3.366,0.0,0.0,283.65884,11632.0,100.0,0.0,-0.5649093,0.0,7.0,0.0,0.0,4000000.0,110.0,1.0,0.0,0.0,10.0,0.0,0.0,-71.700745,3.3793056,120.76403,0.25556928,0.32113484,-0.02906301,289.00003,289.02905,283.41925,283.62915,397.0,395.0,451.0,444.0,89.0,89.0,89.0,89.0,0.0,0.0,0.0,0.0,0.048236586,0.048819512,0.051700424,0.05249604,-1.323223,-0.4392117,-1.6741453,-0.49330288,98.04814,94.41374,7.0810313,6.665287,0.0,0.0,0.0,2.0,1.0,0.42392072,-0.02392748,-0.0018379688,89.0,89.0,89.0,89.0,21.842827,21.842827,24.816736,24.816736,0.019206565,0.018645221,-4.618636E-4,-4.6801328E-4,1193.9679,0.0,0.0,0.0,0.0,0.0,0.0,0.0,0.0,0.0,0.0,0.0,0.0,0.0,32.2772,0.08816287,71.879684,0.0014980064,0.0356178,0.00126615,545023.56,119984.9,0.011970953,0.010100556,7802.64,8225.143,5678.5737,6042.7476,0.30728245,0.0,0.0,0.0
245.45193,245.45193,3.416,0.0,0.0,284.22113,11654.0,100.0,0.0,-0.552703,0.0,7.0,0.0,0.0,4000000.0,110.0,1.0,0.0,0.0,10.0,0.0,0.0,-70.08211,3.3833928,124.36038,0.26690876,0.317787,-0.0031164498,289.53067,289.5574,283.98093,284.1916,395.0,394.0,450.0,443.0,89.0,89.0,89.0,89.0,0.0,0.0,0.0,0.0,0.048394375,0.049004022,0.051722646,0.05256332,4.0921564,4.4924765,1.1274217,1.8648057,17.246588,26.848925,29.785925,26.687979,0.0,0.0,0.0,2.0,1.0,0.42570183,-0.023868555,-0.0018429756,89.0,89.0,89.0,89.0,21.842827,21.842827,24.816736,24.816736,0.019063735,0.018496977,-4.6241065E-4,-4.6520357E-4,1195.3007,0.0,0.0,0.0,0.0,0.0,0.0,0.0,0.0,0.0,0.0,0.0,0.0,0.0,32.459045,0.07838584,71.96913,-1.3221055E-4,0.03560931,0.001115226,544601.9,119984.91,0.011749237,0.009751293,7871.267,8316.756,5728.674,6111.4116,0.30700588,0.0,0.0,0.0
249.3897,249.3897,3.466,0.0,0.0,283.26077,11208.0,100.0,0.0,-0.4835425,0.0,7.0,0.0,0.0,4000000.0,110.0,1.0,0.0,0.0,10.0,0.0,0.0,-68.458305,3.3879735,127.95221,0.26711476,-0.6823963,0.061389558,283.19025,283.30203,283.17935,283.36713,393.0,392.0,448.0,441.0,89.0,89.0,89.0,89.0,0.0,0.0,0.0,0.0,0.046260517,0.047169823,0.052343104,0.053250078,-58.024002,-40.415524,17.1753,19.835829,-701.6926,328.3827,70.63596,184.50919,0.0,0.0,0.0,2.0,1.0,0.4273669,-0.023762831,-4.1520596E-4,89.0,89.0,89.0,89.0,21.842827,21.842827,24.816736,24.816736,9.0396E-5,-1.477816E-4,4.6083183E-5,3.0858817E-5,1160.6953,0.0,0.0,0.0,0.0,0.0,0.0,0.0,0.0,0.0,0.0,0.0,0.0,0.0,32.469757,0.10528269,71.67151,0.033558477,0.031493604,-0.009335038,549879.0,0.0,0.010606624,0.012164558,7617.0796,8006.2627,6341.347,6763.343,0.3073902,0.0,0.0,0.0
