LapDistance [m],TotalDistance [m],LapTime [s],Sector1Time [s],Sector2Time [s],Speed [km/h],EngineRevs [rpm],ThrottlePercentage [%],BrakePercentage [%],Steer [%],Clutch [%],Gear [int],DRS [0/1],CanUseDRS [0/1],KERSLevel [J],EngineTemperature [C],RacePosition [int],Sector [int],InPits [int],FuelRemaining [kg],CurrentFlag [int],CurrentLapInvalid [int],X [m],Y [m],Z [m],GForceLatitudinal [G],GForceLongitudinal [G],GForceVertical [G],WheelSpeedRearLeft [km/h],WheelSpeedRearRight [km/h],WheelSpeedFrontLeft [km/h],WheelSpeedFrontRight [km/h],BrakeTemperatureRearLeft [C],BrakeTemperatureRearRight [C],BrakeTemperatureFrontLeft [C],BrakeTemperatureFrontRight [C],TyreTemperatureRearLeft [C],TyreTemperatureRearRight [C],TyreTemperatureFrontLeft [C],TyreTemperatureFrontRight [C],TyreWearRearLeft [%],TyreWearRearRight [%],TyreWearFrontLeft [%],TyreWearFrontRight [%],SuspensionPositionRearLeft [m],SuspensionPositionRearRight [m],SuspensionPositionFrontLeft [m],SuspensionPositionFrontRight [m],SuspensionVelocityRearLeft [m/s],SuspensionVelocityRearRight [m/s],SuspensionVelocityFrontLeft [m/s],SuspensionVelocityFrontRight [m/s],SuspensionAccelerationRearLeft [m/s^2],SuspensionAccelerationRearRight [m/s^2],SuspensionAccelerationFrontLeft [m/s^2],SuspensionAccelerationFrontRight [m/s^2],MGUKHarvested [J],MGUHHarvested [J],ERSSpent [J],ERSMode [int],FuelMixMode [int],Yaw [rad],Roll [rad],Pitch [rad],TyreCarcassTemperatureRearLeft [C],TyreCarcassTemperatureRearRight [C],TyreCarcassTemperatureFrontLeft [C],TyreCarcassTemperatureFrontRight [C],TyrePressureRearLeft [PSI],TyrePressureRearRight [PSI],TyrePressureFrontLeft [PSI],TyrePressureFrontRight [PSI],WheelSlipRearLeft [%],WheelSlipRearRight [%],WheelSlipFrontLeft [%],WheelSlipFrontRight [%],Torque [Nm],Handbrake [%],RearLeftInside [C],RearLeftMiddle [C],RearLeftOutside [C],RearRightInside [C],RearRightMiddle [C],RearRightOutside [C],FrontLeftInside [C],FrontLeftMiddle [C],FrontLeftOutside [C],FrontRightInside [C],FrontRightMiddle [C],FrontRightOutside [C],WoldSpeedX [km/h],WoldSpeedY [km/h],WoldSpeedZ [km/h],LocalAngularVelocityX [rad/s],LocalAngularVelocityY [rad/s],LocalAngularVelocityZ [rad/s],IcePower [W],MgukPower [W],FrontRideHeight [m],RearRideHeight [m],LoadRearLeft [N],LoadRearRight [N],LoadFrontLeft [N],LoadFrontRight [N],Extra1 [m],Extra2 [],Extra3 [],Extra4 []
1.5641198,1.5641198,0.033,0.0,0.0,223.80347,10457.0,100.0,0.0,0.2047846,0.0,6.0,0.0,0.0,4000000.0,110.0,1.0,0.0,0.0,10.0,0.0,0.0,-171.24591,3.188302,-97.796814,-0.049508452,0.7865454,0.16128704,229.80466,229.80754,223.67659,223.61546,557.0,555.0,605.0,593.0,89.0,89.0,89.0,89.0,0.0,0.0,0.0,0.0,0.042850338,0.042482104,0.050503787,0.050164554,0.0,0.0,0.0,0.0,-1048.5022,-1022.069,-249.1906,-221.24197,0.0,0.0,0.0,2.0,1.0,0.42478946,-0.02575566,0.0043777227,89.0,89.0,89.0,89.0,21.842827,21.842827,24.816736,24.816736,0.02663372,0.026884291,-6.900662E-4,-6.9551566E-4,1061.162,0.0,0.0,0.0,0.0,0.0,0.0,0.0,0.0,0.0,0.0,0.0,0.0,0.0,25.65715,-0.21308838,56.625782,-0.007143766,-0.009901881,0.0036797621,538829.75,119984.9,0.020583102,0.021886602,6643.5107,6552.947,4691.8857,4536.0312,0.313756,0.0,0.0,0.0
4.6820946,4.6820946,0.083,0.0,0.0,225.20161,10525.0,100.0,0.0,0.17683478,0.0,6.0,0.0,0.0,4000000.0,110.0,1.0,0.0,0.0,10.0,0.0,0.0,-169.95949,3.1775646,-94.95599,-0.054150254,0.8049524,0.09705347,231.30191,231.30862,225.07344,225.01088,555.0,552.0,603.0,591.0,89.0,89.0,89.0,89.0,0.0,0.0,0.0,0.0,0.04119137,0.040798023,0.05037949,0.05002769,0.0,0.0,0.0,0.0,1164.4675,1243.539,575.4679,644.1056,0.0,0.0,0.0,2.0,1.0,0.4242788,-0.025695957,0.0040079355,89.0,89.0,89.0,89.0,21.842827,21.842827,24.816736,24.816736,0.027101036,0.027373914,-6.94114E-4,-7.050301E-4,1073.1327,0.0,0.0,0.0,0.0,0.0,0.0,0.0,0.0,0.0,0.0,0.0,0.0,0.0,25.793787,-0.20157792,56.990295,-0.012627098,-0.009802967,0.0072774366,541387.6,119984.89,0.019837793,0.022457706,6548.12,6450.9995,4722.817,4563.825,0.3142872,0.0,0.0,0.0
8.869372,8.869372,0.133,0.0,0.0,227.04019,10605.0,100.0,0.0,0.08913677,0.0,6.0,0.0,0.0,4000000.0,110.0,1.0,0.0,0.0,10.0,0.0,0.0,-168.2335,3.1681268,-91.13993,-0.04530883,0.772078,0.11383157,233.05615,233.07156,226.90079,226.86255,552.0,550.0,601.0,589.0,89.0,89.0,89.0,89.0,0.0,0.0,0.0,0.0,0.04185262,0.041478883,0.050487947,0.050166745,-1.6884505,-0.48570332,-0.8846819,0.38556752,-385.68817,-249.53929,312.39685,394.39197,0.0,0.0,0.0,2.0,1.0,0.42377862,-0.02559308,0.0026067495,89.0,89.0,89.0,89.0,21.842827,21.842827,24.816736,24.816736,0.02644584,0.026648745,-6.790072E-4,-6.9256726E-4,1084.0784,0.0,0.0,0.0,0.0,0.0,0.0,0.0,0.0,0.0,0.0,0.0,0.0,0.0,25.976812,-0.102844246,57.468304,-0.013262859,-0.0055215936,0.008471109,542784.0,119984.9,0.020386744,0.022641378,6672.7593,6585.6865,4685.314,4543.3716,0.31465435,0.0,0.0,0.0
12.031703,12.031703,0.183,0.0,0.0,228.3944,10668.0,100.0,0.0,0.11570294,0.0,6.0,0.0,0.0,4000000.0,110.0,1.0,0.0,0.0,10.0,0.0,0.0,-166.93108,3.1639135,-88.25726,-0.042277932,0.7701156,0.07511335,234.42377,234.44472,228.25127,228.2206,550.0,547.0,599.0,587.0,89.0,89.0,89.0,89.0,0.0,0.0,0.0,0.0,0.04148443,0.04112166,0.05043585,0.050144006,0.8198618,0.1683086,1.8920748,1.5226005,871.85187,821.97626,315.72278,247.16553,0.0,0.0,0.0,2.0,1.0,0.42354828,-0.025535502,0.0018206835,89.0,89.0,89.0,89.0,21.842827,21.842827,24.816736,24.816736,0.026429923,0.026635323,-6.827492E-4,-6.876569E-4,1092.7041,0.0,0.0,0.0,0.0,0.0,0.0,0.0,0.0,0.0,0.0,0.0,0.0,0.0,26.113249,-0.06878568,57.81949,-0.013876542,-0.004522207,0.0070769712,543871.8,119984.91,0.019986236,0.02267053,6669.2275,6580.9375,4673.5674,4537.709,0.3139248,0.0,0.0,0.0
14.150281,14.150281,0.233,0.0,0.0,229.28882,10709.0,100.0,0.0,0.13114701,0.0,6.0,0.0,0.0,4000000.0,110.0,1.0,0.0,0.0,10.0,0.0,0.0,-166.059,3.1622796,-86.32573,-0.041418448,0.7562626,0.09613247,235.32756,235.34456,229.14749,229.11153,549.0,546.0,597.0,585.0,89.0,89.0,89.0,89.0,0.0,0.0,0.0,0.0,0.041561384,0.041205138,0.05061028,0.0503224,0.0,0.0,0.0,0.0,-686.7125,-693.13635,-204.22339,-200.64262,0.0,0.0,0.0,2.0,1.0,0.42338383,-0.02552319,0.0011322498,89.0,89.0,89.0,89.0,21.842827,21.842827,24.816736,24.816736,0.02634013,0.026548227,-6.725393E-4,-6.759439E-4,1098.3472,0.0,0.0,0.0,0.0,0.0,0.0,0.0,0.0,0.0,0.0,0.0,0.0,0.0,26.203667,-0.033834096,58.0513,-0.02401301,-0.0051883296,0.0108996,544587.56,119984.9,0.018992338,0.021908864,6622.1753,6536.581,4816.7534,4685.5625,0.312994,0.0,0.0,0.0
17.343481,17.343481,0.283,0.0,0.0,230.62755,10764.0,100.0,0.0,0.15255904,0.0,6.0,0.0,0.0,4000000.0,110.0,1.0,0.0,0.0,10.0,0.0,0.0,-164.74525,3.1619847,-83.41401,-0.043550253,0.75355685,0.153806,236.535,236.5428,230.49228,230.44826,546.0,544.0,595.0,583.0,89.0,89.0,89.0,89.0,0.0,0.0,0.0,0.0,0.042656805,0.042280175,0.050638244,0.050342977,0.0,0.0,0.0,0.0,211.37144,280.5322,142.30458,177.61586,0.0,0.0,0.0,2.0,1.0,0.4230835,-0.02551511,-2.360344E-5,89.0,89.0,89.0,89.0,21.842827,21.842827,24.816736,24.816736,0.025561064,0.02575858,-6.6966785E-4,-6.7330676E-4,1105.9264,0.0,0.0,0.0,0.0,0.0,0.0,0.0,0.0,0.0,0.0,0.0,0.0,0.0,26.338646,0.026021292,58.39837,-0.013289589,-0.0068705515,0.0061536254,545543.7,119984.89,0.01824837,0.019875407,6943.525,6855.8984,4820.748,4686.4624,0.31165028,0.0,0.0,0.0
21.629402,21.629402,0.333,0.0,0.0,232.37155,10848.0,100.0,0.0,0.18160792,0.0,6.0,0.0,0.0,4000000.0,110.0,1.0,0.0,0.0,10.0,0.0,0.0,-162.98337,3.1659362,-79.50498,-0.05124639,0.7361078,0.040161334,238.40277,238.41267,232.24323,232.18758,544.0,541.0,593.0,581.0,89.0,89.0,89.0,89.0,0.0,0.0,0.0,0.0,0.042424235,0.04200442,0.050554235,0.05023101,-10.524094,-11.061429,-1.7467885,-2.0876524,-230.91135,-205.37672,-2.0250676,9.736418,0.0,0.0,0.0,2.0,1.0,0.4225343,-0.025546877,-3.85046E-4,89.0,89.0,89.0,89.0,21.842827,21.842827,24.816736,24.816736,0.025860412,0.026110774,-6.6604244E-4,-6.711072E-4,1117.5847,0.0,0.0,0.0,0.0,0.0,0.0,0.0,0.0,0.0,0.0,0.0,0.0,0.0,26.509476,0.07818115,58.852707,6.4684835E-4,-0.009181784,-7.725052E-4,547025.75,119984.9,0.018332358,0.02019731,6713.83,6611.665,4712.9688,4564.058,0.31144524,0.0,0.0,0.0
24.86467,24.86467,0.383,0.0,0.0,233.66301,10909.0,100.0,0.0,0.12580834,0.0,6.0,0.0,0.0,4000000.0,110.0,1.0,0.0,0.0,10.0,0.0,0.0,-161.6546,3.1699564,-76.553444,-0.048422724,0.7303509,0.012292593,239.7295,239.74397,233.53079,233.48317,541.0,539.0,591.0,579.0,89.0,89.0,89.0,89.0,0.0,0.0,0.0,0.0,0.041816693,0.041396163,0.050521895,0.050206125,-7.6009326,-7.216483,1.7608701,2.2590904,404.7587,435.18835,216.88339,235.52475,0.0,0.0,0.0,2.0,1.0,0.42210776,-0.025534356,-2.924204E-4,89.0,89.0,89.0,89.0,21.842827,21.842827,24.816736,24.816736,0.025920881,0.026154542,-6.5871916E-4,-6.692487E-4,1126.0359,0.0,0.0,0.0,0.0,0.0,0.0,0.0,0.0,0.0,0.0,0.0,0.0,0.0,26.634575,0.081951074,59.1898,0.0010452487,-0.007631328,8.890199E-5,548080.44,119984.89,0.0185772,0.020873288,6668.753,6569.6226,4741.8906,4598.699,0.31173134,0.0,0.0,0.0
27.031336,27.031336,0.433,0.0,0.0,234.51486,10948.0,100.0,0.0,0.13028614,0.0,6.0,0.0,0.0,4000000.0,110.0,1.0,0.0,0.0,10.0,0.0,0.0,-160.7653,3.1726513,-74.57643,-0.04809642,0.72208875,-0.018756863,240.5953,240.61456,234.37965,234.3378,540.0,537.0,590.0,578.0,89.0,89.0,89.0,89.0,0.0,0.0,0.0,0.0,0.041602466,0.041193124,0.050479263,0.050172087,0.0,0.0,0.0,0.0,18.158567,8.676938,-9.0658655,-19.754465,0.0,0.0,0.0,2.0,1.0,0.4218729,-0.02552405,-2.3722649E-4,89.0,89.0,89.0,89.0,21.842827,21.842827,24.816736,24.816736,0.025888832,0.026118748,-6.5981E-4,-6.668868E-4,1131.4819,0.0,0.0,0.0,0.0,0.0,0.0,0.0,0.0,0.0,0.0,0.0,0.0,0.0,26.717152,0.07853294,59.41212,0.0024226874,-0.0067846277,-0.0010847938,548769.4,119984.89,0.018771585,0.021156998,6638.885,6540.8,4672.7944,4532.409,0.3119936,0.0,0.0,0.0
30.295893,30.295893,0.483,0.0,0.0,235.7805,11006.0,100.0,0.0,0.16151865,0.0,6.0,0.0,0.0,4000000.0,110.0,1.0,0.0,0.0,10.0,0.0,0.0,-159.42622,3.1763115,-71.597084,-0.05003336,0.71448094,-0.01853834,241.85632,241.87477,235.64714,235.60236,538.0,535.0,588.0,576.0,89.0,89.0,89.0,89.0,0.0,0.0,0.0,0.0,0.04144091,0.041021034,0.050528876,0.050213005,0.0,0.0,0.0,0.0,196.14992,181.62576,31.529364,22.637838,0.0,0.0,0.0,2.0,1.0,0.42152753,-0.025537942,-1.680851E-4,89.0,89.0,89.0,89.0,21.842827,21.842827,24.816736,24.816736,0.025741765,0.025983457,-6.5540214E-4,-6.580735E-4,1139.3306,0.0,0.0,0.0,0.0,0.0,0.0,0.0,0.0,0.0,0.0,0.0,0.0,0.0,26.838947,0.06887068,59.742836,-3.2643834E-4,-0.0073688165,-4.4372716E-4,549663.94,119984.89,0.018679991,0.021244705,6664.2026,6562.361,4735.1113,4589.674,0.3119974,0.0,0.0,0.0
33.57771,33.57771,0.533,0.0,0.0,237.03087,11061.0,100.0,0.0,0.16769719,0.0,6.0,0.0,0.0,4000000.0,110.0,1.0,0.0,0.0,10.0,0.0,0.0,-158.08112,3.1796334,-68.601295,-0.05159773,0.7048052,-0.0029846798,243.0663,243.07976,236.90077,236.85059,536.0,533.0,586.0,574.0,89.0,89.0,89.0,89.0,0.0,0.0,0.0,0.0,0.04172719,0.041292448,0.050618913,0.05029307,0.0,0.0,0.0,0.0,103.45281,116.72973,-3.9696689,2.3066995,0.0,0.0,0.0,2.0,1.0,0.4211361,-0.025550622,-2.4402142E-4,89.0,89.0,89.0,89.0,21.842827,21.842827,24.816736,24.816736,0.025428575,0.025668485,-6.480352E-4,-6.517983E-4,1145.1461,0.0,0.0,0.0,0.0,0.0,0.0,0.0,0.0,0.0,0.0,0.0,0.0,0.0,26.958239,0.06552954,60.070007,-0.0022378354,-0.008203297,7.905641E-4,549722.5,119984.9,0.018373488,0.020767646,6741.3394,6638.0547,4796.1963,4646.99,0.3116083,0.0,0.0,0.0
36.87659,36.87659,0.583,0.0,0.0,238.26326,11115.0,100.0,0.0,0.1290968,0.0,6.0,0.0,0.0,4000000.0,110.0,1.0,0.0,0.0,10.0,0.0,0.0,-156.73007,3.1829643,-65.589264,-0.04826805,0.6946713,0.006208681,244.26617,244.26921,238.13107,238.0865,534.0,531.0,584.0,572.0,89.0,89.0,89.0,89.0,0.0,0.0,0.0,0.0,0.04213637,0.041737646,0.05068851,0.050374676,0.0,0.0,0.0,0.0,-44.457603,25.61508,-12.807548,-5.6058164,0.0,0.0,0.0,2.0,1.0,0.42075184,-0.02553133,-3.6251545E-4,89.0,89.0,89.0,89.0,21.842827,21.842827,24.816736,24.816736,0.025165642,0.025358679,-6.399989E-4,-6.4693054E-4,1150.858,0.0,0.0,0.0,0.0,0.0,0.0,0.0,0.0,0.0,0.0,0.0,0.0,0.0,27.076303,0.06817389,60.39224,-0.0017435328,-0.007151912,0.0010564583,549780.44,119984.91,0.018069169,0.02014132,6800.001,6712.3237,4837.64,4695.122,0.31118202,0.0,0.0,0.0
40.19225,40.19225,0.633,0.0,0.0,239.47684,11170.0,100.0,0.0,0.1332293,0.0,6.0,0.0,0.0,4000000.0,110.0,1.0,0.0,0.0,10.0,0.0,0.0,-155.37318,3.186468,-62.561253,-0.047976524,0.68403417,0.004421634,245.4582,245.47307,239.34393,239.30266,531.0,529.0,582.0,570.0,89.0,89.0,89.0,89.0,0.0,0.0,0.0,0.0,0.04244144,0.04202909,0.05074515,0.050434984,0.0,0.0,0.0,0.0,-58.163708,-20.693233,-12.458857,-2.1055338,0.0,0.0,0.0,2.0,1.0,0.42041108,-0.02552572,-4.4345856E-4,89.0,89.0,89.0,89.0,21.842827,21.842827,24.816736,24.816736,0.024953354,0.025159884,-6.345779E-4,-6.390504E-4,1156.675,0.0,0.0,0.0,0.0,0.0,0.0,0.0,0.0,0.0,0.0,0.0,0.0,0.0,27.19245,0.07156375,60.709595,-0.001151842,-0.006680465,6.337217E-4,549838.56,119984.9,0.01785822,0.01978721,6835.0386,6737.7188,4871.178,4729.88,0.31087875,0.0,0.0,0.0
43.52443,43.52443,0.683,0.0,0.0,240.67294,11223.0,100.0,0.0,0.1260331,0.0,6.0,0.0,0.0,4000000.0,110.0,1.0,0.0,0.0,10.0,0.0,0.0,-154.01051,3.1900933,-59.5175,-0.0459695,0.6741158,2.6313635E-4,246.63875,246.65268,240.54004,240.5001,529.0,527.0,580.0,568.0,89.0,89.0,89.0,89.0,0.0,0.0,0.0,0.0,0.04265352,0.042247858,0.050790217,0.050486192,0.0,0.0,0.0,0.0,-10.661787,-8.703774,0.4962086,-0.053644177,0.0,0.0,0.0,2.0,1.0,0.42008442,-0.025516309,-4.992485E-4,89.0,89.0,89.0,89.0,21.842827,21.842827,24.816736,24.816736,0.02476657,0.024964238,-6.2884315E-4,-6.3342374E-4,1162.2843,0.0,0.0,0.0,0.0,0.0,0.0,0.0,0.0,0.0,0.0,0.0,0.0,0.0,27.307264,0.07307083,61.022217,-8.765847E-4,-0.0064567933,5.89476E-4,549895.8,119984.91,0.017684069,0.019491745,6863.9526,6768.4795,4899.9834,4761.275,0.31064796,0.0,0.0,0.0
46.872883,46.872883,0.733,0.0,0.0,241.85191,11276.0,100.0,0.0,0.13518064,0.0,6.0,0.0,0.0,4000000.0,110.0,1.0,0.0,0.0,10.0,0.0,0.0,-152.64218,3.193756,-56.45823,-0.046956822,0.66452503,-0.0012690732,247.80045,247.81165,241.72162,241.67766,527.0,525.0,578.0,566.0,89.0,89.0,89.0,89.0,0.0,0.0,0.0,0.0,0.042873707,0.042456377,0.050844442,0.05053269,0.0,0.0,0.0,0.0,21.015099,9.468211,5.8740373,-1.9446014,0.0,0.0,0.0,2.0,1.0,0.419741,-0.025527317,-5.556345E-4,89.0,89.0,89.0,89.0,21.842827,21.842827,24.816736,24.816736,0.024566974,0.024769627,-6.230889E-4,-6.278939E-4,1167.8927,0.0,0.0,0.0,0.0,0.0,0.0,0.0,0.0,0.0,0.0,0.0,0.0,0.0,27.419573,0.0733504,61.330746,-0.0011807659,-0.0071394844,3.8644575E-4,549952.1,119984.91,0.017498737,0.01918375,6901.5195,6802.9473,4935.793,4792.4004,0.31040478,0.0,0.0,0.0
51.3624,51.3624,0.783,0.0,0.0,243.39789,11345.0,100.0,0.0,0.13481978,0.0,6.0,0.0,0.0,4000000.0,110.0,1.0,0.0,0.0,10.0,0.0,0.0,-150.8091,3.1986635,-52.355408,-0.048071712,0.65196806,1.4514662E-6,249.31908,249.3292,243.26855,243.2243,524.0,522.0,575.0,564.0,89.0,89.0,89.0,89.0,0.0,0.0,0.0,0.0,0.04321374,0.042798273,0.050917532,0.05060632,5.3098793,5.4786353,1.0769068,1.1616199,8.851289,8.797645,1.1533498,-0.26822087,0.0,0.0,0.0,2.0,1.0,0.41925535,-0.02552613,-6.483793E-4,89.0,89.0,89.0,89.0,21.842827,21.842827,24.816736,24.816736,0.024299236,0.024495512,-6.1584596E-4,-6.2023377E-4,1175.1965,0.0,0.0,0.0,0.0,0.0,0.0,0.0,0.0,0.0,0.0,0.0,0.0,0.0,27.56584,0.07401726,61.735744,-0.001344583,-0.00718888,6.369663E-4,550025.75,119984.9,0.017219732,0.018697968,6957.2163,6859.048,4983.4746,4841.3145,0.31002998,0.0,0.0,0.0
53.617676,53.617676,0.833,0.0,0.0,244.1599,11379.0,100.0,0.0,0.13596298,0.0,6.0,0.0,0.0,4000000.0,110.0,1.0,0.0,0.0,10.0,0.0,0.0,-149.88895,3.2011433,-50.293938,-0.048315078,0.64578235,5.747448E-4,250.06734,250.07782,244.03035,243.9873,523.0,521.0,574.0,562.0,89.0,89.0,89.0,89.0,0.0,0.0,0.0,0.0,0.043395057,0.042981345,0.05095381,0.050643746,0.0,0.0,0.0,0.0,-1.0460757,-0.6035041,-1.8775462,-0.8851289,0.0,0.0,0.0,2.0,1.0,0.41902137,-0.025524767,-6.982088E-4,89.0,89.0,89.0,89.0,21.842827,21.842827,24.816736,24.816736,0.024169214,0.024361547,-6.127713E-4,-6.1616214E-4,1178.7106,0.0,0.0,0.0,0.0,0.0,0.0,0.0,0.0,0.0,0.0,0.0,0.0,0.0,27.637701,0.074718185,61.935463,-0.001408967,-0.0070095216,5.01437E-4,550022.06,119984.91,0.017078096,0.018443136,6984.9766,6887.0557,5006.7725,4865.074,0.3098364,0.0,0.0,0.0
57.013508,57.013508,0.883,0.0,0.0,245.28848,11429.0,100.0,0.0,0.12600212,0.0,6.0,0.0,0.0,4000000.0,110.0,1.0,0.0,0.0,10.0,0.0,0.0,-148.50427,3.2049112,-47.18934,-0.047924787,0.63566065,8.88987E-4,251.16574,251.17851,245.15964,245.1167,521.0,518.0,572.0,561.0,89.0,89.0,89.0,89.0,0.0,0.0,0.0,0.0,0.04366484,0.043241844,0.051010817,0.050694898,0.0,0.0,0.0,0.0,-10.541066,-2.2798917,-2.9370186,3.1784139,0.0,0.0,0.0,2.0,1.0,0.41866845,-0.025531674,-7.7056885E-4,89.0,89.0,89.0,89.0,21.842827,21.842827,24.816736,24.816736,0.023939306,0.024139022,-6.0609716E-4,-6.1120954E-4,1181.7612,0.0,0.0,0.0,0.0,0.0,0.0,0.0,0.0,0.0,0.0,0.0,0.0,0.0,27.743505,0.075962104,62.231537,-0.0012176496,-0.0069445716,6.653677E-4,549033.06,119984.91,0.016869796,0.018072322,7025.5366,6926.492,5042.925,4898.4463,0.30955315,0.0,0.0,0.0
60.424393,60.424393,0.933,0.0,0.0,246.3983,11479.0,100.0,0.0,0.11241094,0.0,6.0,0.0,0.0,4000000.0,110.0,1.0,0.0,0.0,10.0,0.0,0.0,-147.11436,3.2087426,-44.070057,-0.04641986,0.62503815,7.142108E-4,252.24391,252.26059,246.26898,246.22862,519.0,516.0,570.0,559.0,89.0,89.0,89.0,89.0,0.0,0.0,0.0,0.0,0.043910027,0.043492146,0.051062495,0.050749954,0.0,0.0,0.0,0.0,-10.836123,1.5288733,-5.029138,5.27054,0.0,0.0,0.0,2.0,1.0,0.4183267,-0.025524825,-8.368492E-4,89.0,89.0,89.0,89.0,21.842827,21.842827,24.816736,24.816736,0.023707628,0.023912022,-5.996125E-4,-6.0568517E-4,1184.8308,0.0,0.0,0.0,0.0,0.0,0.0,0.0,0.0,0.0,0.0,0.0,0.0,0.0,27.847363,0.077197604,62.522762,-9.677675E-4,-0.006466939,9.6411613E-4,548061.5,119984.9,0.016669355,0.017724186,7062.2324,6965.341,5076.2275,4933.886,0.3092842,0.0,0.0,0.0
63.850365,63.850365,0.983,0.0,0.0,247.48962,11527.0,100.0,0.0,0.0798298,0.0,6.0,0.0,0.0,4000000.0,110.0,1.0,0.0,0.0,10.0,0.0,0.0,-145.71924,3.2126303,-40.93636,-0.040461138,0.6146452,2.6648864E-4,253.30388,253.32579,247.35602,247.32587,517.0,514.0,568.0,557.0,89.0,89.0,89.0,89.0,0.0,0.0,0.0,0.0,0.044127792,0.043748125,0.05110091,0.050815925,0.0,0.0,0.0,0.0,0.20115851,-2.0250604,-0.3620982,0.4962086,0.0,0.0,0.0,2.0,1.0,0.41804838,-0.025483698,-8.983612E-4,89.0,89.0,89.0,89.0,21.842827,21.842827,24.816736,24.816736,0.023495607,0.023682646,-5.9342687E-4,-6.0023845E-4,1187.7106,0.0,0.0,0.0,0.0,0.0,0.0,0.0,0.0,0.0,0.0,0.0,0.0,0.0,27.951374,0.07819762,62.808285,-7.2628947E-4,-0.004721552,0.0013302239,547105.8,119984.9,0.016475027,0.017390473,7094.437,7006.656,5102.8936,4974.172,0.30902767,0.0,0.0,0.0
67.29112,67.29112,1.033,0.0,0.0,248.56303,11574.0,100.0,0.0,0.06444659,0.0,6.0,0.0,0.0,4000000.0,110.0,1.0,0.0,0.0,10.0,0.0,0.0,-144.31891,3.2165613,-37.78854,-0.0337525,0.6045542,8.3603896E-5,254.34648,254.36876,248.42622,248.40398,514.0,512.0,566.0,555.0,89.0,89.0,89.0,89.0,0.0,0.0,0.0,0.0,0.044347696,0.044000696,0.051139165,0.050880883,0.0,0.0,0.0,0.0,-2.5749204,5.485124,-2.6956198,3.2320616,0.0,0.0,0.0,2.0,1.0,0.4178455,-0.025444914,-9.5820427E-4,89.0,89.0,89.0,89.0,21.842827,21.842827,24.816736,24.816736,0.02328444,0.023443537,-5.88759E-4,-5.9394934E-4,1190.5087,0.0,0.0,0.0,0.0,0.0,0.0,0.0,0.0,0.0,0.0,0.0,0.0,0.0,28.056063,0.0789958,63.088055,-7.170007E-4,-0.0034341635,0.0013006832,546167.8,119984.9,0.016281454,0.01705614,7126.7754,7048.6836,5130.034,5013.5024,0.30876923,0.0,0.0,0.0
71.90144,71.90144,1.083,0.0,0.0,249.96672,11637.0,100.0,0.0,0.025717067,0.0,6.0,0.0,0.0,4000000.0,110.0,1.0,0.0,0.0,10.0,0.0,0.0,-142.44356,3.2218597,-33.56999,-0.021219298,0.59129107,9.5426105E-5,255.71063,255.73251,249.82458,249.8149,512.0,509.0,564.0,552.0,89.0,89.0,89.0,89.0,0.0,0.0,0.0,0.0,0.044630125,0.044354115,0.05118119,0.05097618,4.2108445,5.3393836,0.6055086,1.4403461,1.1265277,-2.2128294,0.4559755,-1.8909572,0.0,0.0,0.0,2.0,1.0,0.41769087,-0.025366994,-0.0010361671,89.0,89.0,89.0,89.0,21.842827,21.842827,24.816736,24.816736,0.023018349,0.023129258,-5.8158406E-4,-5.8662635E-4,1194.3002,0.0,0.0,0.0,0.0,0.0,0.0,0.0,0.0,0.0,0.0,0.0,0.0,0.0,28.198755,0.07988761,63.451324,-5.6613644E-4,-0.0013100368,0.0015851231,544941.0,119984.9,0.016023854,0.016608633,7167.232,7106.954,5161.867,5070.2847,0.308424,0.0,0.0,0.0
74.21614,74.21614,1.133,0.0,0.0,250.657,11667.0,100.0,0.0,-0.04222618,0.0,6.0,0.0,0.0,4000000.0,110.0,1.0,0.0,0.0,10.0,0.0,0.0,-141.50224,3.2245293,-31.451738,-0.008393943,0.5847789,1.3587624E-4,256.38123,256.40375,250.50879,250.51231,510.0,508.0,562.0,551.0,89.0,89.0,89.0,89.0,0.0,0.0,0.0,0.0,0.04476263,0.04454188,0.051194612,0.051030442,0.0,0.0,0.0,0.0,-21.6052,22.436684,-15.757977,14.966725,0.0,0.0,0.0,2.0,1.0,0.4176864,-0.025303172,-0.0010743141,89.0,89.0,89.0,89.0,21.842827,21.842827,24.816736,24.816736,0.022901187,0.022964137,-5.755814E-4,-5.855679E-4,1196.0531,0.0,0.0,0.0,0.0,0.0,0.0,0.0,0.0,0.0,0.0,0.0,0.0,0.0,28.273026,0.08023189,63.628147,1.0522548E-5,0.001094825,0.0027613796,544337.5,119984.9,0.015896382,0.016383773,7183.937,7139.6953,5173.2886,5102.3516,0.3082552,0.0,0.0,0.0
77.69992,77.69992,1.183,0.0,0.0,251.67831,11712.0,100.0,0.0,-0.08260782,0.0,6.0,0.0,0.0,4000000.0,110.0,1.0,0.0,0.0,10.0,0.0,0.0,-140.08556,3.22855,-28.263466,0.007346362,0.5752103,3.754152E-4,257.37238,257.39832,251.52129,251.54387,508.0,506.0,560.0,549.0,89.0,89.0,89.0,89.0,0.0,0.0,0.0,0.0,0.0449493,0.044834908,0.051206328,0.051119987,0.0,0.0,0.0,0.0,21.41743,-19.459417,13.3708105,-13.330578,0.0,0.0,0.0,2.0,1.0,0.41782844,-0.025193626,-0.0011270046,89.0,89.0,89.0,89.0,21.842827,21.842827,24.816736,24.816736,0.022721795,0.02273077,-5.719049E-4,-5.7925563E-4,1198.6964,0.0,0.0,0.0,0.0,0.0,0.0,0.0,0.0,0.0,0.0,0.0,0.0,0.0,28.388815,0.080600746,63.887142,-1.5334261E-4,0.004228127,0.0021931825,543444.44,119984.9,0.015703399,0.016046701,7210.129,7187.4473,5189.1504,5152.365,0.3079958,0.0,0.0,0.0
81.197586,81.197586,1.233,0.0,0.0,252.68292,11757.0,100.0,0.0,-0.08828056,0.0,6.0,0.0,0.0,4000000.0,110.0,1.0,0.0,0.0,10.0,0.0,0.0,-138.66293,3.2325885,-25.06244,0.021504417,0.5658171,3.5610236E-4,258.34955,258.3754,252.52022,252.5554,506.0,504.0,559.0,547.0,89.0,89.0,89.0,89.0,0.0,0.0,0.0,0.0,0.045144062,0.045118723,0.051222276,0.0512037,0.0,0.0,0.0,0.0,3.2856987,-6.8664546,3.4868715,-4.7206874,0.0,0.0,0.0,2.0,1.0,0.41810074,-0.025097568,-0.001177311,89.0,89.0,89.0,89.0,21.842827,21.842827,24.816736,24.816736,0.022544494,0.022509437,-5.698255E-4,-5.713538E-4,1201.364,0.0,0.0,0.0,0.0,0.0,0.0,0.0,0.0,0.0,0.0,0.0,0.0,0.0,28.509914,0.08089564,64.138695,-2.7019897E-4,0.0061487793,0.0018211906,542569.2,119984.91,0.015516849,0.015714085,7235.1846,7234.8125,5205.1304,5199.759,0.30774307,0.0,0.0,0.0
84.697914,84.697914,1.283,0.0,0.0,251.96208,11301.0,100.0,0.0,-0.07599162,0.0,6.0,0.0,0.0,4000000.0,110.0,1.0,0.0,0.0,10.0,0.0,0.0,-137.2387,3.2375662,-21.859089,0.029149175,-0.56145525,0.09689013,251.94603,251.96574,251.96115,251.99272,504.0,502.0,557.0,545.0,89.0,89.0,89.0,89.0,0.0,0.0,0.0,0.0,0.042413726,0.042415235,0.05190492,0.051911943,0.0,0.0,0.0,0.0,-627.38226,-630.3593,131.33434,130.8649,0.0,0.0,0.0,2.0,1.0,0.4183455,-0.025061695,4.503727E-4,89.0,89.0,89.0,89.0,21.842827,21.842827,24.816736,24.816736,8.496797E-6,-2.8963628E-5,4.1596424E-5,4.12533E-5,1170.5382,0.0,0.0,0.0,0.0,0.0,0.0,0.0,0.0,0.0,0.0,0.0,0.0,0.0,28.441092,0.12132721,63.9501,0.038513903,0.0043857507,-0.016277382,549978.5,0.0,0.014342609,0.018698702,6972.0254,6980.07,5882.2065,5886.3516,0.30843925,0.0,0.0,0.0
88.19077,88.19077,1.333,0.0,0.0,252.19313,10880.0,100.0,0.0,-0.06867824,0.0,7.0,0.0,0.0,4000000.0,110.0,1.0,0.0,0.0,10.0,0.0,0.0,-135.81674,3.2436624,-18.662779,0.032093793,0.58149064,-0.1270021,258.656,258.67105,252.01398,252.04333,502.0,500.0,555.0,544.0,89.0,89.0,89.0,89.0,0.0,0.0,0.0,0.0,0.041151304,0.04118114,0.051653806,0.05168153,0.0,0.0,0.0,0.0,2611.9482,2619.5525,-922.2104,-919.4478,0.0,0.0,0.0,2.0,1.0,0.41859943,-0.025034197,5.10931E-4,89.0,89.0,89.0,89.0,21.842827,21.842827,24.816736,24.816736,0.025713157,0.025661986,-6.1411865E-4,-6.1362993E-4,1122.0089,0.0,0.0,0.0,0.0,0.0,0.0,0.0,0.0,0.0,0.0,0.0,0.0,0.0,28.480602,0.102075726,64.0028,-0.032738972,0.0059079593,0.015069945,547576.0,119984.9,0.016124006,0.020619178,6773.827,6787.0117,5239.4604,5253.286,0.31028557,0.0,0.0,0.0
91.69629,91.69629,1.383,0.0,0.0,253.34477,10543.0,100.0,0.0,-0.07490251,0.0,7.0,0.0,0.0,4000000.0,110.0,1.0,0.0,0.0,10.0,0.0,0.0,-134.38896,3.2468545,-15.455069,0.033723935,0.6515073,-0.08826917,259.5698,259.58246,253.16957,253.1971,500.0,498.0,553.0,542.0,89.0,89.0,89.0,89.0,0.0,0.0,0.0,0.0,0.04360698,0.043644283,0.050883144,0.050914317,0.0,0.0,0.0,0.0,24.139708,40.085674,719.8243,731.3042,0.0,0.0,0.0,2.0,1.0,0.4188702,-0.025028754,-9.483099E-4,89.0,89.0,89.0,89.0,21.842827,21.842827,24.816736,24.816736,0.024710594,0.024656435,-6.2740943E-4,-6.2825705E-4,1075.5743,0.0,0.0,0.0,0.0,0.0,0.0,0.0,0.0,0.0,0.0,0.0,0.0,0.0,28.623716,0.03799011,64.28933,-0.013619968,0.0051234122,0.0064748228,541693.0,119984.9,0.016757429,0.017491594,7163.8193,7177.275,4917.457,4932.089,0.30922508,0.0,0.0,0.0
95.21761,95.21761,1.433,0.0,0.0,254.48318,10283.0,100.0,0.0,-0.115894616,0.0,7.0,0.0,0.0,4000000.0,110.0,1.0,0.0,0.0,10.0,0.0,0.0,-132.95387,3.248747,-12.2331505,0.042139843,0.6371217,0.06136074,260.17154,260.1902,254.30714,254.35036,498.0,496.0,551.0,540.0,89.0,89.0,89.0,89.0,0.0,0.0,0.0,0.0,0.045864988,0.045974012,0.051232636,0.051313438,0.0,0.0,0.0,0.0,-300.87683,-282.9998,-37.68502,-25.33344,0.0,0.0,0.0,2.0,1.0,0.41919607,-0.024957666,-0.0014247894,89.0,89.0,89.0,89.0,21.842827,21.842827,24.816736,24.816736,0.023277137,0.023184288,-6.1187E-4,-6.1262265E-4,1026.869,0.0,0.0,0.0,0.0,0.0,0.0,0.0,0.0,0.0,0.0,0.0,0.0,0.0,28.771036,0.047891863,64.56988,-0.007384102,0.007644618,0.0044566104,530239.7,119984.91,0.0149630485,0.014453595,7430.382,7459.586,5305.624,5345.755,0.30687237,0.0,0.0,0.0
99.93463,99.93463,1.483,0.0,0.0,255.7314,10323.0,100.0,0.0,-0.19691376,0.0,7.0,0.0,0.0,4000000.0,110.0,1.0,0.0,0.0,10.0,0.0,0.0,-131.02975,3.253678,-7.917837,0.061813667,0.51949704,0.042226955,261.18033,261.20496,255.55827,255.624,495.0,493.0,548.0,537.0,89.0,89.0,89.0,89.0,0.0,0.0,0.0,0.0,0.04668987,0.046885207,0.05137779,0.051526003,-2.4068353,-0.55186445,-1.689121,-0.1388043,-501.46567,-492.29257,-163.54768,-147.25325,0.0,0.0,0.0,2.0,1.0,0.41981977,-0.024857052,-0.001577735,89.0,89.0,89.0,89.0,21.842827,21.842827,24.816736,24.816736,0.021442939,0.021297196,-5.437152E-4,-5.4819917E-4,1034.6985,0.0,0.0,0.0,0.0,0.0,0.0,0.0,0.0,0.0,0.0,0.0,0.0,0.0,28.945738,0.092450045,64.87157,0.0031135185,0.011298772,7.1692234E-4,532212.3,119984.9,0.014444922,0.013504426,7417.877,7471.527,5299.4595,5371.7793,0.30615997,0.0,0.0,0.0
102.3016,102.3016,1.533,0.0,0.0,256.33975,10349.0,100.0,0.0,-0.21410683,0.0,7.0,0.0,0.0,4000000.0,110.0,1.0,0.0,0.0,10.0,0.0,0.0,-130.0633,3.2568176,-5.752824,0.070752144,0.51622844,-0.0076542813,261.84628,261.871,256.163,256.23615,494.0,492.0,547.0,536.0,89.0,89.0,89.0,89.0,0.0,0.0,0.0,0.0,0.046369575,0.0466068,0.051305678,0.051489398,0.0,0.0,0.0,0.0,-176.79776,-194.54059,4.4658847,-13.679261,0.0,0.0,0.0,2.0,1.0,0.42021585,-0.024810027,-0.0014492273,89.0,89.0,89.0,89.0,21.842827,21.842827,24.816736,24.816736,0.02163559,0.021465251,-5.4305786E-4,-5.469561E-4,1039.8335,0.0,0.0,0.0,0.0,0.0,0.0,0.0,0.0,0.0,0.0,0.0,0.0,0.0,29.034912,0.09336266,65.016815,0.0046172556,0.012486173,-4.792813E-4,533509.8,119984.9,0.014640849,0.014005338,7314.2495,7378.2065,5247.863,5334.2974,0.30649376,0.0,0.0,0.0
105.8625,105.8625,1.583,0.0,0.0,257.24844,10386.0,100.0,0.0,-0.19784321,0.0,7.0,0.0,0.0,4000000.0,110.0,1.0,0.0,0.0,10.0,0.0,0.0,-128.60794,3.261133,-2.4962947,0.079707906,0.5138627,-0.030475937,262.78018,262.80264,257.069,257.1466,492.0,489.0,545.0,534.0,89.0,89.0,89.0,89.0,0.0,0.0,0.0,0.0,0.045910604,0.046205394,0.05126782,0.05149841,0.0,0.0,0.0,0.0,195.09045,182.80591,62.68321,52.06167,0.0,0.0,0.0,2.0,1.0,0.42086312,-0.02475229,-0.0012624264,89.0,89.0,89.0,89.0,21.842827,21.842827,24.816736,24.816736,0.021685256,0.021494089,-5.4487016E-4,-5.4356793E-4,1047.1093,0.0,0.0,0.0,0.0,0.0,0.0,0.0,0.0,0.0,0.0,0.0,0.0,0.0,29.172153,0.07909631,65.23198,0.0026333637,0.013070624,-2.7781154E-4,535328.9,119984.91,0.014550963,0.014372227,7288.2183,7366.1426,5254.8945,5361.9355,0.3066244,0.0,0.0,0.0
109.43594,109.43594,1.633,0.0,0.0,258.15228,10420.0,100.0,0.0,-0.1897114,0.0,7.0,0.0,0.0,4000000.0,110.0,1.0,0.0,0.0,10.0,0.0,0.0,-127.14566,3.2648294,0.7709224,0.08538507,0.5111824,0.031371824,263.63058,263.6505,257.97382,258.04892,490.0,487.0,543.0,532.0,89.0,89.0,89.0,89.0,0.0,0.0,0.0,0.0,0.04614236,0.046471123,0.05141924,0.051669907,0.0,0.0,0.0,0.0,870.48395,837.41235,356.4253,325.13736,0.0,0.0,0.0,2.0,1.0,0.42150825,-0.024716014,-0.0012482405,89.0,89.0,89.0,89.0,21.842827,21.842827,24.816736,24.816736,0.021399604,0.021212522,-5.4114446E-4,-5.395719E-4,1053.7914,0.0,0.0,0.0,0.0,0.0,0.0,0.0,0.0,0.0,0.0,0.0,0.0,0.0,29.312256,0.07548407,65.44434,-0.0027616315,0.012767978,0.0024082977,536987.2,119984.9,0.014153162,0.013904515,7447.9644,7528.956,5435.9326,5549.3975,0.3062563,0.0,0.0,0.0
113.021805,113.021805,1.683,0.0,0.0,259.04483,10455.0,100.0,0.0,-0.18681443,0.0,7.0,0.0,0.0,4000000.0,110.0,1.0,0.0,0.0,10.0,0.0,0.0,-125.676346,3.2687652,4.0486565,0.08717112,0.50455207,0.026403612,264.53284,264.54822,258.8679,258.93875,488.0,485.0,541.0,530.0,89.0,89.0,89.0,89.0,0.0,0.0,0.0,0.0,0.046528086,0.046890043,0.051488448,0.051750485,0.0,0.0,0.0,0.0,1.1533641,-30.201672,354.6282,338.9373,0.0,0.0,0.0,2.0,1.0,0.42212668,-0.02468391,-0.0014458895,89.0,89.0,89.0,89.0,21.842827,21.842827,24.816736,24.816736,0.021359818,0.02116992,-5.3881545E-4,-5.3834677E-4,1060.7877,0.0,0.0,0.0,0.0,0.0,0.0,0.0,0.0,0.0,0.0,0.0,0.0,0.0,29.452599,0.08236613,65.65312,-0.00622921,0.012155788,0.0032581543,538742.75,119984.89,0.013892637,0.013417373,7442.861,7529.5205,5452.6855,5571.826,0.30628395,0.0,0.0,0.0
116.62081,116.62081,1.733,0.0,0.0,259.93173,10489.0,100.0,0.0,-0.18474741,0.0,7.0,0.0,0.0,4000000.0,110.0,1.0,0.0,0.0,10.0,0.0,0.0,-124.20001,3.2731442,7.3367786,0.08653864,0.50163686,-0.010476565,265.39102,265.4097,259.7546,259.82413,486.0,483.0,540.0,529.0,89.0,89.0,89.0,89.0,0.0,0.0,0.0,0.0,0.047019217,0.04736699,0.05132316,0.051617112,0.0,0.0,0.0,0.0,235.43088,176.07358,-652.75574,-590.60895,0.0,0.0,0.0,2.0,1.0,0.42273346,-0.024692815,-0.0018792152,89.0,89.0,89.0,89.0,21.842827,21.842827,24.816736,24.816736,0.021159928,0.020986801,-5.441898E-4,-5.424091E-4,1067.5524,0.0,0.0,0.0,0.0,0.0,0.0,0.0,0.0,0.0,0.0,0.0,0.0,0.0,29.5927,0.08795616,65.86027,-4.2131348E-4,0.011674919,-0.0016053407,540420.9,119984.9,0.014763882,0.012782097,7540.623,7620.7734,5162.392,5302.9985,0.30520248,0.0,0.0,0.0
120.23219,120.23219,1.783,0.0,0.0,260.80273,10530.0,100.0,0.0,-0.16834205,0.0,7.0,0.0,0.0,4000000.0,110.0,1.0,0.0,0.0,10.0,0.0,0.0,-122.716736,3.2771037,10.6352005,0.085098445,0.48492575,-0.041911088,266.42636,266.43396,260.63226,260.6996,484.0,481.0,538.0,527.0,89.0,89.0,89.0,89.0,0.0,0.0,0.0,0.0,0.046675045,0.04701663,0.051310513,0.051555857,0.0,0.0,0.0,0.0,-1254.2812,-1079.1196,541.7391,564.0282,0.0,0.0,0.0,2.0,1.0,0.42328766,-0.024730047,-9.6189976E-4,89.0,89.0,89.0,89.0,21.842827,21.842827,24.816736,24.816736,0.02165529,0.021447072,-5.29109E-4,-5.268427E-4,1073.8029,0.0,0.0,0.0,0.0,0.0,0.0,0.0,0.0,0.0,0.0,0.0,0.0,0.0,29.730017,0.070396096,66.06383,0.015327063,0.010922679,-0.0070957006,541468.5,119984.89,0.01498916,0.014352915,7227.036,7325.072,5373.1973,5482.829,0.30782604,0.0,0.0,0.0
123.85571,123.85571,1.833,0.0,0.0,261.67108,10559.0,100.0,0.0,-0.11291703,0.0,7.0,0.0,0.0,4000000.0,110.0,1.0,0.0,0.0,10.0,0.0,0.0,-121.226715,3.2798982,13.943764,0.075482905,0.49420258,0.0041240887,267.15005,267.1602,261.50076,261.55322,482.0,479.0,536.0,525.0,89.0,89.0,89.0,89.0,0.0,0.0,0.0,0.0,0.04637788,0.046673022,0.051645305,0.05186429,0.0,0.0,0.0,0.0,1796.2618,1731.4059,-193.7091,-182.8864,0.0,0.0,0.0,2.0,1.0,0.42379567,-0.024749057,-0.0013941526,89.0,89.0,89.0,89.0,21.842827,21.842827,24.816736,24.816736,0.021144856,0.021003228,-5.378883E-4,-5.331614E-4,1077.758,0.0,0.0,0.0,0.0,0.0,0.0,0.0,0.0,0.0,0.0,0.0,0.0,0.0,29.863483,0.05187653,66.26827,-0.021749327,0.009292446,0.009339095,541970.3,119984.9,0.013690779,0.013598879,7533.3213,7603.3413,5535.302,5634.6807,0.30621624,0.0,0.0,0.0
127.491425,127.491425,1.883,0.0,0.0,262.53412,10589.0,100.0,0.0,-0.13014849,0.0,7.0,0.0,0.0,4000000.0,110.0,1.0,0.0,0.0,10.0,0.0,0.0,-119.730034,3.283208,17.262552,0.071829945,0.48679656,0.08328267,267.9051,267.91797,262.36624,262.41687,480.0,477.0,534.0,523.0,89.0,89.0,89.0,89.0,0.0,0.0,0.0,0.0,0.048255496,0.04853453,0.051690497,0.051900364,0.0,0.0,0.0,0.0,-372.2772,-358.07486,106.93965,116.71631,0.0,0.0,0.0,2.0,1.0,0.42424437,-0.024760935,-0.0023319721,89.0,89.0,89.0,89.0,21.842827,21.842827,24.816736,24.816736,0.020597085,0.020469643,-5.338624E-4,-5.328507E-4,1081.8627,0.0,0.0,0.0,0.0,0.0,0.0,0.0,0.0,0.0,0.0,0.0,0.0,0.0,29.995853,0.08325197,66.471535,-0.0103441635,0.008810956,0.0041736905,542493.06,119984.91,0.012727552,0.01059937,7795.073,7861.142,5533.0093,5628.1514,0.30395603,0.0,0.0,0.0
132.35768,132.35768,1.933,0.0,0.0,263.65747,10639.0,100.0,0.0,-0.19935274,0.0,7.0,0.0,0.0,4000000.0,110.0,1.0,0.0,0.0,10.0,0.0,0.0,-117.7243,3.2901256,21.703268,0.076276645,0.46679276,-0.032988913,269.19125,269.20044,263.49008,263.55273,477.0,475.0,531.0,521.0,89.0,89.0,89.0,89.0,0.0,0.0,0.0,0.0,0.047734477,0.047859486,0.051512193,0.05167043,-24.968458,-21.91834,-0.867024,0.11198222,-558.77106,-428.56335,136.20256,233.36555,0.0,0.0,0.0,2.0,1.0,0.42483732,-0.0248511,-0.0015681982,89.0,89.0,89.0,89.0,21.842827,21.842827,24.816736,24.816736,0.021055358,0.020869892,-5.189882E-4,-5.2496634E-4,1088.7408,0.0,0.0,0.0,0.0,0.0,0.0,0.0,0.0,0.0,0.0,0.0,0.0,0.0,30.168186,0.10508571,66.73606,0.020393623,0.010320075,-0.006931278,543376.3,119984.9,0.014287606,0.012386029,7462.872,7551.3945,5391.798,5467.073,0.30568027,0.0,0.0,0.0
136.02095,136.02095,1.983,0.0,0.0,264.48578,10673.0,100.0,0.0,-0.1786692,0.0,7.0,0.0,0.0,4000000.0,110.0,1.0,0.0,0.0,10.0,0.0,0.0,-116.21254,3.2940881,25.045195,0.077677235,0.47319636,-0.09774092,270.05225,270.07028,264.3108,264.3788,475.0,473.0,530.0,519.0,89.0,89.0,89.0,89.0,0.0,0.0,0.0,0.0,0.046532128,0.04681326,0.051500678,0.05171702,-11.490582,-9.832307,1.5107541,2.4258344,1101.3418,1017.93835,321.02014,308.9368,0.0,0.0,0.0,2.0,1.0,0.42539158,-0.024768645,-0.0012300014,89.0,89.0,89.0,89.0,21.842827,21.842827,24.816736,24.816736,0.02126598,0.021094985,-5.2674644E-4,-5.2750926E-4,1093.4193,0.0,0.0,0.0,0.0,0.0,0.0,0.0,0.0,0.0,0.0,0.0,0.0,0.0,30.29585,0.05432693,66.9309,-0.0032207011,0.011676898,0.0027352744,543972.9,119984.91,0.014170888,0.01371407,7374.8027,7449.915,5417.142,5518.017,0.3061447,0.0,0.0,0.0
139.69589,139.69589,2.033,0.0,0.0,265.3141,10700.0,100.0,0.0,-0.17554678,0.0,7.0,0.0,0.0,4000000.0,110.0,1.0,0.0,0.0,10.0,0.0,0.0,-114.6943,3.2964532,28.396866,0.08158611,0.46629834,0.022566363,270.73135,270.75146,265.1384,265.20712,473.0,471.0,528.0,517.0,89.0,89.0,89.0,89.0,0.0,0.0,0.0,0.0,0.047656238,0.04798255,0.05168171,0.051926278,29.47457,30.005423,3.7624683,4.101768,168.57684,144.1016,33.8897,19.070518,0.0,0.0,0.0,2.0,1.0,0.42598403,-0.024730697,-0.0016331673,89.0,89.0,89.0,89.0,21.842827,21.842827,24.816736,24.816736,0.020600682,0.02043853,-5.2440976E-4,-5.241034E-4,1097.1339,0.0,0.0,0.0,0.0,0.0,0.0,0.0,0.0,0.0,0.0,0.0,0.0,0.0,30.426702,0.048889223,67.12422,-0.0074769985,0.011855134,0.0037645341,544443.56,119984.89,0.013178051,0.011692752,7709.839,7788.579,5561.2773,5673.3027,0.3046608,0.0,0.0,0.0
142.15228,142.15228,2.083,0.0,0.0,265.86023,10720.0,100.0,0.0,-0.17322241,0.0,7.0,0.0,0.0,4000000.0,110.0,1.0,0.0,0.0,10.0,0.0,0.0,-113.67849,3.298342,30.63663,0.08361162,0.46393317,0.059805878,271.24542,271.2467,265.68457,265.7545,472.0,469.0,526.0,516.0,89.0,89.0,89.0,89.0,0.0,0.0,0.0,0.0,0.048427798,0.048572667,0.051775657,0.05200343,0.0,0.0,0.0,0.0,-470.75452,-1166.6803,-19.834942,-111.20438,0.0,0.0,0.0,2.0,1.0,0.4263834,-0.024770359,-0.0018513203,89.0,89.0,89.0,89.0,21.842827,21.842827,24.816736,24.816736,0.020428395,0.020201115,-5.248498E-4,-5.2267965E-4,1099.8883,0.0,0.0,0.0,0.0,0.0,0.0,0.0,0.0,0.0,0.0,0.0,0.0,0.0,30.514755,0.064792395,67.250854,-0.005298811,0.011840544,-0.0022716112,544792.1,119984.9,0.012781774,0.010717779,7792.6523,7918.406,5602.878,5699.7266,0.30400562,0.0,0.0,0.0
145.84636,145.84636,2.133,0.0,0.0,266.66595,10753.0,100.0,0.0,-0.13617547,0.0,7.0,0.0,0.0,4000000.0,110.0,1.0,0.0,0.0,10.0,0.0,0.0,-112.14932,3.302272,34.004128,0.07923964,0.452535,0.02203149,272.07874,272.0886,266.49692,266.55743,470.0,467.0,525.0,514.0,89.0,89.0,89.0,89.0,0.0,0.0,0.0,0.0,0.048241112,0.04836495,0.05182326,0.05199755,0.0,0.0,0.0,0.0,-139.8906,-141.9693,-82.397446,-14.121828,0.0,0.0,0.0,2.0,1.0,0.42692518,-0.024829995,-0.0017671585,89.0,89.0,89.0,89.0,21.842827,21.842827,24.816736,24.816736,0.020418897,0.020252809,-5.195982E-4,-5.162679E-4,1104.4425,0.0,0.0,0.0,0.0,0.0,0.0,0.0,0.0,0.0,0.0,0.0,0.0,0.0,30.643938,0.08610385,67.43797,0.003917273,0.010023569,-0.0012209273,545369.06,119984.9,0.012847559,0.01096496,7755.009,7847.9697,5597.4214,5678.0312,0.3041525,0.0,0.0,0.0
149.55164,149.55164,2.183,0.0,0.0,267.45953,10787.0,100.0,0.0,-0.12026642,0.0,7.0,0.0,0.0,4000000.0,110.0,1.0,0.0,0.0,10.0,0.0,0.0,-110.613815,3.3063796,37.380913,0.073560104,0.44860253,-0.032324933,272.9234,272.9269,267.2952,267.34534,468.0,466.0,523.0,512.0,89.0,89.0,89.0,89.0,0.0,0.0,0.0,0.0,0.048014265,0.048133824,0.05177298,0.051943257,0.0,0.0,0.0,0.0,212.24316,192.07297,32.964344,10.66178,0.0,0.0,0.0,2.0,1.0,0.42737782,-0.02484286,-0.0016504526,89.0,89.0,89.0,89.0,21.842827,21.842827,24.816736,24.816736,0.020555636,0.020399107,-5.175664E-4,-5.1566964E-4,1109.1122,0.0,0.0,0.0,0.0,0.0,0.0,0.0,0.0,0.0,0.0,0.0,0.0,0.0,30.768648,0.075584315,67.62344,-4.4470653E-5,0.008401022,-8.188171E-4,545948.7,119984.9,0.01308892,0.011476043,7651.996,7740.7754,5560.25,5635.542,0.30451393,0.0,0.0,0.0
153.26802,153.26802,2.233,0.0,0.0,268.24814,10817.0,100.0,0.0,-0.09195777,0.0,7.0,0.0,0.0,4000000.0,110.0,1.0,0.0,0.0,10.0,0.0,0.0,-109.072205,3.3098087,40.766994,0.06376682,0.4454054,-0.009723196,273.67773,273.68152,268.089,268.12814,466.0,464.0,521.0,510.0,89.0,89.0,89.0,89.0,0.0,0.0,0.0,0.0,0.04823166,0.04831498,0.05182593,0.051954623,0.0,0.0,0.0,0.0,34.654137,61.503033,40.46112,50.65351,0.0,0.0,0.0,2.0,1.0,0.4277445,-0.024901522,-0.001709938,89.0,89.0,89.0,89.0,21.842827,21.842827,24.816736,24.816736,0.020360922,0.02024323,-5.165701E-4,-5.1468395E-4,1113.2574,0.0,0.0,0.0,0.0,0.0,0.0,0.0,0.0,0.0,0.0,0.0,0.0,0.0,30.88878,0.064706735,67.80945,-0.0019127413,0.0065959594,-3.223121E-5,546469.3,119984.89,0.012879124,0.011091404,7749.7617,7818.6514,5615.9443,5672.232,0.30422688,0.0,0.0,0.0
158.24026,158.24026,2.283,0.0,0.0,269.2846,10856.0,100.0,0.0,-0.0759551,0.0,7.0,0.0,0.0,4000000.0,110.0,1.0,0.0,0.0,10.0,0.0,0.0,-107.0076,3.3143208,45.296196,0.052591294,0.43678465,0.014996342,274.6795,274.68546,269.12967,269.1618,463.0,461.0,518.0,508.0,89.0,89.0,89.0,89.0,0.0,0.0,0.0,0.0,0.048408035,0.048473362,0.051952545,0.05204903,0.20474194,0.1490861,1.3981013,1.0643898,-102.82247,-74.88726,-33.983585,-17.702578,0.0,0.0,0.0,2.0,1.0,0.42813054,-0.02494841,-0.0017431974,89.0,89.0,89.0,89.0,21.842827,21.842827,24.816736,24.816736,0.02012933,0.02004153,-5.126476E-4,-5.1166845E-4,1118.6859,0.0,0.0,0.0,0.0,0.0,0.0,0.0,0.0,0.0,0.0,0.0,0.0,0.0,31.041914,0.071985245,68.05605,2.5952363E-4,0.005400357,-7.4758416E-4,547161.25,119984.89,0.012527921,0.010629249,7856.927,7908.082,5692.656,5735.4775,0.30383015,0.0,0.0,0.0
160.73358,160.73358,2.333,0.0,0.0,269.795,10877.0,100.0,0.0,-0.120686084,0.0,7.0,0.0,0.0,4000000.0,110.0,1.0,0.0,0.0,10.0,0.0,0.0,-105.97152,3.3167646,47.566936,0.053495765,0.4326141,0.0022797873,275.1966,275.20428,269.63892,269.67374,462.0,460.0,517.0,507.0,89.0,89.0,89.0,89.0,0.0,0.0,0.0,0.0,0.04838464,0.048444774,0.051974885,0.052061416,0.0,0.0,0.0,0.0,-25.695559,-16.281008,-33.11187,-21.041925,0.0,0.0,0.0,2.0,1.0,0.4283147,-0.02495879,-0.0017199516,89.0,89.0,89.0,89.0,21.842827,21.842827,24.816736,24.816736,0.020119527,0.020027356,-5.0762144E-4,-5.130879E-4,1121.581,0.0,0.0,0.0,0.0,0.0,0.0,0.0,0.0,0.0,0.0,0.0,0.0,0.0,31.11632,0.07374908,68.17794,8.348975E-4,0.006095363,8.476895E-5,547518.2,119984.9,0.012509579,0.010659181,7848.343,7895.242,5695.2383,5733.8154,0.30383205,0.0,0.0,0.0
164.48245,164.48245,2.383,0.0,0.0,270.5531,10906.0,100.0,0.0,-0.1175635,0.0,7.0,0.0,0.0,4000000.0,110.0,1.0,0.0,0.0,10.0,0.0,0.0,-104.412766,3.3204043,50.98061,0.053323433,0.42777312,0.007987613,275.94687,275.96027,270.39227,270.43625,460.0,458.0,515.0,505.0,89.0,89.0,89.0,89.0,0.0,0.0,0.0,0.0,0.04842425,0.04849559,0.05201918,0.05211821,0.0,0.0,0.0,0.0,209.27933,175.06776,149.70747,128.66554,0.0,0.0,0.0,2.0,1.0,0.4286657,-0.024942335,-0.001724124,89.0,89.0,89.0,89.0,21.842827,21.842827,24.816736,24.816736,0.020058442,0.019955534,-5.072757E-4,-5.08867E-4,1125.6383,0.0,0.0,0.0,0.0,0.0,0.0,0.0,0.0,0.0,0.0,0.0,0.0,0.0,31.227577,0.07310315,68.358635,-0.0019290489,0.0076045156,8.35765E-4,548037.6,119984.89,0.012521421,0.010636886,7870.298,7923.0,5752.9956,5797.1816,0.30383015,0.0,0.0,0.0
168.24188,168.24188,2.433,0.0,0.0,271.3016,10936.0,100.0,0.0,-0.11600221,0.0,7.0,0.0,0.0,4000000.0,110.0,1.0,0.0,0.0,10.0,0.0,0.0,-102.84845,3.3241792,54.40325,0.056739494,0.42092127,0.008432809,276.6841,276.69763,271.13995,271.1864,458.0,456.0,514.0,503.0,89.0,89.0,89.0,89.0,0.0,0.0,0.0,0.0,0.04850233,0.048584744,0.052017197,0.05214078,0.0,0.0,0.0,0.0,-658.5627,-28.833746,-24.501974,48.74914,0.0,0.0,0.0,2.0,1.0,0.42905816,-0.024903147,-0.0018066168,89.0,89.0,89.0,89.0,21.842827,21.842827,24.816736,24.816736,0.019967794,0.019843755,-5.056711E-4,-5.0617836E-4,1129.782,0.0,0.0,0.0,0.0,0.0,0.0,0.0,0.0,0.0,0.0,0.0,0.0,0.0,31.338646,0.07756312,68.53647,1.5162316E-4,0.007946543,0.0012882344,548546.1,119984.9,0.012783221,0.010660018,7886.3594,7968.245,5720.662,5782.064,0.3039856,0.0,0.0,0.0
172.01169,172.01169,2.483,0.0,0.0,272.0381,10965.0,100.0,0.0,-0.10766617,0.0,7.0,0.0,0.0,4000000.0,110.0,1.0,0.0,0.0,10.0,0.0,0.0,-101.27862,3.3281088,57.834705,0.056288645,0.4150551,0.0041112946,277.42328,277.43616,271.87836,271.92178,456.0,454.0,512.0,501.0,89.0,89.0,89.0,89.0,0.0,0.0,0.0,0.0,0.04851144,0.048570015,0.05205051,0.05214673,0.0,0.0,0.0,0.0,-21.457666,60.242405,-10.675191,18.01103,0.0,0.0,0.0,2.0,1.0,0.4294349,-0.024945289,-0.0018206835,89.0,89.0,89.0,89.0,21.842827,21.842827,24.816736,24.816736,0.019911082,0.019810399,-5.032092E-4,-5.03238E-4,1133.83,0.0,0.0,0.0,0.0,0.0,0.0,0.0,0.0,0.0,0.0,0.0,0.0,0.0,31.448454,0.079413764,68.711205,-4.6398753E-4,0.0073950747,1.1556549E-6,549055.56,119984.89,0.013164653,0.010966857,7913.271,7968.242,5746.5596,5788.919,0.3043213,0.0,0.0,0.0
175.79176,175.79176,2.533,0.0,0.0,272.76727,10994.0,100.0,0.0,-0.11710347,0.0,7.0,0.0,0.0,4000000.0,110.0,1.0,0.0,0.0,10.0,0.0,0.0,-99.70332,3.3312473,61.274834,0.058054537,0.41320425,-0.013868464,278.16742,278.17908,272.60602,272.65134,454.0,452.0,510.0,500.0,89.0,89.0,89.0,89.0,0.0,0.0,0.0,0.0,0.048455473,0.04854355,0.052032307,0.052147683,0.0,0.0,0.0,0.0,585.9822,570.8545,193.73593,197.16916,0.0,0.0,0.0,2.0,1.0,0.4298086,-0.024915883,-0.0017333031,89.0,89.0,89.0,89.0,21.842827,21.842827,24.816736,24.816736,0.019936929,0.01982508,-5.0232897E-4,-5.033472E-4,1137.8896,0.0,0.0,0.0,0.0,0.0,0.0,0.0,0.0,0.0,0.0,0.0,0.0,0.0,31.557875,0.055203598,68.883896,-0.002167839,0.007813018,0.0015076722,549568.0,119984.89,0.012629273,0.010662881,7881.51,7942.3955,5790.8726,5844.47,0.30389023,0.0,0.0,0.0
179.58202,179.58202,2.583,0.0,0.0,273.49274,11021.0,100.0,0.0,-0.13199148,0.0,7.0,0.0,0.0,4000000.0,110.0,1.0,0.0,0.0,10.0,0.0,0.0,-98.122536,3.333983,64.72356,0.060058728,0.4097314,0.015673995,278.85117,278.8619,273.33078,273.37674,452.0,450.0,508.0,498.0,89.0,89.0,89.0,89.0,0.0,0.0,0.0,0.0,0.0486137,0.048703328,0.05220527,0.052299134,0.0,0.0,0.0,0.0,505.32812,544.5554,963.6237,1005.2115,0.0,0.0,0.0,2.0,1.0,0.4301933,-0.024908682,-0.0018171072,89.0,89.0,89.0,89.0,21.842827,21.842827,24.816736,24.816736,0.019728797,0.019612776,-5.0049176E-4,-5.031818E-4,1140.9175,0.0,0.0,0.0,0.0,0.0,0.0,0.0,0.0,0.0,0.0,0.0,0.0,0.0,31.667782,0.05434942,69.0552,-0.0037596305,0.00801772,0.0030235932,549680.4,119984.9,0.010742371,0.009476359,7989.948,8055.6367,5957.6475,6000.26,0.30288887,0.0,0.0,0.0
184.65147,184.65147,2.633,0.0,0.0,274.45407,11055.0,100.0,0.0,-0.13179816,0.0,7.0,0.0,0.0,4000000.0,110.0,1.0,0.0,0.0,10.0,0.0,0.0,-96.00624,3.3392434,69.33512,0.060660213,0.4051406,0.08531791,279.70212,279.71716,274.2944,274.34042,449.0,447.0,506.0,496.0,89.0,89.0,89.0,89.0,0.0,0.0,0.0,0.0,0.049289566,0.049364325,0.052232757,0.05235376,-4.7888603,-4.373118,-7.3472404,-6.5705175,-1344.1084,-1281.5592,-209.78894,-179.10448,0.0,0.0,0.0,2.0,1.0,0.4307125,-0.024880216,-0.0022718906,89.0,89.0,89.0,89.0,21.842827,21.842827,24.816736,24.816736,0.01920656,0.01910544,-5.006436E-4,-5.038746E-4,1144.5123,0.0,0.0,0.0,0.0,0.0,0.0,0.0,0.0,0.0,0.0,0.0,0.0,0.0,31.815079,0.106113605,69.28136,0.01406282,0.007565919,-0.0057579638,549716.44,119984.9,0.010408973,0.00727199,8299.879,8359.495,5776.775,5834.2754,0.29966068,0.0,0.0,0.0
187.19286,187.19286,2.683,0.0,0.0,274.91837,11079.0,100.0,0.0,-0.11394166,0.0,7.0,0.0,0.0,4000000.0,110.0,1.0,0.0,0.0,10.0,0.0,0.0,-94.94443,3.3428392,71.64648,0.060205445,0.39168355,-0.0295415,280.30676,280.31943,274.76105,274.80978,448.0,446.0,504.0,494.0,89.0,89.0,89.0,89.0,0.0,0.0,0.0,0.0,0.048582815,0.04869002,0.05209991,0.052264113,0.0,0.0,0.0,0.0,48.159023,119.65335,228.64487,304.538,0.0,0.0,0.0,2.0,1.0,0.43096676,-0.024899265,-0.0014508963,89.0,89.0,89.0,89.0,21.842827,21.842827,24.816736,24.816736,0.019645007,0.019522473,-4.922764E-4,-4.916807E-4,1147.0497,0.0,0.0,0.0,0.0,0.0,0.0,0.0,0.0,0.0,0.0,0.0,0.0,0.0,31.886906,0.104047045,69.39029,0.022950321,0.0075943996,-0.013794191,549741.7,119984.89,0.011514943,0.009385176,7956.453,8031.749,5767.741,5850.9917,0.2989998,0.0,0.0,0.0
191.01297,191.01297,2.733,0.0,0.0,275.6045,11109.0,100.0,0.0,-0.14967024,0.0,7.0,0.0,0.0,4000000.0,110.0,1.0,0.0,0.0,10.0,0.0,0.0,-93.34728,3.3460784,75.12023,0.066532984,0.39209604,-0.11827606,281.07755,281.09692,275.4408,275.4959,446.0,444.0,503.0,493.0,89.0,89.0,89.0,89.0,0.0,0.0,0.0,0.0,0.047993083,0.048113637,0.05200779,0.052148137,0.0,0.0,0.0,0.0,1684.2527,1940.8195,512.42255,660.5877,0.0,0.0,0.0,2.0,1.0,0.4313875,-0.024967171,-6.92606E-4,89.0,89.0,89.0,89.0,21.842827,21.842827,24.816736,24.816736,0.020007042,0.019889439,-4.899025E-4,-4.9257814E-4,1150.2238,0.0,0.0,0.0,0.0,0.0,0.0,0.0,0.0,0.0,0.0,0.0,0.0,0.0,31.99357,0.030638006,69.551094,0.0031081978,0.009408282,2.424909E-4,549774.25,119984.91,0.012973649,0.011744562,7747.3906,7803.732,5776.038,5845.6904,0.3006382,0.0,0.0,0.0
194.84268,194.84268,2.783,0.0,0.0,276.2861,11136.0,100.0,0.0,-0.124223635,0.0,7.0,0.0,0.0,4000000.0,110.0,1.0,0.0,0.0,10.0,0.0,0.0,-91.7448,3.3453813,78.602005,0.06570329,0.38322487,-0.083096944,281.74805,281.75735,276.12683,276.17703,444.0,442.0,501.0,491.0,89.0,89.0,89.0,89.0,0.0,0.0,0.0,0.0,0.048164904,0.048260678,0.051954545,0.05207834,0.0,0.0,0.0,0.0,79.688416,126.600235,1685.7279,1667.2607,0.0,0.0,0.0,2.0,1.0,0.43181357,-0.024981536,1.6629696E-4,89.0,89.0,89.0,89.0,21.842827,21.842827,24.816736,24.816736,0.019907959,0.019775497,-4.897723E-4,-4.897487E-4,1153.0782,0.0,0.0,0.0,0.0,0.0,0.0,0.0,0.0,0.0,0.0,0.0,0.0,0.0,32.09993,-0.04330217,69.71056,0.012658822,0.008147898,-0.005889997,549802.3,119984.91,0.012685576,0.01205415,7743.331,7817.992,5905.9873,5959.209,0.30867004,0.0,0.0,0.0
198.68185,198.68185,2.833,0.0,0.0,276.96478,11151.0,100.0,0.0,-0.08345825,0.0,7.0,0.0,0.0,4000000.0,110.0,1.0,0.0,0.0,10.0,0.0,0.0,-90.136955,3.3431623,82.09163,0.062822625,0.39448178,0.19961375,282.12726,282.13425,276.79056,276.83835,443.0,441.0,499.0,489.0,89.0,89.0,89.0,89.0,0.0,0.0,0.0,0.0,0.04985928,0.05001805,0.053123813,0.05325928,0.0,0.0,0.0,0.0,3751.27,3410.495,-463.92813,-257.81384,0.0,0.0,0.0,2.0,1.0,0.43229514,-0.024891475,-0.0019894838,89.0,89.0,89.0,89.0,21.842827,21.842827,24.816736,24.816736,0.018909844,0.018780736,-4.996122E-4,-4.9496465E-4,1154.6655,0.0,0.0,0.0,0.0,0.0,0.0,0.0,0.0,0.0,0.0,0.0,0.0,0.0,32.20883,-0.017058142,69.867966,-0.07668154,0.010008952,0.035118807,549818.56,119984.9,0.006076084,0.0064691603,8501.487,8597.382,6660.048,6732.7085,0.29951477,0.0,0.0,0.0
202.5308,202.5308,2.883,0.0,0.0,277.6511,11169.0,100.0,0.0,-0.12175832,0.0,7.0,0.0,0.0,4000000.0,110.0,1.0,0.0,0.0,10.0,0.0,0.0,-88.52339,3.3497264,85.58924,0.06693579,0.36863455,0.49262133,282.58215,282.59802,277.49576,277.54764,441.0,439.0,497.0,487.0,89.0,89.0,89.0,89.0,0.0,0.0,0.0,0.0,0.051240202,0.05133964,0.05295612,0.053112075,0.0,0.0,0.0,0.0,-3773.3713,-3327.307,-297.4837,-206.78482,0.0,0.0,0.0,2.0,1.0,0.43276095,-0.024877105,-0.0035700798,89.0,89.0,89.0,89.0,21.842827,21.842827,24.816736,24.816736,0.017661378,0.017547516,-4.904933E-4,-4.889851E-4,1156.5704,0.0,0.0,0.0,0.0,0.0,0.0,0.0,0.0,0.0,0.0,0.0,0.0,0.0,32.325275,0.25631922,70.023735,0.04653535,0.0074883522,-0.020341221,549838.06,119984.9,0.007984895,0.0030054178,9382.729,9467.266,6118.0166,6194.457,0.2970686,0.0,0.0,0.0
206.38864,206.38864,2.933,0.0,0.0,278.2601,11226.0,100.0,0.0,0.042462807,0.0,7.0,0.0,0.0,4000000.0,110.0,1.0,0.0,0.0,10.0,0.0,0.0,-86.90468,3.3616807,89.09419,0.040856555,0.34632945,-0.43433902,284.03348,284.03604,278.12457,278.1386,439.0,437.0,495.0,486.0,89.0,89.0,89.0,89.0,0.0,0.0,0.0,0.0,0.04661291,0.046644412,0.051948026,0.052012086,0.0,0.0,0.0,0.0,2629.6643,2729.2544,-334.08255,-372.02234,0.0,0.0,0.0,2.0,1.0,0.43296826,-0.02503371,-7.581711E-4,89.0,89.0,89.0,89.0,21.842827,21.842827,24.816736,24.816736,0.020699559,0.020673323,-4.7477434E-4,-4.6209304E-4,1162.5999,0.0,0.0,0.0,0.0,0.0,0.0,0.0,0.0,0.0,0.0,0.0,0.0,0.0,32.415813,0.16406165,70.16854,0.032052975,9.276892E-4,-0.018354308,549898.1,119984.9,0.014053283,0.013541043,7131.5835,7152.1045,5388.5176,5407.8975,0.30556297,0.0,0.0,0.0
211.54622,211.54622,2.983,0.0,0.0,279.12506,11246.0,100.0,0.0,-0.11593602,0.0,7.0,0.0,0.0,4000000.0,110.0,1.0,0.0,0.0,10.0,0.0,0.0,-84.73924,3.364028,93.77921,0.051085204,0.3715063,-0.14049473,284.538,284.5542,278.96243,279.00476,436.0,434.0,493.0,483.0,89.0,89.0,89.0,89.0,0.0,0.0,0.0,0.0,0.04671163,0.046920203,0.052110393,0.052256726,67.8353,70.103775,12.01406,13.544484,3358.4067,3176.486,211.8006,126.90874,0.0,0.0,0.0,2.0,1.0,0.43328598,-0.024893144,-8.240938E-4,89.0,89.0,89.0,89.0,21.842827,21.842827,24.816736,24.816736,0.019638434,0.019550966,-4.8603906E-4,-4.8879365E-4,1164.7174,0.0,0.0,0.0,0.0,0.0,0.0,0.0,0.0,0.0,0.0,0.0,0.0,0.0,32.543716,-0.04013116,70.37429,-0.029784182,0.008140063,0.014241517,549920.0,119984.91,0.01249784,0.0125861345,7860.2866,7900.624,5925.698,5994.4077,0.30472565,0.0,0.0,0.0
214.13113,214.13113,3.033,0.0,0.0,279.5603,11254.0,100.0,0.0,-0.045126364,0.0,7.0,0.0,0.0,4000000.0,110.0,1.0,0.0,0.0,10.0,0.0,0.0,-83.653244,3.3627324,96.126884,0.044362396,0.37364215,0.117961384,284.74182,284.7507,279.39816,279.43622,435.0,433.0,492.0,482.0,89.0,89.0,89.0,89.0,0.0,0.0,0.0,0.0,0.05021186,0.050180543,0.052503943,0.05257744,0.0,0.0,0.0,0.0,-1229.3367,-1569.5347,-167.83922,-321.55658,0.0,0.0,0.0,2.0,1.0,0.433551,-0.025002059,-0.002023697,89.0,89.0,89.0,89.0,21.842827,21.842827,24.816736,24.816736,0.018746825,0.018652912,-4.971247E-4,-4.889406E-4,1165.5645,0.0,0.0,0.0,0.0,0.0,0.0,0.0,0.0,0.0,0.0,0.0,0.0,0.0,32.608803,-0.024838448,70.4774,-0.029853938,0.0068938737,0.008155614,549928.7,119984.91,0.010378061,0.007386379,8451.651,8515.155,6131.9717,6153.384,0.301239,0.0,0.0,0.0
219.31294,219.31294,3.083,0.0,0.0,280.39786,11289.0,100.0,0.0,-0.10984494,0.0,7.0,0.0,0.0,4000000.0,110.0,1.0,0.0,0.0,10.0,0.0,0.0,-81.47457,3.3670454,100.83227,0.055584088,0.34290498,0.09090412,285.63126,285.64737,280.24115,280.28967,433.0,431.0,490.0,480.0,89.0,89.0,89.0,89.0,0.0,0.0,0.0,0.0,0.049353343,0.049449783,0.05282666,0.052953117,-34.10406,-34.444702,-2.7329473,-2.2709367,-400.86945,-563.5589,-315.05222,-444.71017,0.0,0.0,0.0,2.0,1.0,0.43405133,-0.024913134,-0.001666069,89.0,89.0,89.0,89.0,21.842827,21.842827,24.816736,24.816736,0.01871292,0.01861099,-4.7562504E-4,-4.7492576E-4,1169.269,0.0,0.0,0.0,0.0,0.0,0.0,0.0,0.0,0.0,0.0,0.0,0.0,0.0,32.742973,0.119925216,70.67156,0.014532266,0.007818242,-0.0072820117,549966.2,119984.91,0.009972993,0.0078904675,8372.956,8438.408,6218.7246,6275.3555,0.3012066,0.0,0.0,0.0
223.20927,223.20927,3.133,0.0,0.0,281.0035,11319.0,100.0,0.0,-0.0842602,0.0,7.0,0.0,0.0,4000000.0,110.0,1.0,0.0,0.0,10.0,0.0,0.0,-79.83496,3.3720958,104.36958,0.054179415,0.3452136,-0.14075536,286.38544,286.39645,280.84888,280.88718,431.0,429.0,488.0,478.0,89.0,89.0,89.0,89.0,0.0,0.0,0.0,0.0,0.048506867,0.04856246,0.052424736,0.052512422,-4.24236,-4.234537,-7.757842,-8.096471,781.1396,851.41345,78.78988,129.09473,0.0,0.0,0.0,2.0,1.0,0.4343991,-0.024962224,-0.0014157295,89.0,89.0,89.0,89.0,21.842827,21.842827,24.816736,24.816736,0.01926359,0.019178841,-4.7628692E-4,-4.751741E-4,1172.4436,0.0,0.0,0.0,0.0,0.0,0.0,0.0,0.0,0.0,0.0,0.0,0.0,0.0,32.836506,0.0722625,70.813705,-0.0024766852,0.0065277405,0.0013509311,549997.75,119984.91,0.011527229,0.0100654615,7954.335,8003.402,5885.495,5924.79,0.30303097,0.0,0.0,0.0
225.81158,225.81158,3.183,0.0,0.0,281.41266,11333.0,100.0,0.0,-0.07651312,0.0,7.0,0.0,0.0,4000000.0,110.0,1.0,0.0,0.0,10.0,0.0,0.0,-78.73928,3.3738167,106.73177,0.052346677,0.34800625,-0.08056002,286.73083,286.74042,281.2581,281.29385,429.0,427.0,487.0,477.0,89.0,89.0,89.0,89.0,0.0,0.0,0.0,0.0,0.048897136,0.048969727,0.052365478,0.052463602,0.0,0.0,0.0,0.0,469.14514,444.58948,265.01562,266.51767,0.0,0.0,0.0,2.0,1.0,0.43461147,-0.024949467,-0.0015921593,89.0,89.0,89.0,89.0,21.842827,21.842827,24.816736,24.816736,0.019032001,0.018949667,-4.7905341E-4,-4.7776304E-4,1173.9248,0.0,0.0,0.0,0.0,0.0,0.0,0.0,0.0,0.0,0.0,0.0,0.0,0.0,32.89937,0.03837387,70.90985,-0.0058731013,0.0061787115,0.0027437846,550012.3,119984.9,0.0113121215,0.009383622,8117.9507,8169.7246,5948.1953,5993.451,0.3026142,0.0,0.0,0.0
229.72217,229.72217,3.233,0.0,0.0,282.02203,11353.0,100.0,0.0,-0.15669926,0.0,7.0,0.0,0.0,4000000.0,110.0,1.0,0.0,0.0,10.0,0.0,0.0,-77.091805,3.3757837,110.28104,0.059412293,0.3422126,0.064192735,287.22705,287.241,281.86502,281.90814,428.0,426.0,485.0,475.0,89.0,89.0,89.0,89.0,0.0,0.0,0.0,0.0,0.049495373,0.04956901,0.052619632,0.052719694,0.0,0.0,0.0,0.0,-441.25012,-396.56458,-17.434357,12.700252,0.0,0.0,0.0,2.0,1.0,0.43493512,-0.024940258,-0.0017646551,89.0,89.0,89.0,89.0,21.842827,21.842827,24.816736,24.816736,0.018576622,0.018481456,-4.7269373E-4,-4.8089307E-4,1176.0417,0.0,0.0,0.0,0.0,0.0,0.0,0.0,0.0,0.0,0.0,0.0,0.0,0.0,32.99549,0.049763422,71.05185,9.529651E-4,0.0076438505,0.0011545133,550033.44,119984.91,0.010294043,0.007902597,8444.137,8499.731,6171.415,6217.6265,0.30139637,0.0,0.0,0.0
233.6412,233.6412,3.283,0.0,0.0,282.61493,11377.0,100.0,0.0,-0.14682207,0.0,7.0,0.0,0.0,4000000.0,110.0,1.0,0.0,0.0,10.0,0.0,0.0,-75.43947,3.3790379,113.83724,0.061308213,0.3339256,0.029913493,287.81296,287.86987,282.45297,282.50726,426.0,424.0,483.0,473.0,89.0,89.0,89.0,89.0,0.0,0.0,0.0,0.0,0.049365453,0.04937852,0.052707743,0.05283347,0.0,0.0,0.0,0.0,164.87537,-121.85273,-120.35069,-139.63577,0.0,0.0,0.0,2.0,1.0,0.43536407,-0.024902966,-0.001625061,89.0,89.0,89.0,89.0,21.842827,21.842827,24.816736,24.816736,0.018571358,0.018528754,-4.7139367E-4,-4.7551305E-4,1178.5826,0.0,0.0,0.0,0.0,0.0,0.0,0.0,0.0,0.0,0.0,0.0,0.0,0.0,33.092163,0.0743492,71.188515,0.0040379507,0.009360703,3.176214E-4,550059.0,119984.914,0.010212505,0.007926959,8416.816,8423.455,6166.749,6223.7593,0.30149555,0.0,0.0,0.0
237.56847,237.56847,3.333,0.0,0.0,283.19714,11401.0,100.0,0.0,-0.18452819,0.0,7.0,0.0,0.0,4000000.0,110.0,1.0,0.0,0.0,10.0,0.0,0.0,-73.78225,3.3825486,117.400154,0.07471095,0.32916892,-0.035975136,288.45648,288.47708,283.02856,283.09625,424.0,422.0,481.0,472.0,89.0,89.0,89.0,89.0,0.0,0.0,0.0,0.0,0.049081985,0.04920736,0.052597206,0.052770026,0.0,0.0,0.0,0.0,356.11685,154.06606,53.241837,-11.03729,0.0,0.0,0.0,2.0,1.0,0.4358922,-0.024843099,-0.0015631914,89.0,89.0,89.0,89.0,21.842827,21.842827,24.816736,24.816736,0.018726302,0.01857805,-4.6895602E-4,-4.725631E-4,1180.0641,0.0,0.0,0.0,0.0,0.0,0.0,0.0,0.0,0.0,0.0,0.0,0.0,0.0,33.19197,0.0627757,71.320465,-8.292223E-4,0.011646153,4.3191045E-5,549591.06,119984.9,0.010584121,0.008649088,8251.844,8342.043,6080.9805,6157.5933,0.30188465,0.0,0.0,0.0
242.8175,242.8175,3.383,0.0,0.0,283.96524,11430.0,100.0,0.0,-0.33918667,0.0,7.0,0.0,0.0,4000000.0,110.0,1.0,0.0,0.0,10.0,0.0,0.0,-71.56445,3.3862276,122.16072,0.11188297,0.32380164,0.008509134,289.1732,289.20566,283.77557,283.88568,421.0,420.0,479.0,469.0,89.0,89.0,89.0,89.0,0.0,0.0,0.0,0.0,0.04927958,0.049510494,0.052595433,0.05288305,2.2832303,4.2233615,0.65177673,3.2993405,-57.063988,-85.77701,22.86583,31.274553,0.0,0.0,0.0,2.0,1.0,0.4369049,-0.024667865,-0.0016217232,89.0,89.0,89.0,89.0,21.842827,21.842827,24.816736,24.816736,0.01856789,0.018320566,-4.630484E-4,-4.7510688E-4,1181.8489,0.0,0.0,0.0,0.0,0.0,0.0,0.0,0.0,0.0,0.0,0.0,0.0,0.0,33.33961,0.053700037,71.48707,0.0015482354,0.019149797,0.0031457832,549025.75,119984.9,0.010263038,0.008111899,8341.593,8496.557,6129.801,6266.084,0.3014717,0.0,0.0,0.0
246.76367,246.76367,3.433,0.0,0.0,284.5292,11452.0,100.0,0.0,-0.39060354,0.0,7.0,0.0,0.0,4000000.0,110.0,1.0,0.0,0.0,10.0,0.0,0.0,-69.89422,3.3890774,125.73813,0.1424548,0.31737253,0.011707502,289.72482,289.76474,284.32407,284.46594,420.0,418.0,477.0,468.0,89.0,89.0,89.0,89.0,0.0,0.0,0.0,0.0,0.04926873,0.049554188,0.05261847,0.053005114,-1.1242925,-0.16719101,0.08158385,1.8440186,-38.24829,-40.420883,-24.30081,-34.265217,0.0,0.0,0.0,2.0,1.0,0.4380111,-0.024527946,-0.0015716553,89.0,89.0,89.0,89.0,21.842827,21.842827,24.816736,24.816736,0.018529171,0.018211318,-4.623828E-4,-4.7044246E-4,1183.1879,0.0,0.0,0.0,0.0,0.0,0.0,0.0,0.0,0.0,0.0,0.0,0.0,0.0,33.464973,0.059406493,71.601425,0.0023287106,0.024321975,0.0018029378,548591.9,119984.91,0.010094478,0.008000262,8334.24,8545.236,6144.3647,6323.2266,0.3013277,0.0,0.0,0.0
249.39888,249.39888,3.483,0.0,0.0,284.89905,11467.0,100.0,0.0,-0.34579906,0.0,7.0,0.0,0.0,4000000.0,110.0,1.0,0.0,0.0,10.0,0.0,0.0,-68.77712,3.3910623,128.12616,0.15426084,0.31319097,-0.0010850145,290.09827,290.14926,284.69223,284.83807,418.0,417.0,476.0,467.0,89.0,89.0,89.0,89.0,0.0,0.0,0.0,0.0,0.049225193,0.0495393,0.052602664,0.053038344,0.0,0.0,0.0,0.0,20.693241,-8.073447,-8.006392,-34.037228,0.0,0.0,0.0,2.0,1.0,0.43883538,-0.024462348,-0.0015338659,89.0,89.0,89.0,89.0,21.842827,21.842827,24.816736,24.816736,0.018519556,0.01822134,-4.6502906E-4,-4.6360638E-4,1184.0986,0.0,0.0,0.0,0.0,0.0,0.0,0.0,0.0,0.0,0.0,0.0,0.0,0.0,33.55354,0.05903686,71.673416,0.0014314334,0.024577856,8.469209E-4,548296.0,119984.9,0.010110421,0.008060192,8308.388,8543.869,6129.0586,6329.324,0.301363,0.0,0.0,0.0
253.35817,253.35817,3.533,0.0,0.0,285.4474,11488.0,100.0,0.0,-0.29632747,0.0,7.0,0.0,0.0,4000000.0,110.0,1.0,0.0,0.0,10.0,0.0,0.0,-67.09587,3.3938854,131.7126,0.16322356,0.30937487,-0.0071786856,290.6503,290.68735,285.24826,285.37854,417.0,415.0,474.0,465.0,89.0,89.0,89.0,89.0,0.0,0.0,0.0,0.0,0.049237072,0.04956482,0.052595295,0.053059634,0.0,0.0,0.0,0.0,31.247732,49.580624,12.150404,16.401705,0.0,0.0,0.0,2.0,1.0,0.43999204,-0.024425212,-0.0015090704,89.0,89.0,89.0,89.0,21.842827,21.842827,24.816736,24.816736,0.018473879,0.018198958,-4.654928E-4,-4.6123285E-4,1185.3458,0.0,0.0,0.0,0.0,0.0,0.0,0.0,0.0,0.0,0.0,0.0,0.0,0.0,33.689655,0.053959936,71.77783,4.1793156E-4,0.021792972,4.387466E-4,547870.2,119984.9,0.010088615,0.008028026,8311.325,8560.447,6130.6006,6342.1733,0.3013382,0.0,0.0,0.0
