LapDistance [m],TotalDistance [m],LapTime [s],Sector1Time [s],Sector2Time [s],Speed [km/h],EngineRevs [rpm],ThrottlePercentage [%],BrakePercentage [%],Steer [%],Clutch [%],Gear [int],DRS [0/1],CanUseDRS [0/1],KERSLevel [J],EngineTemperature [C],RacePosition [int],Sector [int],InPits [int],FuelRemaining [kg],CurrentFlag [int],CurrentLapInvalid [int],X [m],Y [m],Z [m],GForceLatitudinal [G],GForceLongitudinal [G],GForceVertical [G],WheelSpeedRearLeft [km/h],WheelSpeedRearRight [km/h],WheelSpeedFrontLeft [km/h],WheelSpeedFrontRight [km/h],BrakeTemperatureRearLeft [C],BrakeTemperatureRearRight [C],BrakeTemperatureFrontLeft [C],BrakeTemperatureFrontRight [C],TyreTemperatureRearLeft [C],TyreTemperatureRearRight [C],TyreTemperatureFrontLeft [C],TyreTemperatureFrontRight [C],TyreWearRearLeft [%],TyreWearRearRight [%],TyreWearFrontLeft [%],TyreWearFrontRight [%],SuspensionPositionRearLeft [m],SuspensionPositionRearRight [m],SuspensionPositionFrontLeft [m],SuspensionPositionFrontRight [m],SuspensionVelocityRearLeft [m/s],SuspensionVelocityRearRight [m/s],SuspensionVelocityFrontLeft [m/s],SuspensionVelocityFrontRight [m/s],SuspensionAccelerationRearLeft [m/s^2],SuspensionAccelerationRearRight [m/s^2],SuspensionAccelerationFrontLeft [m/s^2],SuspensionAccelerationFrontRight [m/s^2],MGUKHarvested [J],MGUHHarvested [J],ERSSpent [J],ERSMode [int],FuelMixMode [int],Yaw [rad],Roll [rad],Pitch [rad],TyreCarcassTemperatureRearLeft [C],TyreCarcassTemperatureRearRight [C],TyreCarcassTemperatureFrontLeft [C],TyreCarcassTemperatureFrontRight [C],TyrePressureRearLeft [PSI],TyrePressureRearRight [PSI],TyrePressureFrontLeft [PSI],TyrePressureFrontRight [PSI],WheelSlipRearLeft [%],WheelSlipRearRight [%],WheelSlipFrontLeft [%],WheelSlipFrontRight [%],Torque [Nm],Handbrake [%],RearLeftInside [C],RearLeftMiddle [C],RearLeftOutside [C],RearRightInside [C],RearRightMiddle [C],RearRightOutside [C],FrontLeftInside [C],FrontLeftMiddle [C],FrontLeftOutside [C],FrontRightInside [C],FrontRightMiddle [C],FrontRightOutside [C],WoldSpeedX [km/h],WoldSpeedY [km/h],WoldSpeedZ [km/h],LocalAngularVelocityX [rad/s],LocalAngularVelocityY [rad/s],LocalAngularVelocityZ [rad/s],IcePower [W],MgukPower [W],FrontRideHeight [m],RearRideHeight [m],LoadRearLeft [N],LoadRearRight [N],LoadFrontLeft [N],LoadFrontRight [N],Extra1 [m],Extra2 [],Extra3 [],Extra4 []
3.2651994,3.2651994,0.033,0.0,0.0,318.02856,11413.0,100.0,0.0,-0.92273223,0.0,8.0,1.0,0.0,2222700.8,109.0,2.0,0.0,0.0,4.7717557,0.0,0.0,-333.3592,4.979918,-98.07888,0.15019856,0.16496043,0.01414845,322.79224,322.84033,317.79794,317.9987,33.0,33.0,34.0,33.0,89.0,89.0,89.0,89.0,0.20577621,0.10715019,0.116146766,0.04474122,0.047302675,0.047842972,0.05561249,0.05598255,-36.442055,-17.380043,-108.36079,-88.928185,910.1003,1593.9026,3873.7402,4341.7183,0.0,1041.3223,3113.8682,2.0,1.0,2.7704635,0.004510859,0.002340436,90.0,90.0,90.0,90.0,20.9,20.9,24.2,24.2,0.015503457,0.015019158,-3.665794E-4,-4.4336438E-4,1180.8225,0.0,0.0,0.0,0.0,0.0,0.0,0.0,0.0,0.0,0.0,0.0,0.0,0.0,32.054245,0.00890081,-82.32075,0.021368336,0.037554376,-0.031004114,549366.06,119984.91,0.005561252,0.009189467,8077.037,8355.73,7096.517,7283.9336,0.30034637,0.0,0.0,0.0
7.6853895,7.6853895,0.083,0.0,0.0,318.22357,11424.0,100.0,0.0,-0.82914615,0.0,8.0,1.0,0.0,2219674.0,109.0,2.0,0.0,0.0,4.7703967,0.0,0.0,-331.75842,4.9787846,-102.197205,0.25447196,0.108835116,-0.18690442,323.07373,323.1986,317.93958,318.26523,33.0,33.0,34.0,33.0,89.0,89.0,88.0,88.0,0.2062178,0.107706115,0.116146766,0.04474122,0.044668008,0.046188958,0.05326764,0.054267917,-46.317276,-42.875557,-24.62156,-19.779278,519.9998,-551.35504,1102.3878,892.39764,0.0,4165.115,6140.66,2.0,1.0,2.7729812,0.0055316174,0.002593875,90.0,90.0,90.0,90.0,20.9,20.9,24.2,24.2,0.015722461,0.015178154,-3.6768103E-4,-3.8571088E-4,1181.4862,0.0,0.0,0.0,0.0,0.0,0.0,0.0,0.0,0.0,0.0,0.0,0.0,0.0,31.97462,-0.06235864,-82.40979,-0.011085241,0.056157086,-0.020257356,549145.56,119984.91,0.009891633,0.0131147085,7573.703,7926.3193,6408.4707,6874.493,0.30456161,0.0,0.0,0.0
10.633676,10.633676,0.133,0.0,0.0,318.3478,11429.0,100.0,0.0,-0.77856493,0.0,8.0,1.0,0.0,2217657.8,109.0,2.0,0.0,0.0,4.7694907,0.0,0.0,-330.69403,4.975705,-104.945435,0.32730436,0.105785236,-0.14262949,323.23987,323.31342,318.0614,318.38797,33.0,33.0,34.0,33.0,88.0,88.0,88.0,88.0,0.2062178,0.107706115,0.116146766,0.04474122,0.04335435,0.045217812,0.052999724,0.054293156,0.0,0.0,0.0,0.0,402.62646,803.1336,502.72632,750.01263,0.0,6249.2256,8156.857,2.0,1.0,2.7748623,0.0061263726,0.003190279,90.0,90.0,90.0,90.0,20.9,20.9,24.2,24.2,0.015883362,0.015182871,-3.75392E-4,-3.819795E-4,1181.7921,0.0,0.0,0.0,0.0,0.0,0.0,0.0,0.0,0.0,0.0,0.0,0.0,0.0,31.891706,-0.11425151,-82.47886,-0.0069850045,0.05566157,-0.020786162,549047.44,119984.91,0.010553174,0.014952138,7443.8975,7978.09,6534.949,7160.3955,0.3059826,0.0,0.0,0.0
16.533566,16.533566,0.183,0.0,0.0,318.59326,11433.0,100.0,0.0,-0.6975141,0.0,8.0,1.0,0.0,2213627.5,109.0,2.0,0.0,0.0,4.7676787,0.0,0.0,-328.57483,4.9655786,-110.449196,0.3881988,0.10635727,0.00299248,323.35632,323.4156,318.32593,318.60315,33.0,33.0,34.0,33.0,87.0,88.0,87.0,87.0,0.20677477,0.10854092,0.116146766,0.04474122,0.04318372,0.045426156,0.053017557,0.05490305,28.028189,35.229248,6.506368,16.599073,1527.9872,1459.9127,172.50626,360.623,0.0,10419.391,12187.204,2.0,1.0,2.7782857,0.0066824136,0.003280878,90.0,90.0,90.0,90.0,20.9,20.9,24.2,24.2,0.015413588,0.014815311,-3.8086215E-4,-3.891301E-4,1182.0358,0.0,0.0,0.0,0.0,0.0,0.0,0.0,0.0,0.0,0.0,0.0,0.0,0.0,31.688377,-0.17040782,-82.63012,0.006326827,0.047073055,0.0077062086,548968.5,119984.914,0.008811813,0.013578886,7791.2803,8346.341,6722.0684,7613.8374,0.30422306,0.0,0.0,0.0
20.961462,20.961462,0.233,0.0,0.0,318.77316,11436.0,100.0,0.0,-0.6180271,0.0,8.0,1.0,0.0,2210605.2,109.0,2.0,0.0,0.0,4.7663198,0.0,0.0,-326.99454,4.958291,-114.583725,0.3825474,0.100489385,0.119659625,323.43387,323.49332,318.5233,318.76392,33.0,33.0,34.0,33.0,87.0,87.0,86.0,86.0,0.20677477,0.10854092,0.116146766,0.04474122,0.04579562,0.04745912,0.053334255,0.055276066,39.873493,35.697964,-0.20854174,1.6287713,-1915.1505,-824.53784,-828.86957,-252.19467,0.0,13547.439,15209.516,2.0,1.0,2.7804685,0.0059193093,0.0025390387,90.0,90.0,90.0,90.0,20.9,20.9,24.2,24.2,0.015000227,0.0145213725,-3.813452E-4,-3.8849053E-4,1182.2251,0.0,0.0,0.0,0.0,0.0,0.0,0.0,0.0,0.0,0.0,0.0,0.0,0.0,31.529911,-0.117128395,-82.744286,0.0065144133,0.040735923,0.022045316,548912.4,119984.914,0.008272633,0.01146772,8122.691,8604.785,6820.564,7717.7163,0.30330944,0.0,0.0,0.0
25.391768,25.391768,0.283,0.0,0.0,318.94925,11442.0,100.0,0.0,3.3300463E-4,0.0,8.0,1.0,0.0,2207584.8,109.0,2.0,0.0,0.0,4.764961,0.0,0.0,-325.42163,4.9536533,-118.72369,0.2713264,0.10119496,0.08472099,323.64822,323.662,318.7697,318.8741,33.0,33.0,34.0,33.0,86.0,87.0,85.0,85.0,0.20717035,0.109110974,0.116146766,0.04474122,0.04649957,0.047533963,0.053567637,0.0550704,12.026354,-6.65456,13.47564,-9.908079,37.711826,-113.20261,689.4349,-357.10925,0.0,16677.062,18230.172,2.0,1.0,2.781935,0.00412956,0.0019215345,90.0,90.0,90.0,90.0,20.9,20.9,24.2,24.2,0.014890203,0.014719985,-4.1089542E-4,-3.6241798E-4,1182.5579,0.0,0.0,0.0,0.0,0.0,0.0,0.0,0.0,0.0,0.0,0.0,0.0,0.0,31.402967,-0.07293243,-82.84491,-0.0011691432,0.015042305,0.042407714,548779.0,119984.914,0.0076684323,0.011027905,8168.125,8444.711,6983.84,7585.861,0.3028717,0.0,0.0,0.0
28.34666,28.34666,0.333,0.0,0.0,319.06906,11446.0,100.0,0.0,0.52524096,0.0,8.0,1.0,0.0,2205572.0,109.0,2.0,0.0,0.0,4.764055,0.0,0.0,-324.3757,4.9517803,-121.48614,0.13148153,0.10277561,0.08991055,323.7809,323.71112,318.9828,318.90256,33.0,33.0,34.0,33.0,86.0,86.0,85.0,85.0,0.20717035,0.109110974,0.116146766,0.04474122,0.046888232,0.047573198,0.054022983,0.054642,0.0,0.0,0.0,0.0,490.18704,4.5329328,-299.05286,-104.0697,0.0,18764.36,20243.016,2.0,1.0,2.781847,0.0029051728,0.0013977289,90.0,90.0,90.0,90.0,20.9,20.9,24.2,24.2,0.014660547,0.014764259,-4.226856E-4,-3.514664E-4,1182.8333,0.0,0.0,0.0,0.0,0.0,0.0,0.0,0.0,0.0,0.0,0.0,0.0,0.0,31.363937,-0.042566624,-82.8953,0.002701682,-0.017425677,0.035590537,548714.94,119984.91,0.0072298925,0.010214607,8309.049,8453.758,7152.765,7367.9805,0.3020363,0.0,0.0,0.0
34.25727,34.25727,0.383,0.0,0.0,319.31006,11455.0,100.0,0.0,0.92692834,0.0,8.0,1.0,0.0,2201548.5,109.0,2.0,0.0,0.0,4.762243,0.0,0.0,-322.28363,4.9508758,-127.01459,-0.1726435,0.10027146,0.06438093,324.11096,323.90332,319.36313,319.00778,33.0,33.0,33.0,33.0,85.0,86.0,84.0,84.0,0.20785648,0.10972967,0.116146766,0.04474122,0.04763529,0.047167197,0.054704197,0.053791985,-4.9504633,-6.437301,11.119767,-15.073791,-918.8308,305.289,-322.34784,-27.519491,0.0,22941.0,24266.545,2.0,1.0,2.7788622,9.7030954E-4,9.676218E-4,90.0,90.0,90.0,90.0,20.9,20.9,24.2,24.2,0.014521064,0.014933892,-4.0332638E-4,-3.6222467E-4,1183.3712,0.0,0.0,0.0,0.0,0.0,0.0,0.0,0.0,0.0,0.0,0.0,0.0,0.0,31.424622,0.010315664,-82.94392,-0.0038869819,-0.062531464,0.0127088,548533.2,119984.92,0.00718125,0.00973506,8381.737,8253.208,7443.3804,6953.8135,0.3016739,0.0,0.0,0.0
38.692413,38.692413,0.433,0.0,0.0,319.47443,11462.0,100.0,0.0,0.7024674,0.0,8.0,1.0,0.0,2198533.0,109.0,2.0,0.0,0.0,4.760884,0.0,0.0,-320.7088,4.9531937,-131.16174,-0.3165585,0.090103105,0.04054812,324.2967,324.14047,319.53006,319.17053,33.0,33.0,33.0,33.0,85.0,85.0,83.0,83.0,0.20785648,0.10972967,0.116146766,0.04474122,0.047880407,0.046835244,0.05496607,0.053443417,-21.26321,-22.226793,-4.5043225,-11.623129,-1759.1667,-834.67645,-350.77924,58.338028,0.0,26075.525,27282.04,2.0,1.0,2.7756593,9.899088E-4,8.120537E-4,90.0,90.0,90.0,90.0,20.9,20.9,24.2,24.2,0.014597651,0.015123364,-3.727061E-4,-3.8185416E-4,1183.7771,0.0,0.0,0.0,0.0,0.0,0.0,0.0,0.0,0.0,0.0,0.0,0.0,0.0,31.568615,0.06325939,-82.93805,0.003299865,-0.06056427,-0.013533322,548386.25,119984.914,0.009718137,0.011910327,8416.868,8013.6836,7451.6597,6744.169,0.30441284,0.0,0.0,0.0
41.6504,41.6504,0.483,0.0,0.0,319.5769,11468.0,100.0,0.0,0.5271106,0.0,8.0,1.0,0.0,2196524.2,109.0,2.0,0.0,0.0,4.759978,0.0,0.0,-319.65445,4.9552298,-133.9261,-0.35161707,0.08870481,-0.01793953,324.42673,324.32907,319.59424,319.31052,33.0,33.0,33.0,33.0,85.0,85.0,83.0,83.0,0.20842685,0.110114224,0.116146766,0.04474122,0.04706145,0.045823544,0.054874465,0.053223368,0.0,0.0,0.0,0.0,354.30643,82.39745,168.22813,198.926,0.0,28166.72,29290.78,2.0,1.0,2.77388,0.0014518095,8.392334E-4,90.0,90.0,90.0,90.0,20.9,20.9,24.2,24.2,0.014830557,0.015305137,-3.6794945E-4,-3.8436157E-4,1184.1584,0.0,0.0,0.0,0.0,0.0,0.0,0.0,0.0,0.0,0.0,0.0,0.0,0.0,31.684248,0.05841406,-82.92442,0.006369503,-0.047134735,-0.01391514,548275.9,119984.92,0.010805295,0.013809264,8259.67,7832.0176,7436.1006,6672.1025,0.3058796,0.0,0.0,0.0
46.089195,46.089195,0.533,0.0,0.0,319.7347,11473.0,100.0,0.0,0.3239568,0.0,8.0,1.0,0.0,2193513.0,109.0,2.0,0.0,0.0,4.758619,0.0,0.0,-318.0656,4.9573836,-138.07176,-0.32931304,0.098022655,-0.030074341,324.53195,324.51837,319.69226,319.5234,33.0,33.0,33.0,33.0,84.0,84.0,82.0,82.0,0.20842685,0.110114224,0.116146766,0.04474122,0.045994572,0.044570997,0.054710172,0.05326097,0.0,0.0,0.0,0.0,2654.6892,1919.7238,1713.1804,1185.7777,0.0,31305.283,32302.023,2.0,1.0,2.7720602,0.0019707258,6.0868263E-4,90.0,90.0,90.0,90.0,20.9,20.9,24.2,24.2,0.014880147,0.015280876,-3.7538275E-4,-3.9152673E-4,1184.4515,0.0,0.0,0.0,0.0,0.0,0.0,0.0,0.0,0.0,0.0,0.0,0.0,0.0,31.856407,0.027345289,-82.90541,0.012147441,-0.027524445,-2.3712916E-4,548172.56,119984.914,0.009345933,0.01351961,8280.891,7828.34,7482.46,6822.586,0.30516052,0.0,0.0,0.0
50.53025,50.53025,0.583,0.0,0.0,319.9009,11475.0,100.0,0.0,0.14615923,0.0,8.0,1.0,0.0,2190502.0,109.0,2.0,0.0,0.0,4.75726,0.0,0.0,-316.46887,4.960269,-142.21677,-0.24695505,0.09662739,0.030831845,324.56863,324.5681,319.8123,319.73376,33.0,33.0,33.0,33.0,84.0,84.0,82.0,82.0,0.20914704,0.110665105,0.116146766,0.04474122,0.047743414,0.046511814,0.054869033,0.053661916,0.0,0.0,0.0,0.0,-2015.6798,-1366.6522,-2500.7976,-1641.6726,0.0,34444.04,35313.066,2.0,1.0,2.771091,0.0026949244,-5.7578087E-4,90.0,90.0,90.0,90.0,20.9,20.9,24.2,24.2,0.014555135,0.0147280395,-3.77705E-4,-3.9397637E-4,1184.5881,0.0,0.0,0.0,0.0,0.0,0.0,0.0,0.0,0.0,0.0,0.0,0.0,0.0,32.000427,0.079455964,-82.89938,0.021916427,-0.012186554,-0.010963413,548140.25,119984.93,0.005689368,0.00927383,8506.428,8226.112,7240.05,6761.9385,0.30135822,0.0,0.0,0.0
56.455017,56.455017,0.633,0.0,0.0,319.99478,11478.0,100.0,0.0,-0.018036122,0.0,8.0,1.0,0.0,2186488.8,109.0,2.0,0.0,0.0,4.755448,0.0,0.0,-314.33112,4.9699316,-147.74367,-0.0410886,-0.075621784,0.40815938,324.65582,324.68073,319.9038,319.91367,33.0,33.0,33.0,33.0,83.0,83.0,81.0,81.0,0.20914704,0.110665105,0.116146766,0.04474122,0.048256263,0.048482448,0.054457076,0.053867888,-11.676549,28.983725,-35.54508,-21.431295,-894.00696,-245.0467,-2355.69,-1750.101,0.0,38630.668,39326.082,2.0,1.0,2.7708538,0.004210468,-0.0018587112,90.0,90.0,90.0,90.0,20.9,20.9,24.2,24.2,0.014514642,0.014515395,-4.1031383E-4,-4.1228387E-4,1184.7458,0.0,0.0,0.0,0.0,0.0,0.0,0.0,0.0,0.0,0.0,0.0,0.0,0.0,32.095066,0.25282723,-82.8904,0.037767466,0.001067532,-0.024743393,548069.94,119984.91,0.001026362,0.00343736,8647.311,8539.837,6934.488,6729.4814,0.295372,0.0,0.0,0.0
59.4178,59.4178,0.683,0.0,0.0,320.01355,11487.0,100.0,0.0,-0.017493125,0.0,8.0,1.0,0.0,2184483.2,109.0,2.0,0.0,0.0,4.754542,0.0,0.0,-313.26062,4.9782176,-150.50691,-0.052967004,0.019782817,-0.07895835,324.92783,324.9379,319.95462,319.96194,33.0,33.0,33.0,33.0,83.0,83.0,80.0,80.0,0.20961535,0.11108542,0.116146766,0.04474122,0.046750084,0.047029022,0.053493097,0.05305533,0.0,0.0,0.0,0.0,-1560.1604,-1308.8239,389.05435,210.7545,0.0,40724.887,41331.637,2.0,1.0,2.7709212,0.004966182,-0.0012463331,90.0,90.0,90.0,90.0,20.9,20.9,24.2,24.2,0.015145418,0.015116509,-3.8173833E-4,-3.8848174E-4,1185.2863,0.0,0.0,0.0,0.0,0.0,0.0,0.0,0.0,0.0,0.0,0.0,0.0,0.0,32.11481,0.25884163,-82.88833,-0.012156431,2.6018455E-4,-0.040777516,547890.3,119984.91,0.001897062,0.0046066516,7851.0664,7883.054,6396.7573,6210.206,0.29545307,0.0,0.0,0.0
63.863842,63.863842,0.733,0.0,0.0,320.19238,11498.0,100.0,0.0,0.095392376,0.0,8.0,1.0,0.0,2181476.0,109.0,2.0,0.0,0.0,4.753183,0.0,0.0,-311.65326,4.991717,-154.65225,-0.072762005,0.08989678,-0.4066569,325.23703,325.22195,320.08124,320.08005,32.0,33.0,33.0,33.0,83.0,83.0,80.0,80.0,0.20961535,0.11108542,0.116146766,0.04474122,0.04529056,0.045619357,0.05338464,0.05314117,0.0,0.0,0.0,0.0,-3230.251,-2747.6008,-907.4449,-898.64716,0.0,43867.355,44338.77,2.0,1.0,2.7709622,0.007389724,5.233288E-4,90.0,90.0,90.0,90.0,20.9,20.9,24.2,24.2,0.015715199,0.01563328,-3.657743E-4,-3.5842668E-4,1185.979,0.0,0.0,0.0,0.0,0.0,0.0,0.0,0.0,0.0,0.0,0.0,0.0,0.0,32.17047,0.21012582,-82.920166,-0.04229485,7.44938E-5,-0.04985513,547686.06,119984.91,0.007991266,0.011881542,7346.458,7432.8413,6236.011,6203.9053,0.30156517,0.0,0.0,0.0
68.31252,68.31252,0.783,0.0,0.0,320.3555,11508.0,100.0,0.0,0.17975967,0.0,8.0,1.0,0.0,2178474.5,109.0,2.0,0.0,0.0,4.751824,0.0,0.0,-310.0435,4.99556,-158.79904,-0.071557805,0.09573815,-0.4508594,325.51376,325.5464,320.26392,320.21973,32.0,33.0,33.0,33.0,82.0,82.0,79.0,79.0,0.21025509,0.11169039,0.116146766,0.04474122,0.04106135,0.040948294,0.052925844,0.05286546,0.0,0.0,0.0,0.0,3098.675,2763.0906,-1142.2855,-387.79373,0.0,47015.113,47340.34,2.0,1.0,2.7707617,0.007532987,0.0035370588,90.0,90.0,90.0,90.0,20.9,20.9,24.2,24.2,0.016115326,0.0163316,-3.6851713E-4,-3.612332E-4,1186.5582,0.0,0.0,0.0,0.0,0.0,0.0,0.0,0.0,0.0,0.0,0.0,0.0,0.0,32.218864,-0.03171929,-82.95025,-0.048032813,-0.0073659527,-0.009370086,547477.44,119984.92,0.012983022,0.01832962,7171.4854,7023.707,6309.8027,6320.0776,0.30807877,0.0,0.0,0.0
74.247505,74.247505,0.833,0.0,0.0,320.5506,11509.0,100.0,0.0,0.15919599,0.0,8.0,1.0,0.0,2174474.2,109.0,2.0,0.0,0.0,4.750012,0.0,0.0,-307.89328,4.985376,-164.33025,-0.07949697,0.07996734,-0.16604488,325.52518,325.5559,320.45755,320.39746,32.0,32.0,33.0,33.0,82.0,82.0,79.0,79.0,0.21025509,0.11169039,0.116146766,0.04474122,0.04080671,0.039878435,0.053673003,0.053648494,30.132605,20.438208,19.41964,16.034245,1983.3591,1948.6245,7.4834056,-40.756184,0.0,51213.938,51340.523,2.0,1.0,2.770132,0.0060942057,0.0052093267,90.0,90.0,90.0,90.0,20.9,20.9,24.2,24.2,0.0155585455,0.015818382,-3.7145888E-4,-3.7141307E-4,1186.6388,0.0,0.0,0.0,0.0,0.0,0.0,0.0,0.0,0.0,0.0,0.0,0.0,0.0,32.283733,-0.22905827,-82.982864,0.002828299,-0.010068219,0.03306168,547467.0,119984.91,0.014542286,0.022056298,7582.8965,7380.2593,7052.623,7034.665,0.31366158,0.0,0.0,0.0
78.70109,78.70109,0.883,0.0,0.0,320.7049,11506.0,100.0,0.0,0.08410571,0.0,8.0,1.0,0.0,2171474.2,109.0,2.0,0.0,0.0,4.748653,0.0,0.0,-306.2778,4.9702024,-168.48006,-0.07172864,0.08882963,0.051545426,325.43723,325.45822,320.59726,320.55414,32.0,32.0,33.0,33.0,81.0,81.0,78.0,78.0,0.21078083,0.112182006,0.116146766,0.04474122,0.04345446,0.04191047,0.05420523,0.05399872,118.635216,92.20115,40.417534,26.299728,3691.1216,3080.5166,933.3818,782.2662,0.0,54363.137,54340.574,2.0,1.0,2.7696977,0.0037803226,0.0044908524,90.0,90.0,90.0,90.0,20.9,20.9,24.2,24.2,0.014794463,0.015009945,-3.8358092E-4,-3.8762894E-4,1186.4607,0.0,0.0,0.0,0.0,0.0,0.0,0.0,0.0,0.0,0.0,0.0,0.0,0.0,32.33287,-0.31733733,-83.009445,0.01947035,-0.0071890103,0.050324902,547527.56,119984.92,0.00958586,0.015900485,8232.861,7999.3047,7567.724,7435.708,0.30845737,0.0,0.0,0.0
83.15686,83.15686,0.933,0.0,0.0,320.86496,11502.0,100.0,0.0,-4.9511116E-4,0.0,8.0,1.0,0.0,2168472.2,109.0,2.0,0.0,0.0,4.747294,0.0,0.0,-304.66003,4.9576135,-172.63135,-0.04428636,0.09498878,0.39209738,325.29578,325.35248,320.73083,320.72537,32.0,32.0,33.0,33.0,81.0,81.0,77.0,77.0,0.21078083,0.112182006,0.116146766,0.04474122,0.04981182,0.04924309,0.055102218,0.05500058,87.63469,133.77673,10.235309,15.072226,-3761.9988,-1702.5988,16.173704,-110.31921,0.0,57510.254,57342.816,2.0,1.0,2.7695074,0.0030766714,0.0015467405,90.0,90.0,90.0,90.0,20.9,20.9,24.2,24.2,0.013915209,0.014078039,-3.9434925E-4,-4.0058623E-4,1186.222,0.0,0.0,0.0,0.0,0.0,0.0,0.0,0.0,0.0,0.0,0.0,0.0,0.0,32.373363,-0.17156619,-83.04181,0.059607483,-6.21209E-4,0.017369814,547607.8,119984.914,0.00444028,0.00677675,9083.155,8875.085,7902.146,7866.086,0.29996777,0.0,0.0,0.0
87.61503,87.61503,0.983,0.0,0.0,321.0299,11507.0,100.0,0.0,-0.16935445,0.0,8.0,1.0,0.0,2165469.5,109.0,2.0,0.0,0.0,4.745935,0.0,0.0,-303.04068,4.9553905,-176.78456,0.007850684,0.08371279,0.36519068,325.47293,325.49716,320.88522,320.9291,32.0,32.0,33.0,33.0,80.0,80.0,77.0,77.0,0.21128061,0.11268364,0.116146766,0.04474122,0.049189284,0.04916986,0.054891873,0.05495353,-28.92114,-38.73959,-8.832514,-10.01805,-1161.973,-1544.9924,-277.20627,-501.7742,0.0,60656.992,60345.453,2.0,1.0,2.7697268,0.0031123415,5.964041E-4,90.0,90.0,90.0,90.0,20.9,20.9,24.2,24.2,0.013851243,0.013789853,-3.8099595E-4,-3.933931E-4,1186.4958,0.0,0.0,0.0,0.0,0.0,0.0,0.0,0.0,0.0,0.0,0.0,0.0,0.0,32.39475,0.05166211,-83.08281,-0.019719083,0.008137041,-0.0028911442,547496.2,119984.92,0.0046932134,0.005472111,9096.723,9113.816,7535.6553,7561.211,0.2984438,0.0,0.0,0.0
92.075195,92.075195,1.033,0.0,0.0,321.1661,11528.0,100.0,0.0,-0.31211278,0.0,8.0,1.0,0.0,2162471.5,109.0,2.0,0.0,0.0,4.744576,0.0,0.0,-301.42096,4.9585648,-180.9398,0.06708191,0.079238445,-0.21677127,326.05853,326.08435,321.00046,321.09595,32.0,32.0,33.0,33.0,80.0,80.0,76.0,76.0,0.21128061,0.11268364,0.116146766,0.04474122,0.046033364,0.04618404,0.05388036,0.054152265,-73.10763,-64.04399,-24.94879,-18.477737,-853.4923,-385.36603,-320.47037,-82.65231,0.0,63808.133,63343.457,2.0,1.0,2.7703707,0.0031494764,0.001902461,90.0,90.0,90.0,90.0,20.9,20.9,24.2,24.2,0.015376517,0.015173356,-3.5906208E-4,-3.779936E-4,1187.791,0.0,0.0,0.0,0.0,0.0,0.0,0.0,0.0,0.0,0.0,0.0,0.0,0.0,32.387516,0.032313135,-83.12624,-0.02027294,0.017157387,-0.010999968,547095.44,119984.92,0.008815409,0.012284632,7624.535,7735.383,6735.411,6884.841,0.30357742,0.0,0.0,0.0
95.049736,95.049736,1.083,0.0,0.0,321.2651,11531.0,100.0,0.0,-0.36239022,0.0,8.0,1.0,0.0,2160475.2,109.0,2.0,0.0,0.0,4.74367,0.0,0.0,-300.3417,4.9582887,-183.71133,0.10635157,0.08492746,-0.20521712,326.156,326.1928,321.07993,321.2091,32.0,32.0,33.0,33.0,80.0,80.0,76.0,76.0,0.21175407,0.113222,0.116146766,0.04474122,0.044270262,0.04464446,0.05357679,0.054004725,0.0,0.0,0.0,0.0,1191.3431,1006.9816,632.42456,444.48224,0.0,65911.09,65339.81,2.0,1.0,2.7710512,0.0032312365,0.0024329424,90.0,90.0,90.0,90.0,20.9,20.9,24.2,24.2,0.01546967,0.015215602,-3.659669E-4,-3.7925947E-4,1187.9434,0.0,0.0,0.0,0.0,0.0,0.0,0.0,0.0,0.0,0.0,0.0,0.0,0.0,32.367554,-0.0396765,-83.16353,-0.0065227672,0.022528404,-0.0068209674,547023.25,119984.914,0.009504482,0.014457174,7606.0215,7742.26,6798.502,6998.0386,0.30516243,0.0,0.0,0.0
101.00155,101.00155,1.133,0.0,0.0,321.45737,11531.0,100.0,0.0,-0.32047784,0.0,8.0,1.0,0.0,2156482.8,109.0,2.0,0.0,0.0,4.741858,0.0,0.0,-298.1861,4.954097,-189.2585,0.16186975,0.078073174,0.043588225,326.14844,326.19937,321.2598,321.4018,32.0,32.0,33.0,33.0,79.0,79.0,75.0,75.0,0.21175407,0.113222,0.116146766,0.04474122,0.045168698,0.0460023,0.053903166,0.05472119,28.333067,32.762287,2.968758,10.769516,-48.547894,-14.215621,-247.01802,-57.345596,0.0,70117.234,69332.28,2.0,1.0,2.77269,0.0034711955,0.0019836426,90.0,90.0,90.0,90.0,20.9,20.9,24.2,24.2,0.0148523245,0.014610429,-3.778504E-4,-3.8006023E-4,1187.9358,0.0,0.0,0.0,0.0,0.0,0.0,0.0,0.0,0.0,0.0,0.0,0.0,0.0,32.297775,-0.058193494,-83.247925,0.017396439,0.024025844,0.009335214,547019.75,119984.91,0.0082729375,0.012759621,8111.92,8343.391,7144.6484,7543.1265,0.30404663,0.0,0.0,0.0
105.467735,105.467735,1.183,0.0,0.0,321.59995,11534.0,100.0,0.0,-0.22987737,0.0,8.0,1.0,0.0,2153489.0,109.0,2.0,0.0,0.0,4.740499,0.0,0.0,-296.57278,4.952195,-193.42259,0.1631206,0.08114012,0.103405274,326.2211,326.25482,321.422,321.52457,32.0,32.0,33.0,33.0,79.0,79.0,75.0,75.0,0.21220213,0.11376596,0.116146766,0.04474122,0.04681051,0.047908273,0.054068606,0.054769017,29.7828,35.61951,-1.6517936,2.9857454,-315.26675,-419.52414,-397.31555,188.30444,0.0,73272.33,72326.125,2.0,1.0,2.7737021,0.0034526133,9.750128E-4,90.0,90.0,90.0,90.0,20.9,20.9,24.2,24.2,0.0145591935,0.014381655,-3.820792E-4,-3.8103337E-4,1188.1443,0.0,0.0,0.0,0.0,0.0,0.0,0.0,0.0,0.0,0.0,0.0,0.0,0.0,32.237537,-0.01547795,-83.31376,0.014692023,0.01710125,0.0073624123,546973.44,119984.914,0.007402615,0.010144927,8362.336,8597.873,7170.742,7510.705,0.30237103,0.0,0.0,0.0
109.93596,109.93596,1.233,0.0,0.0,321.74496,11539.0,100.0,0.0,-0.21139127,0.0,8.0,1.0,0.0,2150496.5,109.0,2.0,0.0,0.0,4.73914,0.0,0.0,-294.9624,4.952389,-197.58998,0.14895552,0.081875995,0.10886704,326.40076,326.38712,321.5828,321.65628,32.0,32.0,33.0,33.0,78.0,78.0,74.0,74.0,0.21220213,0.11376596,0.116146766,0.04474122,0.04731509,0.04825908,0.054168597,0.054720335,-0.4814565,8.471533,7.5774636,2.144873,-766.8703,-2.1994398,191.12079,259.5305,0.0,76428.64,75318.69,2.0,1.0,2.774407,0.0034335086,5.784035E-4,90.0,90.0,90.0,90.0,20.9,20.9,24.2,24.2,0.01460152,0.014373124,-3.8300877E-4,-3.8349727E-4,1188.423,0.0,0.0,0.0,0.0,0.0,0.0,0.0,0.0,0.0,0.0,0.0,0.0,0.0,32.182068,0.026372751,-83.37838,0.005483885,0.012230102,0.0010551098,546864.7,119984.914,0.006555671,0.009119374,8297.369,8605.326,7286.4395,7521.947,0.30164528,0.0,0.0,0.0
114.40619,114.40619,1.283,0.0,0.0,321.8892,11545.0,100.0,0.0,-0.13861755,0.0,8.0,1.0,0.0,2147505.5,109.0,2.0,0.0,0.0,4.737781,0.0,0.0,-293.35455,4.9546204,-201.76051,0.12209192,0.08343483,0.00835769,326.57507,326.56754,321.7373,321.79572,32.0,32.0,33.0,33.0,78.0,78.0,74.0,74.0,0.21265748,0.11429165,0.116146766,0.04474122,0.047131177,0.047803182,0.053964112,0.054528575,-7.531419,-9.68121,-4.884526,-3.6292522,-247.43372,151.11562,425.81406,413.58316,0.0,79586.46,78309.664,2.0,1.0,2.7749605,0.0033699463,5.156994E-4,90.0,90.0,90.0,90.0,20.9,20.9,24.2,24.2,0.014661467,0.014492075,-3.8091885E-4,-3.7948738E-4,1188.7739,0.0,0.0,0.0,0.0,0.0,0.0,0.0,0.0,0.0,0.0,0.0,0.0,0.0,32.136024,0.049875695,-83.439064,-0.008153622,0.009692044,-0.0016184734,546741.9,119984.92,0.0063612,0.009146243,8228.623,8404.832,7037.374,7296.8223,0.30142403,0.0,0.0,0.0
118.87843,118.87843,1.333,0.0,0.0,322.0359,11551.0,100.0,0.0,-0.024092797,0.0,8.0,1.0,0.0,2144516.5,109.0,2.0,0.0,0.0,4.736422,0.0,0.0,-291.74857,4.9572706,-205.93391,0.08138645,0.08592055,-0.009925704,326.72205,326.7192,321.9025,321.92035,32.0,32.0,33.0,33.0,78.0,78.0,73.0,73.0,0.21265748,0.11429165,0.116146766,0.04474122,0.04661676,0.04717178,0.054046746,0.05451902,-0.8232146,-8.758082,-3.403723,-4.057735,926.8641,413.8648,-276.83075,-335.31635,0.0,82746.05,81298.77,2.0,1.0,2.7752519,0.0031358167,5.5348873E-4,90.0,90.0,90.0,90.0,20.9,20.9,24.2,24.2,0.014630222,0.014578518,-3.8392973E-4,-3.7880838E-4,1189.1647,0.0,0.0,0.0,0.0,0.0,0.0,0.0,0.0,0.0,0.0,0.0,0.0,0.0,32.107533,0.052250657,-83.49369,-0.0014633383,0.0026332415,0.0094331885,546637.5,119984.91,0.005225895,0.008800815,8242.761,8316.34,7098.9785,7308.4624,0.30037212,0.0,0.0,0.0
121.8611,121.8611,1.383,0.0,0.0,322.13663,11555.0,100.0,0.0,0.008073228,0.0,8.0,1.0,0.0,2142524.5,109.0,2.0,0.0,0.0,4.735516,0.0,0.0,-290.6785,4.9590597,-208.71767,0.057784542,0.08498947,0.0048994254,326.8541,326.8227,322.01328,322.01175,32.0,32.0,33.0,33.0,77.0,77.0,73.0,73.0,0.21312244,0.11478745,0.116146766,0.04474122,0.046656728,0.04702628,0.054162584,0.054418843,0.0,0.0,0.0,0.0,-900.91364,-87.5607,94.53443,182.43042,0.0,84853.13,83290.78,2.0,1.0,2.775279,0.002945697,6.002188E-4,90.0,90.0,90.0,90.0,20.9,20.9,24.2,24.2,0.0146673955,0.014585751,-3.8422996E-4,-3.7936805E-4,1189.3986,0.0,0.0,0.0,0.0,0.0,0.0,0.0,0.0,0.0,0.0,0.0,0.0,0.0,32.09793,0.05455646,-83.52736,-0.0028600153,-6.342981E-4,0.0033054664,546555.75,119984.91,0.0041347127,0.008137834,8175.7637,8292.614,7216.207,7323.9287,0.2995243,0.0,0.0,0.0
127.82904,127.82904,1.433,0.0,0.0,322.32352,11565.0,100.0,0.0,-0.15210792,0.0,8.0,1.0,0.0,2138542.2,109.0,2.0,0.0,0.0,4.733704,0.0,0.0,-288.539,4.96492,-214.28822,0.045972575,0.07556816,-0.1468525,327.13995,327.1232,322.19745,322.213,32.0,32.0,33.0,33.0,77.0,77.0,72.0,72.0,0.21312244,0.11478745,0.116146766,0.04474122,0.046752088,0.046911582,0.053905524,0.05407931,-47.53321,-39.103027,-13.335049,-12.590065,-2028.4071,-1193.3816,-249.94164,320.81897,0.0,89068.94,87273.08,2.0,1.0,2.7752805,0.0024485404,8.985996E-4,90.0,90.0,90.0,90.0,20.9,20.9,24.2,24.2,0.014969101,0.014857439,-3.608118E-4,-3.7904346E-4,1189.9867,0.0,0.0,0.0,0.0,0.0,0.0,0.0,0.0,0.0,0.0,0.0,0.0,0.0,32.08986,0.07082605,-83.58605,-0.020113377,0.0034603155,-0.00551716,546353.2,119984.91,0.0069837347,0.010352355,7888.8145,7989.2944,6860.6675,6955.197,0.3017025,0.0,0.0,0.0
132.30736,132.30736,1.483,0.0,0.0,322.46878,11571.0,100.0,0.0,-0.25077674,0.0,8.0,1.0,0.0,2135559.2,109.0,2.0,0.0,0.0,4.732345,0.0,0.0,-286.93475,4.9650726,-218.4688,0.06687643,0.08205518,-0.1708345,327.30023,327.31317,322.31564,322.3836,32.0,32.0,33.0,33.0,76.0,77.0,72.0,72.0,0.21351126,0.115199804,0.116146766,0.04474122,0.044653263,0.044965595,0.053631257,0.053853653,-25.509148,-16.094818,5.83671,8.009522,434.00824,1095.1324,655.8403,688.8046,0.0,92234.25,90256.164,2.0,1.0,2.7756932,0.002649804,0.0021378994,90.0,90.0,90.0,90.0,20.9,20.9,24.2,24.2,0.015130896,0.014958682,-3.6605416E-4,-3.818141E-4,1190.3381,0.0,0.0,0.0,0.0,0.0,0.0,0.0,0.0,0.0,0.0,0.0,0.0,0.0,32.07791,-0.043747064,-83.63388,-0.018786082,0.012299201,-0.015398049,546231.1,119984.91,0.0076316735,0.011801521,7789.6025,7921.1963,6922.092,7029.8965,0.30301094,0.0,0.0,0.0
135.294,135.294,1.533,0.0,0.0,322.5629,11573.0,100.0,0.0,-0.27260202,0.0,8.0,1.0,0.0,2133571.0,109.0,2.0,0.0,0.0,4.731439,0.0,0.0,-285.86572,4.96274,-221.25722,0.084908634,0.080544084,-0.12907739,327.33533,327.3673,322.3968,322.48795,32.0,32.0,33.0,33.0,76.0,76.0,71.0,71.0,0.21351126,0.115199804,0.116146766,0.04474122,0.04440851,0.044783253,0.053681225,0.054060027,0.0,0.0,0.0,0.0,1085.5167,479.75323,234.22388,-442.43033,0.0,94344.97,92244.35,2.0,1.0,2.7761738,0.0027593118,0.0027366877,90.0,90.0,90.0,90.0,20.9,20.9,24.2,24.2,0.014980519,0.014827325,-3.6965523E-4,-3.8023113E-4,1190.4736,0.0,0.0,0.0,0.0,0.0,0.0,0.0,0.0,0.0,0.0,0.0,0.0,0.0,32.062668,-0.08983647,-83.66769,-0.013542686,0.01597567,-0.008893825,546198.94,119984.91,0.008108798,0.012186852,7942.3906,8016.0557,6941.701,7085.709,0.3033123,0.0,0.0,0.0
141.26976,141.26976,1.583,0.0,0.0,322.74094,11579.0,100.0,0.0,-0.23049402,0.0,8.0,1.0,0.0,2129596.2,109.0,2.0,0.0,0.0,4.729627,0.0,0.0,-283.72983,4.954082,-226.83751,0.116494074,0.07596511,-0.104901835,327.4991,327.536,322.57,322.66873,32.0,32.0,33.0,33.0,76.0,76.0,71.0,71.0,0.21402429,0.1157839,0.116146766,0.04474122,0.04449764,0.044881735,0.053700835,0.054259382,9.777769,0.4121661,5.013048,-0.3341585,439.05075,409.30505,278.6949,-181.03566,0.0,98567.84,96219.21,2.0,1.0,2.7773132,0.0023703345,0.0035595894,90.0,90.0,90.0,90.0,20.9,20.9,24.2,24.2,0.014938355,0.014777203,-3.7389676E-4,-3.7485152E-4,1190.8373,0.0,0.0,0.0,0.0,0.0,0.0,0.0,0.0,0.0,0.0,0.0,0.0,0.0,32.014362,-0.16646747,-83.73901,-0.010909764,0.016718732,0.005190796,546082.6,119984.914,0.008313039,0.012752533,7956.7183,8059.7246,6959.2964,7193.7646,0.3035946,0.0,0.0,0.0
145.75368,145.75368,1.633,0.0,0.0,322.86517,11580.0,100.0,0.0,-0.22551927,0.0,8.0,1.0,0.0,2126615.8,109.0,2.0,0.0,0.0,4.728268,0.0,0.0,-282.13025,4.945853,-231.0259,0.12679908,0.06558993,0.064227164,327.5297,327.54688,322.69766,322.78333,32.0,32.0,33.0,33.0,75.0,76.0,70.0,70.0,0.21402429,0.1157839,0.116146766,0.04474122,0.046008177,0.046637632,0.05415857,0.054686673,34.2717,36.231724,-4.050135,-0.057220455,-848.5031,-1206.9,-1587.0494,-1485.8899,0.0,101735.695,99199.62,2.0,1.0,2.7780766,0.0024193975,0.0032902956,90.0,90.0,90.0,90.0,20.9,20.9,24.2,24.2,0.014605759,0.014432081,-3.7230892E-4,-3.760395E-4,1190.904,0.0,0.0,0.0,0.0,0.0,0.0,0.0,0.0,0.0,0.0,0.0,0.0,0.0,31.969751,-0.1486954,-83.79302,0.014506949,0.014489814,0.001525294,546066.1,119984.914,0.009426787,0.012590428,8247.257,8393.373,7192.593,7441.988,0.30426216,0.0,0.0,0.0
150.23914,150.23914,1.683,0.0,0.0,322.97708,11586.0,100.0,0.0,-0.25672337,0.0,8.0,1.0,0.0,2123636.5,109.0,2.0,0.0,0.0,4.726909,0.0,0.0,-280.5331,4.938561,-235.21695,0.13422707,0.061282873,0.009342642,327.70782,327.7072,322.80975,322.89938,32.0,32.0,33.0,33.0,75.0,75.0,70.0,70.0,0.21445537,0.11628661,0.116146766,0.04474122,0.045995176,0.04695014,0.054000065,0.054512244,-10.621994,-6.6818295,2.0391493,3.9055195,-264.88153,-787.1478,348.83466,503.04825,0.0,104904.555,102178.98,2.0,1.0,2.7788198,0.0028073096,0.0030248165,90.0,90.0,90.0,90.0,20.9,20.9,24.2,24.2,0.014808393,0.014562495,-3.6833686E-4,-3.7455844E-4,1191.2657,0.0,0.0,0.0,0.0,0.0,0.0,0.0,0.0,0.0,0.0,0.0,0.0,0.0,31.919645,-0.14415735,-83.8454,0.008212329,0.015285482,-0.004602736,545949.06,119984.91,0.010630826,0.014065273,8052.2905,8263.795,7139.29,7375.878,0.3062954,0.0,0.0,0.0
154.72545,154.72545,1.733,0.0,0.0,323.085,11589.0,100.0,0.0,-0.28724772,0.0,8.0,1.0,0.0,2120658.5,109.0,2.0,0.0,0.0,4.72555,0.0,0.0,-278.93848,4.9319277,-239.41058,0.14095584,0.061931144,-0.05615594,327.81677,327.8209,322.91064,323.00656,32.0,32.0,33.0,33.0,75.0,75.0,69.0,69.0,0.21445537,0.11628661,0.116146766,0.04474122,0.045903176,0.04682685,0.054088093,0.05455432,-17.078072,-17.522646,-9.020939,-14.544501,-1809.7935,-1895.9863,-1069.2089,-1440.2656,0.0,108074.63,105157.05,2.0,1.0,2.7796054,0.0032686617,0.00207448,90.0,90.0,90.0,90.0,20.9,20.9,24.2,24.2,0.014863606,0.014595336,-3.70838E-4,-3.780512E-4,1191.4039,0.0,0.0,0.0,0.0,0.0,0.0,0.0,0.0,0.0,0.0,0.0,0.0,0.0,31.86695,-0.13125855,-83.89752,0.029056143,0.016308956,-0.005170609,545871.06,119984.914,0.008958655,0.012682068,7941.8896,8152.209,7015.306,7196.6924,0.30584526,0.0,0.0,0.0
159.21338,159.21338,1.783,0.0,0.0,323.21045,11586.0,100.0,0.0,-0.33124542,0.0,8.0,1.0,0.0,2117680.5,109.0,2.0,0.0,0.0,4.724191,0.0,0.0,-277.34653,4.927301,-243.60698,0.15332843,0.07153398,0.32352513,327.704,327.6987,323.02576,323.1304,32.0,32.0,33.0,33.0,74.0,75.0,69.0,69.0,0.21480538,0.116703115,0.116146766,0.04474122,0.04848801,0.049366463,0.05471212,0.0552703,69.794426,54.990646,15.390514,14.903917,616.14343,-594.51135,102.09829,-144.30278,0.0,111244.7,108135.125,2.0,1.0,2.7804472,0.0039003657,3.7121773E-4,90.0,90.0,90.0,90.0,20.9,20.9,24.2,24.2,0.01411541,0.013819893,-3.8499414E-4,-3.9259825E-4,1191.2628,0.0,0.0,0.0,0.0,0.0,0.0,0.0,0.0,0.0,0.0,0.0,0.0,0.0,31.812344,-0.030162219,-83.95561,0.03945984,0.01770951,0.009065817,545947.75,119984.92,0.0053025247,0.007354647,8772.598,9099.266,7750.8086,7994.374,0.3008566,0.0,0.0,0.0
162.2063,162.2063,1.833,0.0,0.0,323.29465,11586.0,100.0,0.0,-0.32900864,0.0,8.0,1.0,0.0,2115694.8,109.0,2.0,0.0,0.0,4.723285,0.0,0.0,-276.28683,4.928846,-246.40623,0.1558077,0.06979962,0.42126647,327.6934,327.7209,323.11093,323.22086,32.0,32.0,33.0,33.0,74.0,74.0,69.0,69.0,0.21480538,0.116703115,0.116146766,0.04474122,0.049282428,0.04955241,0.05500322,0.055386838,0.0,0.0,0.0,0.0,-3947.085,-2213.4792,-765.8108,-271.26517,0.0,113357.72,110120.9,2.0,1.0,2.7810552,0.004040539,-5.556345E-4,90.0,90.0,90.0,90.0,20.9,20.9,24.2,24.2,0.013794283,0.013564628,-3.843702E-4,-3.909864E-4,1191.2506,0.0,0.0,0.0,0.0,0.0,0.0,0.0,0.0,0.0,0.0,0.0,0.0,0.0,31.773537,0.109125964,-83.99525,0.018026007,0.01873346,-0.0043352246,545942.1,119984.91,0.00436723,0.006003745,9050.24,9366.17,7768.6514,7947.5146,0.2989502,0.0,0.0,0.0
168.19414,168.19414,1.883,0.0,0.0,323.4359,11603.0,100.0,0.0,-0.28149208,0.0,8.0,1.0,0.0,2111726.8,109.0,2.0,0.0,0.0,4.721472,0.0,0.0,-274.17136,4.9406204,-252.00842,0.15726289,0.060316388,-0.10012586,328.19904,328.2175,323.26285,323.37024,32.0,32.0,33.0,33.0,74.0,74.0,68.0,68.0,0.21529114,0.117288195,0.116146766,0.04474122,0.046834856,0.047474902,0.054013416,0.05460376,-40.06125,-35.37476,-17.262026,-17.89011,-132.68896,226.01622,16.482122,-127.17699,0.0,117587.06,114088.95,2.0,1.0,2.7822983,0.0047029736,-2.0229816E-4,90.0,90.0,90.0,90.0,20.9,20.9,24.2,24.2,0.014875981,0.014639688,-3.6564295E-4,-3.6826497E-4,1192.251,0.0,0.0,0.0,0.0,0.0,0.0,0.0,0.0,0.0,0.0,0.0,0.0,0.0,31.692434,0.17933884,-84.067696,-0.010983263,0.018211074,-0.0084185,545600.06,119984.914,0.008138603,0.010818151,7952.741,8220.673,6918.933,7183.9277,0.302701,0.0,0.0,0.0
172.68674,172.68674,1.933,0.0,0.0,323.54865,11608.0,100.0,0.0,-0.202291,0.0,8.0,1.0,0.0,2108754.2,109.0,2.0,0.0,0.0,4.7201114,0.0,0.0,-272.58832,4.9474874,-256.2133,0.14415602,0.0650378,-0.10218046,328.34833,328.35904,323.3862,323.46664,32.0,32.0,33.0,33.0,73.0,74.0,68.0,68.0,0.21529114,0.117288195,0.116146766,0.04474122,0.045028977,0.045919996,0.053852342,0.054347925,-18.44935,-20.04504,9.744688,1.9640473,1155.3615,836.43353,639.82745,413.4625,0.0,120762.62,117061.266,2.0,1.0,2.7830822,0.0046053776,3.2556057E-4,90.0,90.0,90.0,90.0,20.9,20.9,24.2,24.2,0.015001567,0.0148298,-3.7365843E-4,-3.7061272E-4,1192.5433,0.0,0.0,0.0,0.0,0.0,0.0,0.0,0.0,0.0,0.0,0.0,0.0,0.0,31.63504,0.10826538,-84.12289,0.0010039429,0.013252031,-0.002868499,545498.75,119984.91,0.008415719,0.012937389,7875.218,8076.113,7091.885,7291.0054,0.30408764,0.0,0.0,0.0
177.18086,177.18086,1.983,0.0,0.0,323.66632,11608.0,100.0,0.0,-0.17832707,0.0,8.0,1.0,0.0,2105782.0,109.0,2.0,0.0,0.0,4.718751,0.0,0.0,-271.00793,4.9523444,-260.42084,0.12723882,0.06869868,0.027845068,328.33972,328.314,323.50806,323.57028,32.0,32.0,33.0,33.0,73.0,73.0,67.0,67.0,0.21570611,0.11777338,0.116146766,0.04474122,0.045554433,0.04672464,0.054226503,0.054616593,27.481464,33.676697,11.831894,9.838789,1433.1844,1287.943,760.9024,517.5054,0.0,123938.44,120033.29,2.0,1.0,2.7836497,0.005210321,-2.3698807E-4,90.0,90.0,90.0,90.0,20.9,20.9,24.2,24.2,0.014593141,0.014358359,-3.8018113E-4,-3.789847E-4,1192.5782,0.0,0.0,0.0,0.0,0.0,0.0,0.0,0.0,0.0,0.0,0.0,0.0,0.0,31.584974,0.09618276,-84.17663,0.02466802,0.010171392,-0.0069219125,545514.75,119984.92,0.0056391857,0.010137613,8225.042,8474.548,7373.1895,7538.534,0.30140305,0.0,0.0,0.0
181.67668,181.67668,2.033,0.0,0.0,323.79352,11608.0,100.0,0.0,-0.19912061,0.0,8.0,1.0,0.0,2102809.8,109.0,2.0,0.0,0.0,4.7173905,0.0,0.0,-269.4298,4.958712,-264.63107,0.11492406,0.07426852,0.15152021,328.36957,328.3262,323.63797,323.69843,32.0,32.0,33.0,33.0,73.0,73.0,67.0,67.0,0.21570611,0.11777338,0.116146766,0.04474122,0.04786012,0.048868287,0.054394677,0.054678682,41.826366,24.265944,-4.4799595,-4.338473,-572.91956,-1885.7535,-426.65894,-321.0067,0.0,127114.086,123005.49,2.0,1.0,2.7841454,0.006133855,-0.0012181997,90.0,90.0,90.0,90.0,20.9,20.9,24.2,24.2,0.014239936,0.013953617,-3.807912E-4,-3.8347373E-4,1192.5419,0.0,0.0,0.0,0.0,0.0,0.0,0.0,0.0,0.0,0.0,0.0,0.0,0.0,31.543137,0.160892,-84.22994,0.00729632,0.01014294,-0.012724085,545498.1,119984.914,0.004448644,0.0060945624,8543.334,8860.069,7297.097,7423.14,0.29810715,0.0,0.0,0.0
186.17421,186.17421,2.083,0.0,0.0,323.91187,11619.0,100.0,0.0,-0.23187333,0.0,8.0,1.0,0.0,2099839.2,109.0,2.0,0.0,0.0,4.71603,0.0,0.0,-267.85364,4.9675984,-268.8439,0.10885368,0.063048996,-0.03718817,328.65884,328.63605,323.7599,323.82803,32.0,32.0,33.0,33.0,72.0,73.0,67.0,66.0,0.21605474,0.118170656,0.116146766,0.04474122,0.04713198,0.047648586,0.054202564,0.054317594,-32.03608,-24.767963,-0.90613955,-3.814101,-477.99646,401.701,267.56375,309.75485,0.0,130291.3,125976.055,2.0,1.0,2.7846978,0.0068583703,-1.4281273E-4,90.0,90.0,90.0,90.0,20.9,20.9,24.2,24.2,0.014725024,0.014480169,-3.6654342E-4,-3.736598E-4,1193.223,0.0,0.0,0.0,0.0,0.0,0.0,0.0,0.0,0.0,0.0,0.0,0.0,0.0,31.503914,0.17554305,-84.27969,-0.01778447,0.011950873,-0.034778945,545292.94,119984.914,0.0065582497,0.009183322,8073.8047,8301.952,7192.036,7230.7397,0.3004942,0.0,0.0,0.0
189.17339,189.17339,2.133,0.0,0.0,323.98355,11625.0,100.0,0.0,-0.2146032,0.0,8.0,1.0,0.0,2097860.5,109.0,2.0,0.0,0.0,4.715123,0.0,0.0,-266.80405,4.9725394,-271.6538,0.110933185,0.06206189,-0.20365642,328.84644,328.82028,323.82703,323.90424,32.0,32.0,33.0,33.0,72.0,73.0,66.0,66.0,0.21605474,0.118170656,0.116146766,0.04474122,0.04539881,0.04636934,0.053776126,0.05418674,0.0,0.0,0.0,0.0,24.528807,-186.58789,-101.40089,-54.03309,0.0,132411.14,127954.64,2.0,1.0,2.78513,0.007712206,6.661415E-4,90.0,90.0,90.0,90.0,20.9,20.9,24.2,24.2,0.015145644,0.014850204,-3.630183E-4,-3.677155E-4,1193.559,0.0,0.0,0.0,0.0,0.0,0.0,0.0,0.0,0.0,0.0,0.0,0.0,0.0,31.476187,0.11905278,-84.31141,-0.01246493,0.01332995,-0.02594585,545164.94,119984.914,0.008206821,0.012049685,7694.5386,7951.301,6836.939,7052.2617,0.3029995,0.0,0.0,0.0
195.17357,195.17357,2.183,0.0,0.0,324.12564,11627.0,100.0,0.0,-0.14477964,0.0,8.0,1.0,0.0,2093904.9,109.0,2.0,0.0,0.0,4.7133093,0.0,0.0,-264.70746,4.977069,-277.27673,0.10109082,0.0577677,-0.056246545,328.88086,328.86557,323.9731,324.0322,32.0,32.0,33.0,33.0,72.0,72.0,66.0,66.0,0.21653825,0.11872158,0.116146766,0.04474122,0.04467562,0.045611244,0.05404911,0.05437202,12.543573,6.1447167,7.80791,1.6857682,720.401,637.856,-140.22588,-14.282763,0.0,136652.3,131910.25,2.0,1.0,2.7859192,0.008078816,0.0011229515,90.0,90.0,90.0,90.0,20.9,20.9,24.2,24.2,0.01480419,0.014609367,-3.7247152E-4,-3.6829442E-4,1193.6989,0.0,0.0,0.0,0.0,0.0,0.0,0.0,0.0,0.0,0.0,0.0,0.0,0.0,31.424616,0.04197409,-84.37283,0.010298999,0.009587432,-0.002111196,545135.06,119984.92,0.00899471,0.013438937,8003.05,8188.8584,7186.0327,7317.706,0.3048563,0.0,0.0,0.0
199.67522,199.67522,2.233,0.0,0.0,324.2263,11627.0,100.0,0.0,-0.13447039,0.0,8.0,1.0,0.0,2090938.2,109.0,2.0,0.0,0.0,4.711949,0.0,0.0,-263.13715,4.979145,-281.4965,0.09046901,0.05625786,0.051236954,328.8881,328.87225,324.07944,324.12482,32.0,32.0,33.0,33.0,72.0,72.0,65.0,65.0,0.21653825,0.11872158,0.116146766,0.04474122,0.0462367,0.046936464,0.054151755,0.054623794,34.990532,30.289515,2.750158,5.41985,103.84162,107.46276,80.70766,-3.1918428,0.0,139833.25,134876.88,2.0,1.0,2.7863338,0.008358515,4.862547E-4,90.0,90.0,90.0,90.0,20.9,20.9,24.2,24.2,0.014484001,0.0143255815,-3.7154005E-4,-3.7413932E-4,1193.684,0.0,0.0,0.0,0.0,0.0,0.0,0.0,0.0,0.0,0.0,0.0,0.0,0.0,31.390984,0.04957716,-84.41518,0.013756542,0.0075520175,0.0027463012,545128.25,119984.92,0.008952719,0.011987123,8305.848,8460.131,7248.592,7468.1943,0.3042364,0.0,0.0,0.0
204.17824,204.17824,2.283,0.0,0.0,324.33286,11630.0,100.0,0.0,-0.07722198,0.0,8.0,1.0,0.0,2087972.6,109.0,2.0,0.0,0.0,4.7105885,0.0,0.0,-261.56833,4.9808264,-285.71832,0.07179381,0.06064792,0.06469078,328.96625,328.97736,324.19,324.22714,32.0,32.0,33.0,33.0,71.0,72.0,65.0,65.0,0.21688221,0.11910444,0.116146766,0.04474122,0.046810977,0.047059666,0.054105762,0.0547163,32.09062,16.593485,13.112202,12.400522,1185.8044,858.2799,539.7811,343.49704,0.0,143015.16,137842.48,2.0,1.0,2.786688,0.0077605234,3.0505657E-4,90.0,90.0,90.0,90.0,20.9,20.9,24.2,24.2,0.014393026,0.014328103,-3.780406E-4,-3.7635723E-4,1193.851,0.0,0.0,0.0,0.0,0.0,0.0,0.0,0.0,0.0,0.0,0.0,0.0,0.0,31.364656,0.038872935,-84.45654,-5.2475976E-4,0.006060211,0.022705646,545063.9,119984.91,0.007323589,0.010291549,8401.417,8447.953,7333.505,7606.3955,0.3025875,0.0,0.0,0.0
207.18106,207.18106,2.333,0.0,0.0,324.3988,11627.0,100.0,0.0,-0.080763504,0.0,8.0,1.0,0.0,2085995.4,109.0,2.0,0.0,0.0,4.7096815,0.0,0.0,-260.52307,4.983228,-288.534,0.061347216,0.052659534,0.3778819,328.88098,328.88153,324.2557,324.28354,32.0,32.0,33.0,32.0,71.0,72.0,65.0,65.0,0.21688221,0.11910444,0.116146766,0.04474122,0.04930956,0.048810653,0.055133995,0.05527694,0.0,0.0,0.0,0.0,4479.6904,3232.6382,2016.9403,709.2028,0.0,145136.22,139819.78,2.0,1.0,2.786853,0.007039879,-4.056692E-4,90.0,90.0,90.0,90.0,20.9,20.9,24.2,24.2,0.013866763,0.013838363,-3.7523167E-4,-3.7999096E-4,1193.6741,0.0,0.0,0.0,0.0,0.0,0.0,0.0,0.0,0.0,0.0,0.0,0.0,0.0,31.351936,0.12064281,-84.480736,0.029194307,0.004408119,0.028623937,545123.75,119984.92,0.007032135,0.009043217,9068.902,9037.861,8137.5186,8267.81,0.30198956,0.0,0.0,0.0
213.18826,213.18826,2.383,0.0,0.0,324.50238,11636.0,100.0,0.0,-0.023625428,0.0,8.0,1.0,0.0,2082041.2,109.0,2.0,0.0,0.0,4.7078676,0.0,0.0,-258.43375,4.997748,-294.16748,0.042007223,0.037062626,0.10367293,329.13565,329.12924,324.37384,324.38812,32.0,32.0,33.0,32.0,71.0,71.0,64.0,64.0,0.21737334,0.119633555,0.11633943,0.044931784,0.048015147,0.04806081,0.05453596,0.054851916,-22.455675,-26.731117,-3.9540226,-12.4778595,705.944,46.46919,441.74634,-88.71408,0.0,149378.8,143773.9,2.0,1.0,2.7870972,0.006489564,-0.0016027689,90.0,90.0,90.0,90.0,20.9,20.9,24.2,24.2,0.014299234,0.014255405,-3.6777003E-4,-3.6333883E-4,1194.221,0.0,0.0,0.0,0.0,0.0,0.0,0.0,0.0,0.0,0.0,0.0,0.0,0.0,31.33098,0.26994637,-84.518845,0.002996346,0.0019995985,0.017358454,544951.7,119984.91,0.011091267,0.012882699,8467.623,8512.172,7355.0576,7461.9644,0.3060131,0.0,0.0,0.0
217.68124,217.68124,2.433,0.0,0.0,321.38428,11153.0,0.0,76.35521,-0.047974225,0.0,8.0,0.0,1.0,2084737.8,109.0,2.0,0.0,0.0,4.707414,0.0,0.0,-256.87213,5.0113416,-298.38138,0.03698361,-3.2248073,-0.2882823,315.03583,315.08246,314.63373,314.65457,70.0,70.0,72.0,72.0,71.0,71.0,64.0,64.0,0.21737334,0.119633555,0.11633943,0.044931784,0.045920208,0.046352945,0.05324907,0.053387165,-150.27657,-127.05756,-30.083431,-23.445635,-11244.623,-10097.765,997.7547,1827.2278,3999.5005,150440.06,144761.8,2.0,1.0,2.7871559,0.0062368084,-0.0011049509,90.0,90.0,90.0,90.0,20.9,20.9,24.2,24.2,-0.019346068,-0.01917139,-0.021599067,-0.021450905,1154.8774,0.0,0.0,0.0,0.0,0.0,0.0,0.0,0.0,0.0,0.0,0.0,0.0,0.0,31.012726,0.23855346,-83.71317,-0.065813534,0.0010904868,-0.015262735,549820.9,0.0,0.010349893,0.016025187,6815.381,7026.8633,7489.58,7584.1543,0.30681992,0.0,0.0,0.0
222.09949,222.09949,2.483,0.0,0.0,315.3165,10941.0,0.0,76.605606,-0.010377727,0.0,8.0,0.0,1.0,2090275.6,109.0,2.0,0.0,0.0,4.707414,0.0,0.0,-255.33713,5.0242944,-302.52542,0.019247293,-3.461954,0.36694238,309.22067,309.25348,309.5085,309.40622,125.0,125.0,130.0,130.0,70.0,71.0,64.0,64.0,0.21798664,0.120264314,0.11691385,0.045510102,0.044955548,0.045291234,0.056159265,0.055410825,45.695896,45.658123,30.016823,38.41728,3774.1492,4210.075,-3147.505,-446.94968,9998.751,150440.06,144761.8,2.0,1.0,2.7871687,0.00661754,-4.9865246E-4,90.0,90.0,90.0,90.0,20.9,20.9,24.2,24.2,-0.019296907,-0.019194912,-0.018282354,-0.018611452,1130.4854,0.0,0.0,0.0,0.0,0.0,0.0,0.0,0.0,0.0,0.0,0.0,0.0,0.0,30.417965,0.32602113,-82.135765,0.06891085,-0.0011549265,-0.015058868,548636.8,0.0,0.003249132,0.014033643,8114.8965,8217.696,10097.633,9812.257,0.30197525,0.0,0.0,0.0
226.43265,226.43265,2.533,0.0,0.0,309.17706,10745.0,0.0,76.63382,-0.019812785,0.0,8.0,0.0,1.0,2095821.6,109.0,2.0,0.0,0.0,4.707414,0.0,0.0,-253.832,5.0495276,-306.5898,0.005995631,-3.4658277,0.5366223,303.5937,303.68683,303.13974,303.00348,177.0,177.0,183.0,183.0,70.0,71.0,64.0,64.0,0.21798664,0.120264314,0.11691385,0.045510102,0.049904782,0.05074839,0.05597696,0.055419024,-32.239925,-33.667084,-36.94877,-31.935722,-8107.458,-9896.357,-302.6336,-866.6753,15998.001,150440.06,144761.8,2.0,1.0,2.7870705,0.009786739,-0.0049738884,90.0,90.0,90.0,90.0,20.9,20.9,24.2,24.2,-0.017937439,-0.017607195,-0.019489227,-0.019877054,1103.3055,0.0,0.0,0.0,0.0,0.0,0.0,0.0,0.0,0.0,0.0,0.0,0.0,0.0,29.821793,0.63612604,-80.536095,0.062221274,-0.002216496,-0.032521248,545213.25,0.0,0.0072138873,0.0107186185,9223.612,9672.838,9243.791,8975.039,0.30323982,0.0,0.0,0.0
230.68057,230.68057,2.583,0.0,0.0,303.026,10517.0,0.0,76.93947,0.056208234,0.0,8.0,0.0,1.0,2101376.8,109.0,2.0,0.0,0.0,4.707414,0.0,0.0,-252.35635,5.084844,-310.57422,-0.027523518,-3.4890077,0.2151181,297.15656,297.2412,297.16672,296.87848,225.0,225.0,233.0,233.0,70.0,70.0,64.0,64.0,0.21849552,0.120766275,0.11740528,0.046019234,0.047818936,0.048576605,0.055714604,0.054500874,-30.463634,-27.776731,3.706142,-7.986054,1131.3958,1171.5485,374.06082,587.91327,21997.252,150440.06,144761.8,2.0,1.0,2.7867982,0.012539013,-0.006218791,90.0,90.0,90.0,90.0,20.9,20.9,24.2,24.2,-0.01931237,-0.018922454,-0.019343013,-0.0201571,1072.0338,0.0,0.0,0.0,0.0,0.0,0.0,0.0,0.0,0.0,0.0,0.0,0.0,0.0,29.238222,0.75535333,-78.92908,0.0554566,-0.007340413,-0.052523654,541244.6,0.0,0.008844028,0.015308763,8176.2197,8601.354,9428.631,8819.94,0.30736065,0.0,0.0,0.0
233.46532,233.46532,2.633,0.0,0.0,298.94672,10369.0,0.0,77.10716,0.1209384,0.0,8.0,0.0,1.0,2105085.8,109.0,2.0,0.0,0.0,4.707414,0.0,0.0,-251.38863,5.1093044,-313.1861,-0.05097139,-3.5046506,0.10705908,293.02463,293.0749,293.08957,292.76318,255.0,255.0,264.0,263.0,70.0,70.0,64.0,64.0,0.21849552,0.120766275,0.11740528,0.046019234,0.045839597,0.0475095,0.05515641,0.053934216,0.0,0.0,0.0,0.0,5161.8164,4882.0356,3266.139,2057.5625,25996.752,150440.06,144761.8,2.0,1.0,2.7864676,0.0147636,-0.0075968504,90.0,90.0,90.0,90.0,20.9,20.9,24.2,24.2,-0.019836469,-0.019477597,-0.019689588,-0.020611644,1043.7368,0.0,0.0,0.0,0.0,0.0,0.0,0.0,0.0,0.0,0.0,0.0,0.0,0.0,28.856659,0.7395733,-77.862144,0.07334408,-0.010605631,-0.052229956,534479.6,0.0,0.006433585,0.013343436,7980.736,8319.5625,9128.015,8507.943,0.30609322,0.0,0.0,0.0
238.924,238.924,2.683,0.0,0.0,290.5212,10097.0,0.0,77.19683,0.16894354,0.0,8.0,0.0,1.0,2112514.5,108.0,2.0,0.0,0.0,4.707414,0.0,0.0,-249.4906,5.168748,-318.30225,-0.09316647,-3.4299543,0.67787653,285.2995,285.37213,285.2458,284.74582,310.0,310.0,321.0,321.0,70.0,70.0,64.0,64.0,0.2192035,0.1214287,0.11808293,0.046750672,0.0491414,0.04996312,0.056110695,0.054159723,-18.525122,-23.220999,14.607757,-8.737519,-6165.2847,-3160.7952,852.8753,-296.45114,33995.754,150440.06,144761.8,2.0,1.0,2.7854352,0.020248488,-0.011416793,90.0,90.0,90.0,90.0,20.9,20.9,24.2,24.2,-0.018945152,-0.018372186,-0.019212363,-0.020590674,990.8594,0.0,0.0,0.0,0.0,0.0,0.0,0.0,0.0,0.0,0.0,0.0,0.0,0.0,28.063,1.197474,-75.654335,0.14399502,-5.6946627E-4,-0.07236048,521070.72,0.0,9.6195075E-4,0.0067163156,8698.094,9323.0625,9673.054,8679.251,0.2980957,0.0,0.0,0.0
242.91663,242.91663,2.733,0.0,0.0,284.5932,9859.0,0.0,77.22351,0.2591645,0.0,8.0,0.0,1.0,2118097.0,108.0,2.0,0.0,0.0,4.707414,0.0,0.0,-248.10103,5.2301493,-322.0438,-0.12082499,-3.3730583,-0.07761265,278.54626,278.63788,278.3218,277.6195,348.0,348.0,360.0,360.0,70.0,70.0,64.0,64.0,0.2192035,0.1214287,0.11808293,0.046750672,0.045633383,0.047273118,0.05383904,0.05187532,-83.53002,-71.63464,-27.486382,-24.885757,-956.7576,-723.48535,1199.6849,1193.2744,39995.004,150440.06,144761.8,2.0,1.0,2.7850246,0.025864895,-0.012410879,90.0,90.0,90.0,90.0,20.9,20.9,24.2,24.2,-0.021213302,-0.020641837,-0.02227983,-0.024504947,938.24384,0.0,0.0,0.0,0.0,0.0,0.0,0.0,0.0,0.0,0.0,0.0,0.0,0.0,27.545504,1.2140899,-74.0895,-0.006100893,-0.011643468,-0.12544525,505312.28,0.0,0.0072618993,0.011660534,7252.1885,7728.087,7800.0205,6895.3926,0.30132103,0.0,0.0,0.0
245.53242,245.53242,2.783,0.0,0.0,280.6141,9705.0,0.0,77.441475,0.2622434,0.0,8.0,0.0,1.0,2121824.0,108.0,2.0,0.0,0.0,4.707414,0.0,0.0,-247.18915,5.2696733,-324.49448,-0.12630737,-3.3812795,-0.13292429,274.23257,274.31378,274.50583,273.96118,371.0,371.0,384.0,384.0,69.0,70.0,64.0,64.0,0.21979961,0.121977925,0.11872252,0.047447693,0.04155691,0.04433208,0.05353095,0.051988643,0.0,0.0,0.0,0.0,-1076.3433,-512.34186,410.0561,659.716,43994.504,150440.06,144761.8,2.0,1.0,2.7844918,0.0299911,-0.0104397535,90.0,90.0,90.0,90.0,20.9,20.9,24.2,24.2,-0.022840938,-0.022200705,-0.02199727,-0.02355857,901.6811,0.0,0.0,0.0,0.0,0.0,0.0,0.0,0.0,0.0,0.0,0.0,0.0,0.0,27.196455,1.1603693,-73.040764,-0.009757731,-0.016459517,-0.13150424,493326.47,0.0,0.008110002,0.017005488,6487.9307,6932.695,7973.806,7296.806,0.30299377,0.0,0.0,0.0
249.3846,249.3846,2.833,0.0,0.0,274.13135,9427.0,0.0,96.73551,0.3606003,0.0,8.0,0.0,1.0,2127423.0,108.0,2.0,0.0,0.0,4.707414,0.0,0.0,-245.84373,5.326321,-328.1025,-0.16056967,-3.8849597,-0.124171324,266.1892,266.28592,265.4001,264.43066,409.0,409.0,424.0,424.0,69.0,70.0,64.0,64.0,0.21979961,0.121977925,0.11872252,0.047447693,0.038012665,0.040920287,0.053111188,0.051682726,0.0,0.0,0.0,0.0,728.2466,474.02686,-584.6544,-718.443,49993.754,150440.06,144761.8,2.0,1.0,2.783411,0.035573587,-0.008939862,90.0,90.0,90.0,90.0,20.9,20.9,24.2,24.2,-0.02892553,-0.028072765,-0.031878717,-0.034621283,834.15027,0.0,0.0,0.0,0.0,0.0,0.0,0.0,0.0,0.0,0.0,0.0,0.0,0.0,26.634344,1.0993838,-71.32923,0.010382492,-0.023730805,-0.100167304,469837.62,0.0,0.010447156,0.022345208,6197.3145,6551.0986,7901.213,7243.46,0.3078699,0.0,0.0,0.0
253.14021,253.14021,2.883,0.0,0.0,266.90594,10894.0,0.0,100.0,0.45109004,0.0,8.0,0.0,1.0,2135123.2,108.0,2.0,0.0,0.0,4.706525,0.0,0.0,-244.52846,5.3798733,-331.61868,-0.19649613,-4.1015444,-0.10403956,258.20502,258.27795,257.91238,256.69644,446.0,446.0,466.0,465.0,69.0,70.0,65.0,65.0,0.22092901,0.12300785,0.120268494,0.049225252,0.0355994,0.03810045,0.052767653,0.05127851,0.0,0.0,0.0,0.0,-557.8056,-594.14954,0.80466264,474.3486,55993.004,152271.78,144761.8,2.0,1.0,2.7820585,0.040079907,-0.007493615,90.0,90.0,90.0,90.0,20.9,20.9,24.2,24.2,-0.0326791,-0.031830627,-0.034008007,-0.037901126,1123.9486,0.0,0.0,0.0,0.0,0.0,0.0,0.0,0.0,0.0,0.0,0.0,0.0,0.0,26.012638,1.0402347,-69.41959,0.002456827,-0.028996065,-0.08770357,547817.75,0.0,0.013158394,0.027292496,5832.546,6062.043,7897.782,7214.2183,0.31352043,0.0,0.0,0.0
257.99286,257.99286,2.933,0.0,0.0,257.37338,10175.0,0.0,100.0,0.4559565,0.0,7.0,0.0,1.0,2142542.8,108.0,2.0,0.0,0.0,4.706525,0.0,0.0,-242.82207,5.446573,-336.1592,-0.23077929,-4.0758615,0.032729194,249.05305,249.1151,248.78033,247.33072,491.0,491.0,515.0,514.0,69.0,70.0,65.0,65.0,0.22092901,0.12300785,0.120268494,0.049225252,0.033119723,0.035289228,0.0528527,0.051042758,-18.687395,-13.802199,1.7995386,-2.4700909,866.045,1150.225,-130.77109,56.567783,63992.004,152271.78,144761.8,2.0,1.0,2.7799006,0.045487545,-0.007410407,90.0,90.0,90.0,90.0,20.9,20.9,24.2,24.2,-0.03257408,-0.031652246,-0.033662934,-0.03856367,1005.895,0.0,0.0,0.0,0.0,0.0,0.0,0.0,0.0,0.0,0.0,0.0,0.0,0.0,25.21179,0.9836181,-66.89239,0.04414535,-0.03361888,-0.07181246,524922.56,0.0,0.012722187,0.029644202,5816.3896,6052.717,8005.3174,7144.7812,0.3150215,0.0,0.0,0.0
261.51477,261.51477,2.983,0.0,0.0,249.92673,9885.0,0.0,100.0,0.4977824,0.0,7.0,0.0,1.0,2148122.8,108.0,2.0,0.0,0.0,4.706525,0.0,0.0,-241.57765,5.496717,-339.4523,-0.24073625,-4.1899076,0.13454132,241.90755,241.95033,240.57838,239.83261,521.0,521.0,547.0,547.0,69.0,70.0,65.0,66.0,0.22190574,0.123885736,0.121750474,0.050809402,0.033065204,0.03501085,0.052802116,0.05084951,-4.1746345,-9.885504,0.3544986,-11.74271,-628.99133,-366.00073,140.54773,-376.63574,69991.26,152271.78,144761.8,2.0,1.0,2.7782571,0.04947404,-0.008057952,90.0,90.0,90.0,90.0,20.9,20.9,24.2,24.2,-0.032470766,-0.031727925,-0.037847303,-0.039953183,944.5318,0.0,0.0,0.0,0.0,0.0,0.0,0.0,0.0,0.0,0.0,0.0,0.0,0.0,24.589684,1.0227307,-64.915375,0.030725734,-0.029555641,-0.08534089,507360.8,0.0,0.0130971735,0.029178275,5838.0537,6001.355,7924.325,6953.552,0.31428528,0.0,0.0,0.0
264.9344,264.9344,3.033,0.0,0.0,242.61871,9567.0,0.0,100.0,0.682959,0.0,7.0,0.0,1.0,2153715.5,108.0,2.0,0.0,0.0,4.706525,0.0,0.0,-240.364,5.547961,-342.64764,-0.2552551,-4.1255684,-0.0024895296,234.02174,234.20215,231.1642,231.72964,549.0,549.0,577.0,576.0,69.0,70.0,66.0,66.0,0.22190574,0.123885736,0.121750474,0.050809402,0.030740479,0.033620574,0.052182384,0.050283197,-48.302,-37.65374,-20.214243,-7.4643636,232.74191,-900.5648,-98.182175,-170.2532,75990.51,152271.78,144761.8,2.0,1.0,2.776467,0.054526985,-0.007859826,90.0,90.0,90.0,90.0,20.9,20.9,24.2,24.2,-0.03590827,-0.03424963,-0.047083452,-0.0442484,869.47736,0.0,0.0,0.0,0.0,0.0,0.0,0.0,0.0,0.0,0.0,0.0,0.0,0.0,23.979324,1.0176258,-62.975548,0.014580987,-0.03799196,-0.08552117,482569.1,0.0,0.014216797,0.031245116,5205.786,5524.5146,7405.378,6520.91,0.31597996,0.0,0.0,0.0
267.15793,267.15793,3.083,0.0,0.0,237.77914,9358.0,0.0,100.0,0.8064841,0.0,7.0,0.0,1.0,2157451.5,108.0,2.0,0.0,0.0,4.706525,0.0,0.0,-239.57169,5.58141,-344.72412,-0.27491736,-4.10627,-0.050660037,228.9271,229.03514,224.64653,226.07231,566.0,566.0,595.0,594.0,69.0,70.0,66.0,67.0,0.22293694,0.12479631,0.12367668,0.052670617,0.029311983,0.0318847,0.051860545,0.04979346,0.0,0.0,0.0,0.0,-51.994625,-142.8543,677.40515,-353.8906,79990.01,152271.78,144761.8,2.0,1.0,2.7751217,0.057177603,-0.007147312,90.0,90.0,90.0,90.0,20.9,20.9,24.2,24.2,-0.037664328,-0.036362037,-0.05513373,-0.04844025,815.65936,0.0,0.0,0.0,0.0,0.0,0.0,0.0,0.0,0.0,0.0,0.0,0.0,0.0,23.58011,0.98909664,-61.689312,-5.576741E-4,-0.039951064,-0.08909484,462810.06,0.0,0.01558274,0.033187713,4989.664,5203.95,7261.165,6208.5913,0.31739426,0.0,0.0,0.0
271.4719,271.4719,3.133,0.0,0.0,228.45555,10433.0,0.0,100.0,1.4207804,0.0,6.0,0.0,1.0,2166990.2,108.0,2.0,0.0,0.0,4.705639,0.0,0.0,-238.02603,5.644294,-348.74954,-0.39288092,-3.6361694,-0.08725407,220.76807,220.59824,220.7817,217.21768,597.0,597.0,628.0,627.0,70.0,70.0,67.0,67.0,0.22293694,0.12479631,0.12367668,0.052670617,0.02622012,0.02865169,0.05097261,0.04921626,-11.150501,-33.642498,-28.130112,-4.949346,2634.5928,1501.5675,-597.006,138.12033,87989.01,154088.23,144761.8,2.0,1.0,2.7714164,0.06221435,-0.0055086613,90.0,90.0,90.0,90.0,20.9,20.9,24.2,24.2,-0.03392429,-0.032537602,-0.03071034,-0.04667505,1056.3844,0.0,0.0,0.0,0.0,0.0,0.0,0.0,0.0,0.0,0.0,0.0,0.0,0.0,22.842846,0.89602363,-59.199303,3.2448024E-4,-0.080695555,-0.051098324,537637.8,0.0,0.018245783,0.037940003,4761.757,4800.107,6903.1187,5896.458,0.32089806,0.0,0.0,0.0
274.59854,274.59854,3.183,0.0,0.0,222.05385,10061.0,0.0,100.0,2.0711634,0.0,6.0,0.0,1.0,2172561.5,108.0,2.0,0.0,0.0,4.705639,0.0,0.0,-236.89584,5.68667,-351.6632,-0.52488285,-3.425202,-0.20058194,213.12445,212.88461,208.56715,214.75375,618.0,618.0,649.0,649.0,70.0,70.0,67.0,67.0,0.22379194,0.12551525,0.12539752,0.053962477,0.025110131,0.026692148,0.05099689,0.047791816,-42.18198,-42.60007,-5.485788,-28.444378,-1157.8826,-393.37943,-910.3819,-256.96906,93988.26,154088.23,144761.8,2.0,1.0,2.7672393,0.06522123,-0.004344344,90.0,90.0,90.0,90.0,20.9,20.9,24.2,24.2,-0.040648766,-0.03953314,-0.060619198,-0.027817065,983.92706,0.0,0.0,0.0,0.0,0.0,0.0,0.0,0.0,0.0,0.0,0.0,0.0,0.0,22.405632,0.796321,-57.462826,0.0013008807,-0.07753277,-0.053179923,519276.62,0.0,0.020034999,0.04027634,4300.4575,4267.42,6579.661,5275.8433,0.3233242,0.0,0.0,0.0
276.639,276.639,3.233,0.0,0.0,217.77187,9850.0,0.0,100.0,2.6149087,0.0,6.0,0.0,1.0,2176284.0,107.0,2.0,0.0,0.0,4.705639,0.0,0.0,-236.15388,5.7118697,-353.55774,-0.5457627,-3.6908205,-0.14551482,208.95146,208.5387,211.35693,204.4498,631.0,631.0,663.0,662.0,70.0,70.0,68.0,68.0,0.22379194,0.12551525,0.12539752,0.053962477,0.024742827,0.025329407,0.05088085,0.047559414,0.0,0.0,0.0,0.0,750.663,388.71893,18.735235,805.0515,97987.76,154088.23,144761.8,2.0,1.0,2.764543,0.06706961,-0.00367105,90.0,90.0,90.0,90.0,20.9,20.9,24.2,24.2,-0.041550677,-0.041572805,-0.043369584,-0.05935629,936.04034,0.0,0.0,0.0,0.0,0.0,0.0,0.0,0.0,0.0,0.0,0.0,0.0,0.0,22.131157,0.7259224,-56.293777,0.0028417017,-0.08886281,-0.07369307,504586.2,0.0,0.02075617,0.041207064,4548.9414,4182.2036,6623.664,5144.4004,0.32451725,0.0,0.0,0.0
279.64224,279.64224,3.283,0.0,0.0,213.1011,9822.0,0.0,56.807114,3.4937077,0.0,6.0,0.0,1.0,2181870.8,107.0,2.0,0.0,0.0,4.705639,0.0,0.0,-235.05217,5.746492,-356.33594,-0.8219551,-2.4934201,-0.050543316,208.6113,208.08792,209.1578,207.8463,641.0,641.0,673.0,672.0,70.0,69.0,68.0,68.0,0.22445416,0.12590382,0.12586728,0.0545948,0.023685709,0.02381366,0.051995322,0.048123702,0.0,0.0,0.0,0.0,1061.1488,861.7601,-242.37784,-603.8054,103987.01,154088.23,144761.8,2.0,1.0,2.7579522,0.0701785,-0.0026737452,90.0,90.0,90.0,90.0,20.9,20.9,24.2,24.2,-0.023107799,-0.021790568,-0.020499544,-0.022289967,929.38043,0.0,0.0,0.0,0.0,0.0,0.0,0.0,0.0,0.0,0.0,0.0,0.0,0.0,21.984678,0.6655889,-54.956795,0.0059220465,-0.15113732,-0.041735314,502424.25,0.0,0.021247292,0.04177698,5046.2295,4487.5767,6486.287,4600.5117,0.3253069,0.0,0.0,0.0
283.55038,283.55038,3.333,0.0,0.0,207.31856,9558.0,0.0,57.315613,5.120676,0.0,6.0,0.0,1.0,2189330.0,107.0,2.0,0.0,0.0,4.705639,0.0,0.0,-233.58781,5.7875648,-359.94003,-1.1002381,-2.451196,-0.060995862,203.05972,202.2846,203.60388,201.39256,655.0,655.0,685.0,684.0,69.0,69.0,67.0,68.0,0.22445416,0.12590382,0.12586728,0.0545948,0.024405276,0.022316365,0.052370384,0.047136106,7.0122995,-23.085325,7.935986,-10.78628,-282.07446,293.84937,212.91374,264.15732,111986.01,154088.23,144761.8,2.0,1.0,2.7460957,0.07312581,-0.0014833212,90.0,90.0,90.0,90.0,20.9,20.9,24.2,24.2,-0.02308754,-0.021593325,-0.020669138,-0.025593983,867.3547,0.0,0.0,0.0,0.0,0.0,0.0,0.0,0.0,0.0,0.0,0.0,0.0,0.0,21.971046,0.56855327,-53.229538,-0.0026085153,-0.20561959,-0.06478935,481844.28,0.0,0.022354549,0.042641528,5217.626,4044.8562,6535.572,4071.2104,0.32627296,0.0,0.0,0.0
286.4097,286.4097,3.383,0.0,0.0,202.98961,9354.0,0.0,57.411694,6.73896,0.0,6.0,0.0,1.0,2194934.0,107.0,2.0,0.0,0.0,4.705639,0.0,0.0,-232.48705,5.8137617,-362.5663,-1.368762,-2.443142,-0.018886201,198.81602,197.84169,199.58876,196.55672,664.0,664.0,694.0,693.0,69.0,69.0,67.0,68.0,0.22498535,0.1261271,0.12634341,0.055103518,0.023990061,0.02133877,0.05289746,0.046643592,5.467571,-21.375193,15.051215,-9.124428,927.5748,-509.13684,-16.68331,-148.63463,117985.26,154088.23,144761.8,2.0,1.0,2.7342553,0.075291924,-5.9604645E-6,90.0,90.0,90.0,90.0,20.9,20.9,24.2,24.2,-0.023928719,-0.021818312,-0.020222794,-0.027433684,814.5043,0.0,0.0,0.0,0.0,0.0,0.0,0.0,0.0,0.0,0.0,0.0,0.0,0.0,22.07212,0.49273354,-51.8841,-0.011436396,-0.26510257,-0.03942821,462352.28,0.0,0.0217684,0.04311486,5294.127,3765.7935,6846.2305,3901.993,0.32691002,0.0,0.0,0.0
288.28143,288.28143,3.433,0.0,0.0,200.16513,9232.0,0.0,54.283905,7.7332096,0.0,6.0,0.0,1.0,2198674.8,107.0,2.0,0.0,0.0,4.705639,0.0,0.0,-231.74908,5.829445,-364.27933,-1.5431669,-2.3587916,-0.017711252,196.31523,195.23836,197.17055,193.55591,670.0,670.0,699.0,698.0,69.0,69.0,67.0,68.0,0.22498535,0.1261271,0.12634341,0.055103518,0.02445036,0.020485057,0.053193334,0.04623304,0.0,0.0,0.0,0.0,-168.83833,116.89063,-248.60054,-85.92452,121984.76,154088.23,144761.8,2.0,1.0,2.7247896,0.076526135,8.7606907E-4,90.0,90.0,90.0,90.0,20.9,20.9,24.2,24.2,-0.023151241,-0.020601287,-0.018830609,-0.02812057,782.1735,0.0,0.0,0.0,0.0,0.0,0.0,0.0,0.0,0.0,0.0,0.0,0.0,0.0,22.204025,0.45068508,-50.97349,-0.009953374,-0.30003145,-0.0488979,449867.2,0.0,0.022322118,0.04330204,5473.0293,3625.0146,6837.121,3579.5164,0.32713413,0.0,0.0,0.0
