LapDistance [m],TotalDistance [m],LapTime [s],Sector1Time [s],Sector2Time [s],Speed [km/h],EngineRevs [rpm],ThrottlePercentage [%],BrakePercentage [%],Steer [%],Clutch [%],Gear [int],DRS [0/1],CanUseDRS [0/1],KERSLevel [J],EngineTemperature [C],RacePosition [int],Sector [int],InPits [int],FuelRemaining [kg],CurrentFlag [int],CurrentLapInvalid [int],X [m],Y [m],Z [m],GForceLatitudinal [G],GForceLongitudinal [G],GForceVertical [G],WheelSpeedRearLeft [km/h],WheelSpeedRearRight [km/h],WheelSpeedFrontLeft [km/h],WheelSpeedFrontRight [km/h],BrakeTemperatureRearLeft [C],BrakeTemperatureRearRight [C],BrakeTemperatureFrontLeft [C],BrakeTemperatureFrontRight [C],TyreTemperatureRearLeft [C],TyreTemperatureRearRight [C],TyreTemperatureFrontLeft [C],TyreTemperatureFrontRight [C],TyreWearRearLeft [%],TyreWearRearRight [%],TyreWearFrontLeft [%],TyreWearFrontRight [%],SuspensionPositionRearLeft [m],SuspensionPositionRearRight [m],SuspensionPositionFrontLeft [m],SuspensionPositionFrontRight [m],SuspensionVelocityRearLeft [m/s],SuspensionVelocityRearRight [m/s],SuspensionVelocityFrontLeft [m/s],SuspensionVelocityFrontRight [m/s],SuspensionAccelerationRearLeft [m/s^2],SuspensionAccelerationRearRight [m/s^2],SuspensionAccelerationFrontLeft [m/s^2],SuspensionAccelerationFrontRight [m/s^2],MGUKHarvested [J],MGUHHarvested [J],ERSSpent [J],ERSMode [int],FuelMixMode [int],Yaw [rad],Roll [rad],Pitch [rad],TyreCarcassTemperatureRearLeft [C],TyreCarcassTemperatureRearRight [C],TyreCarcassTemperatureFrontLeft [C],TyreCarcassTemperatureFrontRight [C],TyrePressureRearLeft [PSI],TyrePressureRearRight [PSI],TyrePressureFrontLeft [PSI],TyrePressureFrontRight [PSI],WheelSlipRearLeft [%],WheelSlipRearRight [%],WheelSlipFrontLeft [%],WheelSlipFrontRight [%],Torque [Nm],Handbrake [%],RearLeftInside [C],RearLeftMiddle [C],RearLeftOutside [C],RearRightInside [C],RearRightMiddle [C],RearRightOutside [C],FrontLeftInside [C],FrontLeftMiddle [C],FrontLeftOutside [C],FrontRightInside [C],FrontRightMiddle [C],FrontRightOutside [C],WoldSpeedX [km/h],WoldSpeedY [km/h],WoldSpeedZ [km/h],LocalAngularVelocityX [rad/s],LocalAngularVelocityY [rad/s],LocalAngularVelocityZ [rad/s],IcePower [W],MgukPower [W],FrontRideHeight [m],RearRideHeight [m],LoadRearLeft [N],LoadRearRight [N],LoadFrontLeft [N],LoadFrontRight [N],Extra1 [m],Extra2 [],Extra3 [],Extra4 []
2.2636719,25555.678,0.033,0.0,0.0,281.3778,11627.0,100.0,0.0,0.011733039,0.0,7.0,0.0,0.0,664710.25,111.0,20.0,0.0,0.0,20.05737,0.0,0.0,-334.1492,4.9829845,-97.312805,-0.0054696538,0.08085725,-0.040755935,285.01617,285.02356,281.2925,281.2864,249.0,249.0,309.0,306.0,61.0,54.0,53.0,44.0,1.5330621,0.9338213,2.6171126,0.96004474,0.046229202,0.046474636,0.052798163,0.052784026,0.0,0.0,0.0,0.0,313.73798,40.16607,-128.47778,-170.77623,0.0,1325.284,0.0,0.0,1.0,2.770838,0.0034522738,8.3458424E-4,88.0,82.0,89.0,78.0,20.533136,20.188297,23.826113,23.12779,0.012965532,0.01300551,-3.116394E-4,-3.1691694E-4,1193.7065,0.0,0.0,0.0,0.0,0.0,0.0,0.0,0.0,0.0,0.0,0.0,0.0,0.0,28.319887,-0.062208317,-72.849464,-0.0048973896,-7.8823377E-4,-0.0045249546,545138.56,71489.25,0.0094981715,0.00966427,8279.296,8294.672,6302.06,6298.4775,0.30096722,0.0,0.0,0.0
6.173828,25559.588,0.083,0.0,0.0,281.51672,11633.0,100.0,0.0,0.02357489,0.0,7.0,0.0,0.0,665113.0,111.0,20.0,0.0,0.0,20.056007,0.0,0.0,-332.73276,4.979412,-100.9562,-0.0087514445,0.07768524,-0.062416196,285.17468,285.17596,281.4341,281.4247,248.0,248.0,308.0,305.0,61.0,54.0,53.0,44.0,1.5334346,0.9341429,2.6171126,0.96004474,0.04641402,0.046693005,0.05285036,0.052705716,0.0,0.0,0.0,0.0,-230.66995,-524.2645,-317.493,-174.35698,0.0,5302.439,0.0,0.0,1.0,2.770777,0.0037994676,0.0012352467,88.0,82.0,89.0,78.0,20.533709,20.188858,23.826082,23.127825,0.013010997,0.013043386,-3.101354E-4,-3.1397582E-4,1194.0491,0.0,0.0,0.0,0.0,0.0,0.0,0.0,0.0,0.0,0.0,0.0,0.0,0.0,28.337168,-0.08313879,-72.884125,-0.006413771,-0.0013831458,-0.011714998,545013.75,71489.25,0.009913402,0.010078755,8215.584,8241.77,6280.947,6211.63,0.3014412,0.0,0.0,0.0
10.087891,25563.502,0.133,0.0,0.0,281.65186,11639.0,100.0,0.0,0.055040214,0.0,7.0,0.0,0.0,665517.9,111.0,20.0,0.0,0.0,20.054646,0.0,0.0,-331.31537,4.9744096,-104.60127,-0.015746586,0.07572359,-0.05673706,285.32446,285.31213,281.57397,281.55396,247.0,246.0,307.0,304.0,61.0,54.0,53.0,43.0,1.5334346,0.9341429,2.6171126,0.96004474,0.046199568,0.046419848,0.052866276,0.052772503,0.0,0.0,0.0,0.0,-162.7296,245.79762,110.734985,89.0225,0.0,9281.752,0.0,0.0,1.0,2.7706597,0.0041757426,0.0017004013,88.0,82.0,89.0,78.0,20.53427,20.189404,23.826042,23.127865,0.013050967,0.013067936,-3.1055557E-4,-3.1267275E-4,1194.4126,0.0,0.0,0.0,0.0,0.0,0.0,0.0,0.0,0.0,0.0,0.0,0.0,0.0,28.35708,-0.1139797,-72.91662,-0.0035236485,-0.0032864893,-0.0062661585,544898.6,71489.25,0.010043321,0.010668556,8160.388,8219.911,6359.0107,6315.3975,0.3018961,0.0,0.0,0.0
14.001953,25567.416,0.183,0.0,0.0,281.78204,11642.0,100.0,0.0,0.06503764,0.0,7.0,0.0,0.0,665924.25,111.0,20.0,0.0,0.0,20.053284,0.0,0.0,-329.89694,4.9687347,-108.24792,-0.022141533,0.07325818,0.0026447969,285.40125,285.40234,281.70233,281.68146,246.0,245.0,306.0,303.0,61.0,53.0,53.0,43.0,1.5338075,0.9344609,2.6171126,0.96004474,0.046913367,0.046799533,0.053055376,0.052924037,0.0,0.0,0.0,0.0,164.15118,218.05016,-84.47616,-344.30173,0.0,13262.569,0.0,0.0,1.0,2.7705007,0.00401381,0.0014042854,88.0,82.0,89.0,78.0,20.534851,20.189964,23.826027,23.127932,0.012858285,0.012936454,-3.120922E-4,-3.1189647E-4,1194.5701,0.0,0.0,0.0,0.0,0.0,0.0,0.0,0.0,0.0,0.0,0.0,0.0,0.0,28.3788,-0.11269953,-72.94697,0.009032943,-0.0035569193,0.0033867804,544830.06,71489.25,0.010285362,0.010295552,8380.463,8350.905,6445.702,6365.496,0.30185413,0.0,0.0,0.0
17.917969,25571.332,0.233,0.0,0.0,281.90903,11647.0,100.0,0.0,0.067725286,0.0,7.0,0.0,0.0,666332.06,111.0,20.0,0.0,0.0,20.051922,0.0,0.0,-328.4774,4.9633164,-111.896034,-0.026806807,0.070835136,0.022020409,285.5131,285.52835,281.83276,281.8084,245.0,244.0,305.0,302.0,61.0,53.0,52.0,43.0,1.5338075,0.9344609,2.6171126,0.96004474,0.047532715,0.047386356,0.052885957,0.052979797,0.0,0.0,0.0,0.0,115.039955,-796.8708,-25.13231,126.0772,0.0,17244.8,0.0,0.0,1.0,2.7703118,0.0039135236,0.001167059,88.0,82.0,89.0,78.0,20.53544,20.190542,23.825985,23.12798,0.0127885295,0.01290914,-3.0760356E-4,-3.1419218E-4,1194.8726,0.0,0.0,0.0,0.0,0.0,0.0,0.0,0.0,0.0,0.0,0.0,0.0,0.0,28.402761,-0.10357598,-72.97551,-0.0036473046,-0.0038030474,0.010462358,544734.06,71489.25,0.0110158585,0.010178357,8451.143,8368.19,6337.461,6412.84,0.3023367,0.0,0.0,0.0
21.835938,25575.25,0.283,0.0,0.0,282.03354,11654.0,100.0,0.0,0.053608242,0.0,7.0,0.0,0.0,666742.1,111.0,20.0,0.0,0.0,20.05056,0.0,0.0,-327.0566,4.9576373,-115.545525,-0.028523495,0.07367627,-0.052333813,285.67557,285.7048,281.95517,281.9356,244.0,243.0,304.0,301.0,60.0,53.0,52.0,43.0,1.5341804,0.934778,2.6171126,0.96004474,0.04702155,0.046535794,0.052682605,0.052930426,0.0,0.0,0.0,0.0,1168.6786,649.80536,1735.5634,728.3538,0.0,21229.31,0.0,0.0,1.0,2.7701461,0.00271848,0.0014003515,88.0,82.0,89.0,78.0,20.536003,20.191076,23.825909,23.128016,0.012944802,0.013099112,-3.082095E-4,-3.153116E-4,1195.2933,0.0,0.0,0.0,0.0,0.0,0.0,0.0,0.0,0.0,0.0,0.0,0.0,0.0,28.427473,-0.12937768,-73.00296,-0.01659155,-0.0028925918,0.033548426,544598.56,71489.25,0.010560412,0.010708851,8285.641,8151.767,6329.206,6415.407,0.30265713,0.0,0.0,0.0
25.75586,25579.17,0.333,0.0,0.0,282.15665,11655.0,100.0,0.0,0.054077834,0.0,7.0,0.0,0.0,667153.25,111.0,20.0,0.0,0.0,20.049198,0.0,0.0,-325.63458,4.9519677,-119.19641,-0.02187336,0.06840491,0.13769473,285.70825,285.71896,282.07114,282.05548,243.0,242.0,302.0,300.0,60.0,53.0,52.0,43.0,1.5341804,0.934778,2.6171126,0.96004474,0.04853402,0.047479514,0.05344546,0.053289693,0.0,0.0,0.0,0.0,-877.27014,1057.2865,-458.40286,-149.855,0.0,25214.902,0.0,0.0,1.0,2.770026,0.0015399125,7.0655346E-4,88.0,82.0,89.0,78.0,20.536615,20.191652,23.825916,23.12812,0.012620506,0.012712181,-3.1449014E-4,-3.1606603E-4,1195.3485,0.0,0.0,0.0,0.0,0.0,0.0,0.0,0.0,0.0,0.0,0.0,0.0,0.0,28.451008,-0.0858939,-73.03056,0.022956474,-0.002561664,0.011819236,544577.0,71489.25,0.008733545,0.008857593,8657.225,8577.914,6801.0283,6715.294,0.30095863,0.0,0.0,0.0
29.677734,25583.092,0.383,0.0,0.0,282.28064,11659.0,100.0,0.0,0.05081811,0.0,7.0,0.0,0.0,667565.2,111.0,20.0,0.0,0.0,20.047836,0.0,0.0,-324.21143,4.949655,-122.84868,-0.020084105,0.0706159,0.15207237,285.80292,285.80508,282.19968,282.18146,242.0,241.0,301.0,299.0,60.0,53.0,52.0,43.0,1.534549,0.9350934,2.6171126,0.96004474,0.048648175,0.048586033,0.053271558,0.053264745,0.0,0.0,0.0,0.0,247.76903,-1774.6298,-34.305466,-166.41763,0.0,29201.299,0.0,0.0,1.0,2.7698832,0.0016055157,-2.4461746E-4,88.0,82.0,89.0,78.0,20.537252,20.192274,23.825905,23.128208,0.012478314,0.012545404,-3.1275518E-4,-3.162073E-4,1195.597,0.0,0.0,0.0,0.0,0.0,0.0,0.0,0.0,0.0,0.0,0.0,0.0,0.0,28.473547,-0.011452729,-73.05879,0.0020965459,-0.0029546614,0.006580471,544503.3,71489.25,0.008763833,0.0074337497,8803.185,8765.67,6540.0073,6543.328,0.29982567,0.0,0.0,0.0
33.597656,25587.012,0.433,0.0,0.0,282.39636,11668.0,100.0,0.0,0.036933534,0.0,7.0,0.0,0.0,667979.4,111.0,20.0,0.0,0.0,20.046474,0.0,0.0,-322.7872,4.9502263,-126.50231,-0.020788832,0.06419453,-0.012976255,286.03787,286.02975,282.31683,282.299,241.0,240.0,300.0,298.0,60.0,53.0,52.0,43.0,1.534549,0.9350934,2.6171126,0.96004474,0.047683213,0.047697812,0.053282756,0.05297542,0.0,0.0,0.0,0.0,-251.09503,-73.9619,2.521269,-442.2962,0.0,33189.926,0.0,0.0,1.0,2.7697332,0.0016644709,-9.679794E-5,88.0,82.0,89.0,78.0,20.53784,20.192856,23.825876,23.128263,0.012886756,0.012929566,-3.0817525E-4,-3.1005027E-4,1196.1199,0.0,0.0,0.0,0.0,0.0,0.0,0.0,0.0,0.0,0.0,0.0,0.0,0.0,28.494637,0.017277053,-73.085075,0.0056051305,-0.0029303085,-0.01204481,544321.25,71489.25,0.009223615,0.009159565,8297.224,8294.243,6555.957,6361.951,0.3006811,0.0,0.0,0.0
37.51953,25590.934,0.483,0.0,0.0,282.5167,11672.0,100.0,0.0,0.0024182461,0.0,7.0,0.0,0.0,668395.9,111.0,20.0,0.0,0.0,20.045113,0.0,0.0,-321.36197,4.950691,-130.15732,-0.0150639955,0.06746874,-0.0153719345,286.1398,286.1331,282.43384,282.4236,240.0,239.0,299.0,297.0,60.0,53.0,52.0,43.0,1.5349168,0.9354093,2.6171126,0.96004474,0.047218233,0.047544546,0.053063087,0.0528059,0.0,0.0,0.0,0.0,240.82213,-30.979511,358.67834,201.42047,0.0,37180.87,0.0,0.0,1.0,2.7696214,0.0025041439,-1.2230873E-4,88.0,82.0,89.0,78.0,20.538395,20.19342,23.825815,23.128284,0.012843893,0.012852028,-3.065564E-4,-3.126504E-4,1196.3469,0.0,0.0,0.0,0.0,0.0,0.0,0.0,0.0,0.0,0.0,0.0,0.0,0.0,28.514217,0.0044040685,-73.11332,0.0046031065,-0.0014537666,-0.018265817,544238.0,71489.25,0.009764925,0.009457174,8343.48,8391.926,6434.2393,6315.659,0.3013258,0.0,0.0,0.0
41.44336,25594.857,0.533,0.0,0.0,282.6256,11675.0,100.0,0.0,0.009601455,0.0,7.0,0.0,0.0,668813.44,111.0,20.0,0.0,0.0,20.04375,0.0,0.0,-319.93576,4.9521937,-133.81366,-0.014040375,0.061280202,0.052408025,286.22055,286.20346,282.53934,282.533,239.0,238.0,298.0,296.0,60.0,53.0,51.0,43.0,1.5349168,0.9354093,2.6171126,0.96004474,0.047778707,0.048187807,0.053301718,0.053009216,0.0,0.0,0.0,0.0,-131.58914,-1102.7902,-294.13098,-425.25076,0.0,41172.895,0.0,0.0,1.0,2.7695646,0.0034155115,-6.1810017E-4,88.0,82.0,89.0,78.0,20.53897,20.194016,23.825796,23.128353,0.012748987,0.012717599,-3.0738054E-4,-3.0850814E-4,1196.5184,0.0,0.0,0.0,0.0,0.0,0.0,0.0,0.0,0.0,0.0,0.0,0.0,0.0,28.531736,0.045609802,-73.13894,0.016473843,-0.0010703554,-0.011448761,544176.2,71489.25,0.010795044,0.010036039,8452.373,8552.8125,6542.0107,6394.086,0.30219173,0.0,0.0,0.0
46.677734,25600.092,0.583,0.0,0.0,282.76355,11681.0,100.0,0.0,0.0019885486,0.0,7.0,0.0,0.0,669372.56,111.0,20.0,0.0,0.0,20.041935,0.0,0.0,-318.0329,4.956235,-138.69077,-0.010859793,0.05793155,0.064333245,286.34836,286.34805,282.67477,282.67233,237.0,237.0,297.0,294.0,60.0,53.0,51.0,43.0,1.5352813,0.9357257,2.6171126,0.96004474,0.04781322,0.048093308,0.053227723,0.053118013,6.7723536,3.7595627,0.42960045,4.5879183,425.69333,401.6071,71.91001,-16.093252,0.0,46498.02,0.0,0.0,1.0,2.7695096,0.004479725,-0.0013101101,88.0,82.0,89.0,78.0,20.539724,20.194796,23.82573,23.128416,0.012730124,0.012728825,-3.0546568E-4,-3.101755E-4,1196.8917,0.0,0.0,0.0,0.0,0.0,0.0,0.0,0.0,0.0,0.0,0.0,0.0,0.0,28.5527,0.07772232,-73.17187,0.01847761,-2.3517231E-4,-0.0061738277,544066.3,71489.25,0.010807369,0.010378964,8476.199,8532.215,6586.247,6545.033,0.30265427,0.0,0.0,0.0
49.29492,25602.709,0.633,0.0,0.0,282.83615,11683.0,100.0,0.0,-0.0058050873,0.0,7.0,0.0,0.0,669653.25,111.0,20.0,0.0,0.0,20.041027,0.0,0.0,-317.08096,4.958774,-141.13014,-0.010228468,0.0634942,0.055467296,286.41086,286.41364,282.74564,282.7439,237.0,236.0,296.0,294.0,59.0,53.0,51.0,43.0,1.5352813,0.9357257,2.6171126,0.96004474,0.04767163,0.048008166,0.053208534,0.053118505,0.0,0.0,0.0,0.0,1751.4554,1222.4569,1529.7307,293.70184,0.0,49161.676,0.0,0.0,1.0,2.7695024,0.00440632,-0.001795888,88.0,82.0,89.0,78.0,20.54009,20.195177,23.825687,23.128448,0.012700442,0.012716118,-3.0984086E-4,-3.131443E-4,1196.9823,0.0,0.0,0.0,0.0,0.0,0.0,0.0,0.0,0.0,0.0,0.0,0.0,0.0,28.562862,0.082447894,-73.189545,0.015500378,-2.472627E-4,0.011373614,544014.4,71489.25,0.009393731,0.009151946,8511.494,8546.829,6653.853,6566.8555,0.30160522,0.0,0.0,0.0
53.22461,25606.639,0.683,0.0,0.0,282.95377,11687.0,100.0,0.0,-0.06818925,0.0,7.0,0.0,0.0,670074.94,111.0,20.0,0.0,0.0,20.039665,0.0,0.0,-315.65247,4.963982,-144.79039,0.003972605,0.069939695,0.07482487,286.50327,286.5117,282.85892,282.86847,236.0,235.0,295.0,293.0,59.0,53.0,51.0,43.0,1.5356386,0.9360426,2.6171126,0.96004474,0.048244394,0.0482734,0.05323583,0.053095043,0.0,0.0,0.0,0.0,-70.971245,371.87482,1621.422,1201.4418,0.0,53157.82,0.0,0.0,1.0,2.769529,0.004564022,-0.0023828745,88.0,82.0,89.0,78.0,20.540674,20.195778,23.825634,23.1285,0.012599465,0.01259394,-3.110286E-4,-3.2159666E-4,1197.2222,0.0,0.0,0.0,0.0,0.0,0.0,0.0,0.0,0.0,0.0,0.0,0.0,0.0,28.575575,0.1185173,-73.219604,0.0017115613,0.002092872,-0.008633016,543937.1,71489.25,0.0057846247,0.0062356344,8608.054,8654.915,6637.171,6562.013,0.29797935,0.0,0.0,0.0
57.154297,25610.568,0.733,0.0,0.0,283.08215,11692.0,100.0,0.0,-0.056549553,0.0,7.0,0.0,0.0,670498.1,111.0,20.0,0.0,0.0,20.038303,0.0,0.0,-314.2234,4.9717,-148.45227,0.011487218,0.07492513,0.124405466,286.6342,286.6248,282.98267,282.9992,235.0,234.0,294.0,292.0,59.0,53.0,51.0,42.0,1.5356386,0.9360426,2.6171126,0.96004474,0.048180815,0.048500627,0.053560834,0.053316526,0.0,0.0,0.0,0.0,-22.611021,-571.25684,-604.5564,-610.13544,0.0,57155.5,0.0,0.0,1.0,2.7696543,0.005234326,-0.0025217533,88.0,82.0,89.0,78.0,20.541258,20.196394,23.82562,23.128592,0.012599941,0.012514781,-3.1738222E-4,-3.2098117E-4,1197.5178,0.0,0.0,0.0,0.0,0.0,0.0,0.0,0.0,0.0,0.0,0.0,0.0,0.0,28.58524,0.18528192,-73.253975,0.0051560886,0.0029778148,-0.013102918,543838.8,71489.25,0.0025762888,0.003501743,8572.936,8742.234,6744.743,6621.8164,0.29419422,0.0,0.0,0.0
61.085938,25614.5,0.783,0.0,0.0,283.21442,11696.0,100.0,0.0,-0.072178766,0.0,7.0,0.0,0.0,670923.3,111.0,20.0,0.0,0.0,20.036942,0.0,0.0,-312.79407,4.981871,-152.11598,0.015112885,0.0711653,0.35325724,286.72202,286.72455,283.1163,283.1347,234.0,233.0,293.0,291.0,59.0,53.0,51.0,42.0,1.5359899,0.9363625,2.6171126,0.96004474,0.0488251,0.04894724,0.054222006,0.05336686,0.0,0.0,0.0,0.0,5989.2515,4901.8438,4428.3535,2399.6648,0.0,61155.15,0.0,0.0,1.0,2.769812,0.0065382156,-0.0017818213,88.0,82.0,89.0,78.0,20.541832,20.197004,23.825611,23.128664,0.012357355,0.012356163,-3.0853046E-4,-3.1617252E-4,1197.7589,0.0,0.0,0.0,0.0,0.0,0.0,0.0,0.0,0.0,0.0,0.0,0.0,0.0,28.59169,0.24810152,-73.29071,0.01339134,0.0035190918,-0.05694178,543762.25,71489.25,0.0035759264,0.004177429,9078.219,9051.613,7597.573,7227.4897,0.2942562,0.0,0.0,0.0
65.021484,25618.436,0.833,0.0,0.0,283.3175,11715.0,100.0,0.0,-0.116474114,0.0,7.0,0.0,0.0,671351.75,111.0,20.0,0.0,0.0,20.03558,0.0,0.0,-311.36475,4.993065,-155.78134,0.030773783,0.05789938,-0.49113575,287.20105,287.19894,283.22662,283.25833,233.0,232.0,292.0,289.0,59.0,53.0,50.0,42.0,1.5359899,0.9363625,2.6171126,0.96004474,0.04528912,0.046068665,0.05190477,0.05223121,0.0,0.0,0.0,0.0,-1134.2793,-1250.9149,522.85626,-159.967,0.0,65158.086,0.0,0.0,1.0,2.7700505,0.008533766,1.7285347E-5,88.0,82.0,89.0,78.0,20.54228,20.197512,23.825396,23.128592,0.013725687,0.013576854,-2.8016706E-4,-2.9586814E-4,1198.8776,0.0,0.0,0.0,0.0,0.0,0.0,0.0,0.0,0.0,0.0,0.0,0.0,0.0,28.588491,0.13665198,-73.32299,-0.056910295,0.0066431277,-0.031013621,543387.4,71489.25,0.0105625475,0.011431962,7385.818,7574.9995,5261.418,5457.4,0.30142212,0.0,0.0,0.0
68.95703,25622.371,0.883,0.0,0.0,283.42682,11720.0,100.0,0.0,-0.21068726,0.0,7.0,0.0,0.0,671785.1,111.0,20.0,0.0,0.0,20.034218,0.0,0.0,-309.93542,4.993827,-159.44838,0.047951847,0.061934426,-0.40273672,287.28775,287.3297,283.324,283.37143,232.0,231.0,291.0,288.0,59.0,53.0,50.0,42.0,1.5363375,0.9366895,2.6171126,0.96004474,0.04222511,0.042486586,0.051667355,0.05205708,0.0,0.0,0.0,0.0,1679.2638,1764.3838,173.7669,570.318,0.0,69165.914,0.0,0.0,1.0,2.7703748,0.008325656,0.0024501085,88.0,82.0,89.0,78.0,20.542637,20.19789,23.825142,23.12849,0.013754667,0.013734899,-2.8170794E-4,-3.0733398E-4,1199.1946,0.0,0.0,0.0,0.0,0.0,0.0,0.0,0.0,0.0,0.0,0.0,0.0,0.0,28.582727,-0.083862826,-73.3579,-0.041055933,0.009503878,-0.009679347,543299.2,71489.25,0.014869945,0.016362563,7451.799,7450.921,5581.7744,5783.699,0.30674648,0.0,0.0,0.0
72.89453,25626.309,0.933,0.0,0.0,283.52032,11719.0,100.0,0.0,-0.14729893,0.0,7.0,0.0,0.0,672218.75,111.0,20.0,0.0,0.0,20.032856,0.0,0.0,-308.50668,4.985856,-163.1172,0.05562617,0.049446326,-0.1666192,287.2639,287.32397,283.40317,283.467,231.0,230.0,290.0,287.0,59.0,53.0,50.0,42.0,1.5363375,0.9366895,2.6171126,0.96004474,0.042545576,0.042354148,0.052175924,0.05278501,0.0,0.0,0.0,0.0,1439.2329,1163.1666,266.32993,-2.400627,0.0,73173.99,0.0,0.0,1.0,2.7709215,0.007449411,0.0036511421,88.0,82.0,89.0,78.0,20.543045,20.198315,23.82494,23.128473,0.013381835,0.013387112,-2.933235E-4,-3.0216435E-4,1199.1133,0.0,0.0,0.0,0.0,0.0,0.0,0.0,0.0,0.0,0.0,0.0,0.0,0.0,28.567207,-0.2074148,-73.39158,-0.009914429,0.011335174,0.024159392,543308.7,71489.25,0.015919808,0.01837688,7791.674,7765.1367,6132.9756,6408.6123,0.30948067,0.0,0.0,0.0
76.833984,25630.248,0.983,0.0,0.0,283.6139,11720.0,100.0,0.0,-0.101072155,0.0,7.0,0.0,0.0,672652.8,111.0,20.0,0.0,0.0,20.031494,0.0,0.0,-307.07886,4.972738,-166.78766,0.059701987,0.06429822,-0.17138596,287.28128,287.35318,283.49753,283.5526,230.0,229.0,289.0,286.0,58.0,52.0,50.0,42.0,1.5366696,0.9370161,2.6171126,0.96004474,0.043393753,0.043007925,0.052095048,0.052793402,0.0,0.0,0.0,0.0,4201.801,2339.1409,4439.2964,2308.1345,0.0,77182.55,0.0,0.0,1.0,2.7714427,0.0052640536,0.003343463,88.0,82.0,89.0,78.0,20.543474,20.198767,23.824722,23.128454,0.013129389,0.013219099,-3.0638158E-4,-3.0813483E-4,1199.1703,0.0,0.0,0.0,0.0,0.0,0.0,0.0,0.0,0.0,0.0,0.0,0.0,0.0,28.547623,-0.31758732,-73.42669,-0.012332671,0.009567543,0.057633225,543288.2,71489.25,0.013043176,0.015381838,8051.2295,7939.6904,6146.2437,6396.6816,0.30708885,0.0,0.0,0.0
80.77344,25634.188,1.033,0.0,0.0,283.71295,11714.0,100.0,0.0,0.089869685,0.0,7.0,0.0,0.0,673085.25,112.0,20.0,0.0,0.0,20.030132,0.0,0.0,-305.65195,4.9587655,-170.45993,0.04297285,0.05850622,0.30343315,287.1548,287.18253,283.60373,283.62076,229.0,228.0,288.0,285.0,58.0,52.0,50.0,42.0,1.5366696,0.9370161,2.6171126,0.96004474,0.04969671,0.04905603,0.053732995,0.053912196,0.0,0.0,0.0,0.0,-2165.521,255.7489,-787.5233,-197.04848,0.0,81189.44,0.0,0.0,1.0,2.7717485,0.0037169217,0.0011255741,88.0,82.0,89.0,78.0,20.544062,20.199373,23.824715,23.128605,0.012256055,0.01231114,-3.2702388E-4,-3.1196646E-4,1198.8058,0.0,0.0,0.0,0.0,0.0,0.0,0.0,0.0,0.0,0.0,0.0,0.0,0.0,28.533092,-0.21912913,-73.46222,0.055557605,0.0021220138,0.031896926,543401.25,71489.25,0.0069059287,0.0068965354,8981.748,8975.357,7117.029,7207.3213,0.29909897,0.0,0.0,0.0
84.71484,25638.129,1.083,0.0,0.0,283.82248,11716.0,100.0,0.0,-0.004797376,0.0,7.0,0.0,0.0,673516.56,112.0,20.0,0.0,0.0,20.02877,0.0,0.0,-304.22537,4.9540234,-174.13399,0.03170788,0.054160647,0.42252108,287.216,287.1996,283.7413,283.72345,228.0,228.0,287.0,284.0,58.0,52.0,50.0,42.0,1.5370094,0.93733484,2.6171126,0.96004474,0.04965481,0.049698826,0.053896345,0.05409352,0.0,0.0,0.0,0.0,-1508.8362,-1429.3356,-462.34573,-596.483,0.0,85195.17,0.0,0.0,1.0,2.7716448,0.0034224442,-3.1220913E-4,88.0,82.0,89.0,78.0,20.544771,20.20011,23.824715,23.128769,0.011904417,0.011903566,-3.1265963E-4,-3.2216893E-4,1198.9371,0.0,0.0,0.0,0.0,0.0,0.0,0.0,0.0,0.0,0.0,0.0,0.0,0.0,28.531334,0.010507342,-73.495865,-0.007132261,-0.0027246573,0.0072838487,543368.0,71489.25,0.005325747,0.0038927968,9393.359,9470.694,6982.9976,7062.107,0.2961197,0.0,0.0,0.0
88.6582,25642.072,1.133,0.0,0.0,283.91144,11730.0,100.0,0.0,-0.092866935,0.0,7.0,0.0,0.0,673951.3,112.0,20.0,0.0,0.0,20.027409,0.0,0.0,-302.7988,4.956636,-177.8095,0.024946557,0.049668808,-0.01811898,287.5474,287.5586,283.81985,283.8305,227.0,227.0,286.0,283.0,58.0,52.0,50.0,42.0,1.5370094,0.93733484,2.6171126,0.96004474,0.04764442,0.047651134,0.053356912,0.053452928,0.0,0.0,0.0,0.0,1000.6113,1198.1561,425.07645,574.43524,0.0,89204.34,0.0,0.0,1.0,2.7716267,0.0031291978,3.9577484E-4,88.0,82.0,89.0,78.0,20.545328,20.200699,23.824633,23.12884,0.0128209125,0.012819938,-2.946834E-4,-3.1042992E-4,1199.7714,0.0,0.0,0.0,0.0,0.0,0.0,0.0,0.0,0.0,0.0,0.0,0.0,0.0,28.529116,0.05879964,-73.52321,-0.00807596,0.0024830392,-0.0020431303,543097.1,71489.25,0.008230537,0.008625028,8306.544,8326.903,6586.7617,6630.8594,0.2995186,0.0,0.0,0.0
92.60156,25646.016,1.183,0.0,0.0,284.00763,11736.0,100.0,0.0,0.0073074573,0.0,7.0,0.0,0.0,674389.56,112.0,20.0,0.0,0.0,20.026047,0.0,0.0,-301.37222,4.957465,-181.48636,0.010116998,0.05621247,-0.20605811,287.7014,287.70883,283.92273,283.92334,226.0,226.0,285.0,282.0,58.0,52.0,49.0,42.0,1.5373559,0.93765205,2.6171126,0.96004474,0.04614278,0.04618994,0.05255588,0.05268624,0.0,0.0,0.0,0.0,412.9931,439.34576,410.59253,530.3263,0.0,93217.04,0.0,0.0,1.0,2.7717075,0.002935798,7.876158E-4,88.0,82.0,89.0,78.0,20.545788,20.20119,23.82444,23.128805,0.013048109,0.013068979,-2.9882212E-4,-3.031691E-4,1200.1168,0.0,0.0,0.0,0.0,0.0,0.0,0.0,0.0,0.0,0.0,0.0,0.0,0.0,28.533247,-0.029557541,-73.550285,-0.0157773,3.278742E-4,0.0022662678,542975.75,71489.25,0.010733781,0.011294807,8031.2197,8052.2227,6017.556,6084.165,0.3024292,0.0,0.0,0.0
96.54883,25649.963,1.233,0.0,0.0,284.10132,11737.0,100.0,0.0,-0.023935612,0.0,7.0,0.0,0.0,674828.8,112.0,20.0,0.0,0.0,20.024685,0.0,0.0,-299.9455,4.9549503,-185.16458,0.011073203,0.052098643,-0.046176784,287.7229,287.7252,284.01248,284.01318,225.0,225.0,284.0,281.0,58.0,52.0,49.0,42.0,1.5373559,0.93765205,2.6171126,0.96004474,0.04635266,0.046343222,0.052947767,0.052980207,0.0,0.0,0.0,0.0,398.5494,1005.50653,-333.30463,-172.64035,0.0,97230.74,0.0,0.0,1.0,2.771722,0.0027712667,8.2314014E-4,88.0,82.0,89.0,78.0,20.546272,20.20171,23.824306,23.128822,0.012811674,0.012813319,-3.0002193E-4,-3.0815366E-4,1200.1809,0.0,0.0,0.0,0.0,0.0,0.0,0.0,0.0,0.0,0.0,0.0,0.0,0.0,28.53797,-0.062977776,-73.57634,0.007800558,4.4620736E-4,0.002579819,542958.5,71489.25,0.010468023,0.011119023,8291.928,8330.433,6431.1357,6448.7163,0.30220413,0.0,0.0,0.0
100.49414,25653.908,1.283,0.0,0.0,284.1927,11739.0,100.0,0.0,-0.037064422,0.0,7.0,0.0,0.0,675268.5,112.0,20.0,0.0,0.0,20.023323,0.0,0.0,-298.51837,4.95187,-188.84409,0.012770722,0.051039133,0.05256481,287.75723,287.77188,284.09763,284.10748,224.0,224.0,283.0,280.0,58.0,52.0,49.0,42.0,1.5376993,0.9379658,2.6171126,0.96004474,0.04769899,0.04765086,0.053129937,0.053285025,0.0,0.0,0.0,0.0,-303.43823,-180.49918,-77.16714,143.10925,0.0,101244.85,0.0,0.0,1.0,2.7717872,0.0026000696,2.8669834E-4,88.0,82.0,89.0,78.0,20.546795,20.202269,23.824184,23.128866,0.012616819,0.0126290005,-3.0243085E-4,-3.1156605E-4,1200.31,0.0,0.0,0.0,0.0,0.0,0.0,0.0,0.0,0.0,0.0,0.0,0.0,0.0,28.541986,-0.052590214,-73.60202,0.012235329,0.0020255416,0.010331323,542924.4,71489.25,0.009462349,0.00943768,8518.781,8527.326,6586.0938,6674.8125,0.30127907,0.0,0.0,0.0
104.44336,25657.857,1.333,0.0,0.0,284.2867,11741.0,100.0,0.0,-0.013896439,0.0,7.0,0.0,0.0,675708.94,112.0,20.0,0.0,0.0,20.021961,0.0,0.0,-297.09125,4.950042,-192.52487,0.011687537,0.054892797,0.086942255,287.82468,287.82822,284.1952,284.19907,223.0,223.0,282.0,279.0,58.0,52.0,49.0,42.0,1.5376993,0.9379658,2.6171126,0.96004474,0.04829825,0.048488904,0.05324423,0.053216964,0.0,0.0,0.0,0.0,-348.6603,522.57465,0.14752148,710.26227,0.0,105259.766,0.0,0.0,1.0,2.77186,0.0025597578,-3.796816E-4,88.0,82.0,89.0,78.0,20.547335,20.202852,23.824072,23.128902,0.012502089,0.0124903275,-3.0636566E-4,-3.1201274E-4,1200.4025,0.0,0.0,0.0,0.0,0.0,0.0,0.0,0.0,0.0,0.0,0.0,0.0,0.0,28.546995,-0.020020649,-73.628105,0.008637583,9.01435E-4,-0.0012831504,542873.7,71489.25,0.0086015295,0.0076644695,8632.238,8708.042,6592.7344,6598.984,0.2998247,0.0,0.0,0.0
108.39258,25661.807,1.383,0.0,0.0,284.3779,11745.0,100.0,0.0,0.047684602,0.0,7.0,0.0,0.0,676150.4,112.0,20.0,0.0,0.0,20.0206,0.0,0.0,-295.66364,4.9505877,-196.20694,-4.0854514E-4,0.04959164,0.09864262,287.92847,287.9297,284.2954,284.2851,222.0,222.0,281.0,278.0,58.0,52.0,49.0,42.0,1.5380437,0.9382778,2.6171126,0.96004474,0.048366934,0.048312906,0.053365905,0.05331158,0.0,0.0,0.0,0.0,-1696.6044,-486.48563,35.41856,-380.29697,0.0,109275.63,0.0,0.0,1.0,2.7718492,0.0024725345,-4.5073032E-4,88.0,82.0,89.0,78.0,20.547888,20.203445,23.823969,23.128958,0.012487799,0.0125309685,-3.0720985E-4,-3.06475E-4,1200.6292,0.0,0.0,0.0,0.0,0.0,0.0,0.0,0.0,0.0,0.0,0.0,0.0,0.0,28.554813,0.036548804,-73.65224,-0.0012785309,-0.0017458574,-0.0044787424,542791.3,71489.25,0.008423031,0.007931471,8633.677,8641.569,6671.7686,6621.7554,0.29989433,0.0,0.0,0.0
112.34375,25665.758,1.433,0.0,0.0,284.4642,11751.0,100.0,0.0,0.044367656,0.0,7.0,0.0,0.0,676593.75,112.0,20.0,0.0,0.0,20.019238,0.0,0.0,-294.2356,4.952759,-199.8901,-0.0088569205,0.05059673,-0.020718483,288.05942,288.05966,284.3865,284.36514,221.0,221.0,280.0,277.0,57.0,52.0,49.0,42.0,1.5380437,0.9382778,2.6171126,0.96004474,0.04779672,0.04785612,0.053216137,0.053151153,0.0,0.0,0.0,0.0,500.36603,237.24133,-303.61258,-146.47542,0.0,113293.41,0.0,0.0,1.0,2.7716975,0.0025526849,-5.867481E-4,88.0,82.0,89.0,78.0,20.548395,20.204002,23.823845,23.128984,0.012651753,0.012716078,-3.0191566E-4,-3.0713674E-4,1201.0135,0.0,0.0,0.0,0.0,0.0,0.0,0.0,0.0,0.0,0.0,0.0,0.0,0.0,28.566578,0.04192481,-73.67338,0.0056185825,-0.0034083503,8.7573135E-4,542687.8,71489.25,0.008701794,0.00867071,8436.552,8423.301,6485.5137,6468.736,0.30012035,0.0,0.0,0.0
116.29492,25669.709,1.483,0.0,0.0,284.55484,11753.0,100.0,0.0,0.038984843,0.0,7.0,0.0,0.0,677038.3,112.0,20.0,0.0,0.0,20.017876,0.0,0.0,-292.8069,4.954779,-203.57433,-0.016094374,0.049691387,0.0886409,288.12613,288.12137,284.4742,284.45587,220.0,220.0,279.0,276.0,57.0,52.0,49.0,42.0,1.5383914,0.9385857,2.6171126,0.96004474,0.048104543,0.048057925,0.05339849,0.05329718,0.0,0.0,0.0,0.0,611.35583,777.5321,919.5952,635.375,0.0,117312.45,0.0,0.0,1.0,2.7715435,0.0025774983,-7.380247E-4,88.0,82.0,89.0,78.0,20.54891,20.204556,23.823723,23.129017,0.01256401,0.012604769,-3.0487927E-4,-3.0946019E-4,1201.1046,0.0,0.0,0.0,0.0,0.0,0.0,0.0,0.0,0.0,0.0,0.0,0.0,0.0,28.581963,0.051453013,-73.69441,0.011420327,-0.0029131472,0.002027762,542636.6,71489.25,0.0078346925,0.008158229,8564.264,8562.389,6858.898,6794.879,0.2998314,0.0,0.0,0.0
120.24805,25673.662,1.533,0.0,0.0,284.64426,11757.0,100.0,0.0,0.013137312,0.0,7.0,0.0,0.0,677483.8,112.0,20.0,0.0,0.0,20.016514,0.0,0.0,-291.37735,4.9580083,-207.25958,-0.014289623,0.05082748,0.04160731,288.19827,288.20868,284.56223,284.55176,219.0,219.0,278.0,275.0,57.0,52.0,49.0,41.0,1.5383914,0.9385857,2.6171126,0.96004474,0.048322137,0.048180975,0.053174432,0.05315393,0.0,0.0,0.0,0.0,-607.9628,-381.4637,319.5986,43.545654,0.0,121332.38,0.0,0.0,1.0,2.7714424,0.00248575,-0.0010750294,88.0,82.0,89.0,78.0,20.54944,20.205126,23.823582,23.12904,0.012494863,0.012559806,-3.0300947E-4,-3.0911068E-4,1201.3748,0.0,0.0,0.0,0.0,0.0,0.0,0.0,0.0,0.0,0.0,0.0,0.0,0.0,28.597763,0.07427887,-73.714905,-0.004690457,-0.0014760789,-8.6455E-4,542574.0,71489.25,0.008227318,0.007591019,8615.883,8571.916,6499.357,6477.4717,0.299798,0.0,0.0,0.0
124.19531,25677.61,1.583,0.0,0.0,283.5591,11454.0,100.0,0.0,-0.0010293954,0.0,7.0,0.0,0.0,680561.1,112.0,20.0,0.0,0.0,20.01606,0.0,0.0,-289.94983,4.9611955,-210.93874,-0.011153549,-0.7159009,-0.011016065,283.5527,283.55115,283.58276,283.57806,219.0,218.0,277.0,274.0,57.0,52.0,48.0,41.0,1.538617,0.93878573,2.6171126,0.96004474,0.045358483,0.045284968,0.05335195,0.053423457,0.0,0.0,0.0,0.0,806.7549,167.6113,46.40224,42.955566,3255.3508,122669.8,0.0,0.0,1.0,2.7713916,0.0023645184,5.2177906E-4,88.0,82.0,89.0,78.0,20.549862,20.20559,23.823448,23.129074,-4.6078326E-6,-1.8421097E-6,6.3504514E-5,5.518546E-5,1183.2864,0.0,0.0,0.0,0.0,0.0,0.0,0.0,0.0,0.0,0.0,0.0,0.0,0.0,28.494534,0.0593592,-73.43165,-0.039449364,-3.7343625E-4,-0.0083343275,548541.75,0.0,0.0070876414,0.009953968,8215.967,8133.785,6793.556,6836.6533,0.29933262,0.0,0.0,0.0
128.13086,25681.545,1.633,0.0,0.0,283.37796,10424.0,100.0,0.0,-0.0065809707,0.0,8.0,0.0,0.0,684307.1,112.0,20.0,0.0,0.0,20.014711,0.0,0.0,-288.52634,4.963604,-214.60675,-0.0047868714,0.2902513,-0.16231187,288.58008,288.5961,283.24496,283.24304,218.0,217.0,276.0,273.0,57.0,52.0,48.0,41.0,1.538617,0.93878573,2.6171126,0.96004474,0.044849336,0.044893946,0.053244587,0.053239692,0.0,0.0,0.0,0.0,1730.266,2133.4155,-1445.7373,-913.6542,3255.3508,126415.8,0.0,0.0,1.0,2.7713814,0.002226408,7.520914E-4,88.0,82.0,89.0,78.0,20.550278,20.20605,23.823318,23.129112,0.018477505,0.018520089,-4.4259397E-4,-4.51218E-4,1054.605,0.0,0.0,0.0,0.0,0.0,0.0,0.0,0.0,0.0,0.0,0.0,0.0,0.0,28.479454,0.021193083,-73.383545,0.027206339,-2.2430304E-6,0.015122473,537195.56,0.0,0.007903621,0.010680568,8012.2373,8036.746,6350.892,6372.671,0.29998398,0.0,0.0,0.0
132.07031,25685.484,1.683,0.0,0.0,283.6583,10151.0,100.0,0.0,-0.040882498,0.0,8.0,0.0,0.0,687795.7,112.0,20.0,0.0,0.0,20.013393,0.0,0.0,-287.1012,4.9629,-218.27864,0.0035356814,0.034987416,-0.05041058,287.13623,287.14944,283.574,283.57938,217.0,216.0,275.0,272.0,57.0,52.0,48.0,41.0,1.5389837,0.93911886,2.6171126,0.96004474,0.047159545,0.04712089,0.05267573,0.052639335,0.0,0.0,0.0,0.0,-3513.774,-2432.8704,194.5272,395.14297,3255.3508,129904.42,0.0,0.0,1.0,2.7714093,0.0022469454,2.8920174E-4,88.0,82.0,89.0,78.0,20.550749,20.20657,23.823078,23.129032,0.012286839,0.012299544,-2.8819518E-4,-2.9782293E-4,1001.27435,0.0,0.0,0.0,0.0,0.0,0.0,0.0,0.0,0.0,0.0,0.0,0.0,0.0,28.508015,-0.029051881,-73.455986,-0.014759133,0.0014063894,-0.011435384,523746.66,0.0,0.009309326,0.008791958,8349.402,8385.219,6195.812,6187.129,0.300498,0.0,0.0,0.0
136.00977,25689.424,1.733,0.0,0.0,283.7187,10155.0,100.0,0.0,-0.08296504,0.0,8.0,0.0,0.0,691268.25,112.0,20.0,0.0,0.0,20.012072,0.0,0.0,-285.67572,4.9599714,-221.95187,0.015102034,0.035582118,-0.10630935,287.23676,287.25885,283.6263,283.64795,216.0,215.0,274.0,272.0,57.0,52.0,48.0,41.0,1.5389837,0.93911886,2.6171126,0.96004474,0.046294205,0.04627879,0.05273455,0.052783266,0.0,0.0,0.0,0.0,1009.9052,985.5239,285.4943,121.23584,3255.3508,133377.0,0.0,0.0,1.0,2.7715547,0.0023172304,0.0013539791,88.0,82.0,89.0,78.0,20.551176,20.207048,23.822857,23.128986,0.012479339,0.012483587,-2.8761124E-4,-2.9858967E-4,1002.0148,0.0,0.0,0.0,0.0,0.0,0.0,0.0,0.0,0.0,0.0,0.0,0.0,0.0,28.509203,-0.08608437,-73.47348,-0.014136991,0.0042075524,-0.009836146,523927.5,0.0,0.009784565,0.010008511,8180.6865,8180.4766,6313.009,6337.162,0.30123615,0.0,0.0,0.0
139.95117,25693.365,1.783,0.0,0.0,283.77505,10156.0,100.0,0.0,-0.071659505,0.0,8.0,0.0,0.0,694741.44,112.0,20.0,0.0,0.0,20.01075,0.0,0.0,-284.25024,4.954666,-225.62604,0.023067381,0.03114664,-0.0585322,287.2675,287.29126,283.6783,283.7047,215.0,215.0,273.0,271.0,57.0,52.0,48.0,41.0,1.5393018,0.9394172,2.6171126,0.96004474,0.04629218,0.046274483,0.05283566,0.053019084,0.0,0.0,0.0,0.0,748.5105,300.40735,-182.84618,-189.86014,3255.3508,136850.17,0.0,0.0,1.0,2.7717884,0.0021780054,0.0017246008,88.0,82.0,89.0,78.0,20.551609,20.207539,23.822653,23.128971,0.012391759,0.012391616,-2.8916766E-4,-2.9579253E-4,1002.2216,0.0,0.0,0.0,0.0,0.0,0.0,0.0,0.0,0.0,0.0,0.0,0.0,0.0,28.505575,-0.12096693,-73.49163,-0.003482577,0.004792988,0.0046077147,523984.06,0.0,0.01038353,0.0106072845,8279.715,8279.928,6352.1113,6430.6187,0.30192375,0.0,0.0,0.0
143.89453,25697.309,1.833,0.0,0.0,283.82748,10160.0,100.0,0.0,-0.051333766,0.0,8.0,0.0,0.0,698215.1,112.0,20.0,0.0,0.0,20.009428,0.0,0.0,-282.82516,4.947884,-229.30109,0.027649617,0.029830152,-0.17920327,287.38065,287.38858,283.73502,283.7566,214.0,214.0,272.0,270.0,57.0,52.0,48.0,41.0,1.5393018,0.9394172,2.6171126,0.96004474,0.04618654,0.04644013,0.05263153,0.052715328,0.0,0.0,0.0,0.0,-2080.3342,-1834.8319,-1317.0181,-805.53436,3255.3508,140323.88,0.0,0.0,1.0,2.7720037,0.0020738367,0.0019615889,88.0,82.0,89.0,78.0,20.552038,20.20803,23.822426,23.128923,0.012588693,0.012549095,-2.877722E-4,-2.9229818E-4,1002.9618,0.0,0.0,0.0,0.0,0.0,0.0,0.0,0.0,0.0,0.0,0.0,0.0,0.0,28.49885,-0.16237876,-73.50978,-0.012638683,0.0038620015,-0.0020517444,524164.6,0.0,0.011035838,0.011036731,7997.8125,8083.247,5978.453,6029.6523,0.30244923,0.0,0.0,0.0
147.83789,25701.252,1.883,0.0,0.0,283.88397,10159.0,100.0,0.0,-0.048767596,0.0,8.0,0.0,0.0,701689.56,112.0,20.0,0.0,0.0,20.008106,0.0,0.0,-281.40036,4.938719,-232.97708,0.028621208,0.030023264,0.018939469,287.3589,287.3601,283.7895,283.80746,213.0,213.0,271.0,269.0,56.0,52.0,48.0,41.0,1.5396174,0.9397167,2.6171126,0.96004474,0.046482407,0.04673583,0.053131845,0.05305942,0.0,0.0,0.0,0.0,544.3945,1206.3771,32.240177,116.22007,3255.3508,143798.33,0.0,0.0,1.0,2.7721763,0.002202659,0.0022563934,88.0,82.0,89.0,78.0,20.55247,20.20853,23.822233,23.128908,0.012319431,0.012273322,-2.9472803E-4,-2.9643727E-4,1002.7887,0.0,0.0,0.0,0.0,0.0,0.0,0.0,0.0,0.0,0.0,0.0,0.0,0.0,28.491644,-0.18585776,-73.52934,0.010064045,0.00307688,-0.009402376,524125.72,0.0,0.009852928,0.010271716,8347.5,8440.262,6644.1826,6599.937,0.3016367,0.0,0.0,0.0
151.78125,25705.195,1.933,0.0,0.0,283.92624,10158.0,100.0,0.0,-0.09623861,0.0,8.0,0.0,0.0,705163.4,112.0,20.0,0.0,0.0,20.006784,0.0,0.0,-279.97604,4.931575,-236.65399,0.033811357,0.025056027,0.11176247,287.34192,287.33887,283.82526,283.85464,212.0,212.0,270.0,268.0,56.0,51.0,48.0,41.0,1.5396174,0.9397167,2.6171126,0.96004474,0.04839582,0.048549462,0.053358592,0.05340186,0.0,0.0,0.0,0.0,-1071.8105,-2904.3628,-353.32736,-635.10675,3255.3508,147272.17,0.0,0.0,1.0,2.772382,0.0026061859,0.0013387203,88.0,82.0,89.0,78.0,20.552965,20.209108,23.822098,23.128956,0.012117287,0.012019088,-2.9154017E-4,-2.9691783E-4,1002.63354,0.0,0.0,0.0,0.0,0.0,0.0,0.0,0.0,0.0,0.0,0.0,0.0,0.0,28.48091,-0.11290024,-73.54624,0.01469854,0.0050977324,0.005248801,524096.22,0.0,0.010507774,0.009777236,8601.033,8749.719,6590.072,6598.0737,0.30195236,0.0,0.0,0.0
155.72461,25709.139,1.983,0.0,0.0,283.96518,10160.0,100.0,0.0,-0.051746447,0.0,8.0,0.0,0.0,708637.8,112.0,20.0,0.0,0.0,20.005463,0.0,0.0,-278.55228,4.9273133,-240.33173,0.03096198,0.022272028,0.10642326,287.3894,287.3914,283.86435,283.889,211.0,211.0,269.0,267.0,56.0,51.0,48.0,41.0,1.5399323,0.9400174,2.6171126,0.96004474,0.04807287,0.048322257,0.0535182,0.05348009,0.0,0.0,0.0,0.0,479.05588,232.22563,-134.32501,69.268036,3255.3508,150746.61,0.0,0.0,1.0,2.772612,0.0029818278,4.569292E-4,88.0,82.0,89.0,78.0,20.553442,20.209671,23.821953,23.128986,0.0121570565,0.012086686,-2.9449738E-4,-2.9649574E-4,1002.9968,0.0,0.0,0.0,0.0,0.0,0.0,0.0,0.0,0.0,0.0,0.0,0.0,0.0,28.470438,-0.060347147,-73.56196,0.027836505,0.004175796,0.0024415678,524182.9,0.0,0.009179001,0.009672466,8547.615,8688.936,6794.8125,6784.427,0.30171108,0.0,0.0,0.0
159.66797,25713.082,2.033,0.0,0.0,284.0123,10159.0,100.0,0.0,-0.030327339,0.0,8.0,0.0,0.0,712112.3,112.0,20.0,0.0,0.0,20.00414,0.0,0.0,-277.129,4.926227,-244.01028,0.02843203,0.028024055,0.21144126,287.36884,287.36465,283.9155,283.9298,210.0,210.0,268.0,266.0,56.0,51.0,47.0,41.0,1.5399323,0.9400174,2.6171126,0.96004474,0.048712343,0.04896635,0.05363432,0.0536134,0.0,0.0,0.0,0.0,106.5105,831.9138,-168.38905,286.138,3255.3508,154221.16,0.0,0.0,1.0,2.7727718,0.003524054,-9.6571445E-4,88.0,82.0,89.0,78.0,20.55395,20.210262,23.82182,23.129036,0.011889752,0.011827219,-2.9943272E-4,-3.0205914E-4,1002.82733,0.0,0.0,0.0,0.0,0.0,0.0,0.0,0.0,0.0,0.0,0.0,0.0,0.0,28.461945,0.022173636,-73.5793,0.02842951,0.0024622926,-0.003296459,524145.9,0.0,0.0075221374,0.006905178,8866.576,9001.699,6866.1504,6874.1245,0.29969406,0.0,0.0,0.0
163.61328,25717.027,2.083,0.0,0.0,284.05905,10162.0,100.0,0.0,-0.08321967,0.0,8.0,0.0,0.0,715586.94,112.0,20.0,0.0,0.0,20.00282,0.0,0.0,-275.70612,4.930417,-247.6897,0.028788488,0.025050571,0.19095549,287.43762,287.43686,283.96515,283.98148,210.0,209.0,267.0,265.0,56.0,51.0,47.0,41.0,1.5402462,0.9403154,2.6171126,0.96004474,0.04865315,0.048766263,0.05362679,0.05358444,0.0,0.0,0.0,0.0,-1221.8801,-597.3011,-390.04678,-383.7302,3255.3508,157695.81,0.0,0.0,1.0,2.7728927,0.0038591705,-0.0016804934,88.0,82.0,89.0,78.0,20.554478,20.210876,23.821684,23.129087,0.011933154,0.011877191,-2.925414E-4,-3.0201048E-4,1003.356,0.0,0.0,0.0,0.0,0.0,0.0,0.0,0.0,0.0,0.0,0.0,0.0,0.0,28.454582,0.13304155,-73.595955,0.0066682105,0.0031474687,-0.008320013,524267.44,0.0,0.007651177,0.0067525827,8820.283,8925.547,6775.2476,6744.9995,0.29892635,0.0,0.0,0.0
167.5586,25720.973,2.133,0.0,0.0,284.10135,10168.0,100.0,0.0,-0.053544857,0.0,8.0,0.0,0.0,719063.2,112.0,20.0,0.0,0.0,20.001497,0.0,0.0,-274.2836,4.937855,-251.3699,0.025520826,0.024217818,-0.06242113,287.60236,287.61462,284.00818,284.0308,209.0,208.0,266.0,264.0,56.0,51.0,47.0,41.0,1.5402462,0.9403154,2.6171126,0.96004474,0.047547087,0.047725394,0.053033054,0.053117193,0.0,0.0,0.0,0.0,244.45654,-2.1054838,-86.86334,-101.669136,3255.3508,161172.1,0.0,0.0,1.0,2.7730896,0.004174399,-0.0014669895,88.0,82.0,89.0,78.0,20.554924,20.21141,23.821476,23.129066,0.012378342,0.012344998,-2.8685023E-4,-2.914418E-4,1004.5051,0.0,0.0,0.0,0.0,0.0,0.0,0.0,0.0,0.0,0.0,0.0,0.0,0.0,28.44648,0.14359906,-73.61166,-0.007498559,0.0040733656,-0.005378016,524558.1,0.0,0.009959922,0.009366654,8282.447,8351.459,6304.5146,6350.1426,0.3010788,0.0,0.0,0.0
171.5039,25724.918,2.183,0.0,0.0,284.14624,10171.0,100.0,0.0,-0.09010277,0.0,8.0,0.0,0.0,722541.06,112.0,20.0,0.0,0.0,20.000175,0.0,0.0,-272.86154,4.943745,-255.05095,0.03496995,0.025262216,-0.13120869,287.69705,287.70184,284.04932,284.0776,208.0,207.0,265.0,263.0,56.0,51.0,47.0,41.0,1.5405593,0.94061655,2.6171126,0.96004474,0.046285927,0.046780247,0.052765977,0.052934203,0.0,0.0,0.0,0.0,-561.4667,-122.16121,-179.65433,197.34349,3255.3508,164649.97,0.0,0.0,1.0,2.7733264,0.0043913242,-0.001026988,88.0,82.0,89.0,78.0,20.555317,20.211887,23.821226,23.129017,0.012607419,0.01251075,-2.8591906E-4,-2.9366722E-4,1005.10114,0.0,0.0,0.0,0.0,0.0,0.0,0.0,0.0,0.0,0.0,0.0,0.0,0.0,28.436037,0.091119796,-73.62914,-0.005403627,0.0051308735,0.0020277896,524714.56,0.0,0.010455925,0.011116818,8001.962,8170.1416,6240.3174,6344.998,0.30255222,0.0,0.0,0.0
175.45117,25728.865,2.233,0.0,0.0,284.19327,10169.0,100.0,0.0,-0.18262571,0.0,8.0,0.0,0.0,726019.1,112.0,20.0,0.0,0.0,19.998854,0.0,0.0,-271.44012,4.9477863,-258.7329,0.051887482,0.02630525,0.045318834,287.63647,287.6466,284.0823,284.12918,207.0,207.0,264.0,262.0,56.0,51.0,47.0,41.0,1.5405593,0.94061655,2.6171126,0.96004474,0.04688179,0.04744015,0.053271677,0.053185325,0.0,0.0,0.0,0.0,752.7484,1338.8513,-112.558876,194.63446,3255.3508,168128.03,0.0,0.0,1.0,2.7736518,0.0047067306,-0.0014449358,88.0,82.0,89.0,78.0,20.555742,20.212397,23.82103,23.129005,0.0122526465,0.012139897,-2.8922365E-4,-3.0184333E-4,1004.7219,0.0,0.0,0.0,0.0,0.0,0.0,0.0,0.0,0.0,0.0,0.0,0.0,0.0,28.420563,0.08514325,-73.64913,0.024606204,0.008388062,-0.012062465,524619.75,0.0,0.008790912,0.009300217,8446.922,8593.309,6693.3276,6650.99,0.30090046,0.0,0.0,0.0
180.71484,25734.129,2.283,0.0,0.0,284.26685,10170.0,100.0,0.0,-0.3409711,0.0,8.0,0.0,0.0,730656.4,112.0,20.0,0.0,0.0,19.997091,0.0,0.0,-269.5466,4.954707,-263.64404,0.09459046,0.032813113,0.13109444,287.6659,287.66638,284.13275,284.22803,206.0,205.0,263.0,261.0,56.0,51.0,47.0,41.0,1.5408612,0.94092405,2.6171126,0.96004474,0.04827985,0.048811633,0.053357966,0.053350795,21.309479,5.787536,1.9381194,-0.36790964,-342.70578,-698.8897,-220.02158,-228.76558,3255.3508,172765.27,0.0,0.0,1.0,2.7744763,0.0059555485,-0.0022387505,88.0,82.0,89.0,78.0,20.556343,20.213154,23.820778,23.129011,0.012145539,0.011834603,-2.914973E-4,-3.0816585E-4,1004.9083,0.0,0.0,0.0,0.0,0.0,0.0,0.0,0.0,0.0,0.0,0.0,0.0,0.0,28.382332,0.13764064,-73.68569,0.006746892,0.01684038,-0.01490164,524665.5,0.0,0.0064975475,0.0057093203,8566.656,8954.168,6675.1846,6661.453,0.29746628,0.0,0.0,0.0
183.3457,25736.76,2.333,0.0,0.0,284.3033,10173.0,100.0,0.0,-0.3409168,0.0,8.0,0.0,0.0,732975.3,112.0,20.0,0.0,0.0,19.99621,0.0,0.0,-268.601,4.9598536,-266.10065,0.109202355,0.029822223,0.036407433,287.74957,287.77628,284.16226,284.28006,205.0,205.0,262.0,260.0,56.0,51.0,47.0,41.0,1.5408612,0.94092405,2.6171126,0.96004474,0.047878966,0.048372008,0.05313244,0.053224254,0.0,0.0,0.0,0.0,-858.17267,-704.871,-289.96014,-92.589836,3255.3508,175084.27,0.0,0.0,1.0,2.7751129,0.006595879,-0.0018520355,88.0,82.0,89.0,78.0,20.556635,20.213535,23.820635,23.129,0.012312611,0.01202559,-2.8813604E-4,-3.0102552E-4,1005.521,0.0,0.0,0.0,0.0,0.0,0.0,0.0,0.0,0.0,0.0,0.0,0.0,0.0,28.353655,0.1615388,-73.70754,-0.012071223,0.020705875,-0.02622559,524830.56,0.0,0.007388063,0.00649933,8372.711,8711.18,6434.7627,6491.4043,0.29788113,0.0,0.0,0.0
187.29492,25740.709,2.383,0.0,0.0,284.3507,10179.0,100.0,0.0,-0.2983096,0.0,8.0,0.0,0.0,736455.56,112.0,20.0,0.0,0.0,19.994888,0.0,0.0,-267.18466,4.9670796,-269.78693,0.13047564,0.026083726,-0.14552912,287.9112,287.95206,284.2094,284.3305,204.0,204.0,261.0,259.0,56.0,51.0,47.0,41.0,1.5411536,0.9412477,2.6171126,0.96004474,0.046288,0.04733258,0.052678104,0.053082295,0.0,0.0,0.0,0.0,-727.1736,-623.7476,-443.5032,-126.58684,3255.3508,178564.52,0.0,0.0,1.0,2.7761712,0.0077689877,-7.3361397E-4,88.0,82.0,89.0,78.0,20.557005,20.214033,23.820366,23.128962,0.012737567,0.012493531,-2.8482612E-4,-2.910746E-4,1006.6663,0.0,0.0,0.0,0.0,0.0,0.0,0.0,0.0,0.0,0.0,0.0,0.0,0.0,28.301268,0.118253626,-73.74185,-0.00994579,0.020952668,-0.027505957,525118.6,0.0,0.0095924605,0.010021429,7923.6987,8232.602,6158.491,6377.3633,0.3009739,0.0,0.0,0.0
191.24414,25744.658,2.433,0.0,0.0,284.3975,10180.0,100.0,0.0,-0.2055835,0.0,8.0,0.0,0.0,739937.06,112.0,20.0,0.0,0.0,19.993567,0.0,0.0,-265.77103,4.970818,-273.4749,0.124980465,0.026414186,-0.12849113,287.93524,287.97504,284.27103,284.3586,204.0,203.0,260.0,258.0,55.0,51.0,47.0,41.0,1.5411536,0.9412477,2.6171126,0.96004474,0.045238946,0.046382822,0.05250156,0.053077538,0.0,0.0,0.0,0.0,1177.4226,575.62885,261.71652,-352.46906,3255.3508,182046.03,0.0,0.0,1.0,2.7770548,0.008121795,-1.2052059E-4,88.0,82.0,89.0,78.0,20.557354,20.214499,23.820072,23.128916,0.0126282815,0.012498171,-2.8822443E-4,-2.9004E-4,1006.84644,0.0,0.0,0.0,0.0,0.0,0.0,0.0,0.0,0.0,0.0,0.0,0.0,0.0,28.247665,0.04213377,-73.7764,-0.0058579943,0.014883563,-0.0010502017,525161.0,0.0,0.010800072,0.011583629,8038.0933,8242.527,6175.8623,6417.019,0.30271053,0.0,0.0,0.0
195.19531,25748.61,2.483,0.0,0.0,284.4397,10180.0,100.0,0.0,-0.28535157,0.0,8.0,0.0,0.0,743418.56,112.0,20.0,0.0,0.0,19.992245,0.0,0.0,-264.3601,4.971964,-277.16464,0.13153931,0.02354592,-0.020958496,287.921,287.96268,284.30988,284.39835,203.0,202.0,260.0,257.0,55.0,51.0,47.0,40.0,1.5414413,0.94156945,2.6171126,0.96004474,0.04588443,0.04689275,0.052806653,0.053290162,0.0,0.0,0.0,0.0,532.20386,552.6557,-50.85468,64.44005,3255.3508,185527.5,0.0,0.0,1.0,2.7777922,0.008322113,-2.0420551E-4,88.0,82.0,89.0,78.0,20.557735,20.214996,23.819815,23.128902,0.012443621,0.012303517,-2.8447015E-4,-2.9924366E-4,1006.80835,0.0,0.0,0.0,0.0,0.0,0.0,0.0,0.0,0.0,0.0,0.0,0.0,0.0,28.191996,0.014306372,-73.81025,0.011947208,0.01545426,-0.0039715534,525141.1,0.0,0.010331532,0.011006062,8244.756,8461.699,6417.2905,6636.586,0.30244637,0.0,0.0,0.0
199.14453,25752.559,2.533,0.0,0.0,284.48163,10181.0,100.0,0.0,-0.34848076,0.0,8.0,0.0,0.0,746900.0,112.0,20.0,0.0,0.0,19.990923,0.0,0.0,-262.95203,4.972917,-280.85608,0.14068215,0.025572471,-0.042664777,287.93875,287.99997,284.33868,284.45294,202.0,202.0,259.0,257.0,55.0,51.0,46.0,40.0,1.5414413,0.94156945,2.6171126,0.96004474,0.0470014,0.04792192,0.052715074,0.05335946,0.0,0.0,0.0,0.0,-1010.2807,-1978.0352,-540.7467,-1022.8201,3255.3508,189008.86,0.0,0.0,1.0,2.7786875,0.00865605,-7.82609E-4,88.0,82.0,89.0,78.0,20.558144,20.215523,23.819557,23.1289,0.012387787,0.012247128,-2.845698E-4,-3.0164773E-4,1007.0008,0.0,0.0,0.0,0.0,0.0,0.0,0.0,0.0,0.0,0.0,0.0,0.0,0.0,28.132584,0.017569948,-73.84538,0.008328969,0.01997638,-0.0025740352,525189.94,0.0,0.009738832,0.009325628,8301.086,8463.996,6190.054,6464.9546,0.301363,0.0,0.0,0.0
203.0957,25756.51,2.583,0.0,0.0,284.5283,10180.0,100.0,0.0,-0.35971805,0.0,8.0,0.0,0.0,750381.6,112.0,20.0,0.0,0.0,19.989601,0.0,0.0,-261.5471,4.974389,-284.54938,0.15536857,0.026138388,0.10940598,287.9301,287.99515,284.37625,284.50668,201.0,201.0,258.0,256.0,55.0,51.0,46.0,40.0,1.5417234,0.9418991,2.6171126,0.96004474,0.047983807,0.04848614,0.052887283,0.05375056,0.0,0.0,0.0,0.0,241.81456,-687.47687,98.23589,-209.46707,3255.3508,192490.47,0.0,0.0,1.0,2.7797673,0.008454315,-0.001100421,88.0,82.0,89.0,78.0,20.55857,20.216074,23.819311,23.12893,0.01221233,0.012020852,-2.8934726E-4,-3.0427423E-4,1006.8861,0.0,0.0,0.0,0.0,0.0,0.0,0.0,0.0,0.0,0.0,0.0,0.0,0.0,28.0681,0.050712865,-73.883766,5.43667E-4,0.02260473,0.019620186,525181.7,0.0,0.008639944,0.0078873215,8534.822,8789.721,6510.0146,6901.3525,0.30015087,0.0,0.0,0.0
207.04688,25760.46,2.633,0.0,0.0,284.5608,10181.0,100.0,0.0,-0.44291535,0.0,8.0,0.0,0.0,753863.0,112.0,20.0,0.0,0.0,19.98828,0.0,0.0,-260.14563,4.9799013,-288.24457,0.18057065,0.014823385,0.1325646,287.9483,288.02475,284.39984,284.5507,200.0,200.0,257.0,255.0,55.0,51.0,46.0,40.0,1.5417234,0.9418991,2.6171126,0.96004474,0.048311647,0.04864533,0.05308911,0.05391633,0.0,0.0,0.0,0.0,-919.44775,-732.766,-555.84753,-242.16321,3255.3508,195971.84,0.0,0.0,1.0,2.7809694,0.008094091,-0.0016828775,88.0,82.0,89.0,78.0,20.559036,20.21667,23.819107,23.128998,0.012166939,0.011948518,-2.79115E-4,-3.0131347E-4,1007.0658,0.0,0.0,0.0,0.0,0.0,0.0,0.0,0.0,0.0,0.0,0.0,0.0,0.0,27.99291,0.15013956,-73.92181,0.0055084275,0.02643057,0.006028462,525223.8,0.0,0.010297146,0.009165297,8615.407,8874.706,6470.775,6873.7344,0.30180645,0.0,0.0,0.0
211.0,25764.414,2.683,0.0,0.0,284.58444,10184.0,100.0,0.0,-0.4763469,0.0,8.0,0.0,0.0,757345.6,112.0,20.0,0.0,0.0,19.986958,0.0,0.0,-258.74826,4.9879694,-291.94174,0.2052275,0.01410453,0.017300105,288.03513,288.12244,284.40973,284.58798,199.0,199.0,256.0,254.0,55.0,51.0,46.0,40.0,1.541998,0.9422427,2.6171126,0.96004474,0.047552314,0.048038766,0.052794345,0.053669848,0.0,0.0,0.0,0.0,101.669136,618.77216,244.49673,61.663994,3255.3508,199454.42,0.0,0.0,1.0,2.7824347,0.007620425,-0.0021221638,89.0,82.0,89.0,78.0,20.559437,20.217205,23.818838,23.129013,0.012454309,0.012194264,-2.8015024E-4,-2.9449965E-4,1007.6635,0.0,0.0,0.0,0.0,0.0,0.0,0.0,0.0,0.0,0.0,0.0,0.0,0.0,27.904379,0.16690493,-73.96226,0.009769583,0.030701201,0.010667928,525380.75,0.0,0.01180416,0.011289771,8285.898,8582.016,6348.879,6733.124,0.30358696,0.0,0.0,0.0
214.95117,25768.365,2.733,0.0,0.0,284.61688,10185.0,100.0,0.0,-0.5404454,0.0,8.0,0.0,0.0,760829.06,112.0,20.0,0.0,0.0,19.985636,0.0,0.0,-257.35574,4.995834,-295.64108,0.23467655,0.024491064,-0.023019135,288.05307,288.15012,284.4309,284.6283,199.0,198.0,255.0,253.0,55.0,51.0,46.0,40.0,1.541998,0.9422427,2.6171126,0.96004474,0.046587203,0.047830794,0.0525627,0.053479124,0.0,0.0,0.0,0.0,2849.5117,1843.3479,2403.688,982.10406,3255.3508,202937.9,0.0,0.0,1.0,2.7840726,0.0071563735,-0.0027444363,89.0,82.0,89.0,78.0,20.559801,20.21772,23.818533,23.129,0.012462123,0.012182296,-2.8588995E-4,-2.995448E-4,1007.8403,0.0,0.0,0.0,0.0,0.0,0.0,0.0,0.0,0.0,0.0,0.0,0.0,0.0,27.802292,0.14425442,-74.01036,0.008574272,0.03385098,0.015107065,525421.3,0.0,0.010405817,0.010207039,8277.74,8600.027,6334.657,6702.025,0.30220413,0.0,0.0,0.0
218.9043,25772.318,2.783,0.0,0.0,284.6438,10178.0,100.0,0.0,-0.5496436,0.0,8.0,0.0,0.0,764311.06,112.0,20.0,0.0,0.0,19.984314,0.0,0.0,-255.96846,5.006714,-299.3429,0.25737992,0.017357402,0.53947604,287.87186,287.91656,284.45923,284.64325,198.0,197.0,254.0,252.0,55.0,51.0,46.0,40.0,1.542261,0.9425967,2.6171126,0.96004474,0.04981421,0.050481644,0.054002993,0.05446837,0.0,0.0,0.0,0.0,-7746.6206,-6004.942,-3476.4644,-2103.6965,3255.3508,206419.88,0.0,0.0,1.0,2.7856824,0.007730481,-0.004448414,89.0,82.0,89.0,78.0,20.560293,20.218388,23.818407,23.129135,0.011709818,0.011292515,-2.956282E-4,-3.0809132E-4,1006.4846,0.0,0.0,0.0,0.0,0.0,0.0,0.0,0.0,0.0,0.0,0.0,0.0,0.0,27.692963,0.32798326,-74.05874,0.044822503,0.03139606,-0.014428167,525075.44,0.0,0.009873891,0.007517189,9147.791,9788.252,7165.3086,7394.754,0.30077362,0.0,0.0,0.0
222.85742,25776.271,2.833,0.0,0.0,284.63962,10184.0,100.0,0.0,-0.5001159,0.0,8.0,0.0,0.0,767792.8,112.0,20.0,0.0,0.0,19.982992,0.0,0.0,-254.58693,5.027631,-303.04697,0.24992117,-0.0047629997,0.15840545,288.069,288.0833,284.45883,284.6509,197.0,197.0,253.0,251.0,55.0,51.0,46.0,40.0,1.542261,0.9425967,2.6171126,0.96004474,0.047916614,0.04896491,0.05348475,0.05386651,0.0,0.0,0.0,0.0,225.35933,-167.16864,132.43405,-281.1491,3255.3508,209901.62,0.0,0.0,1.0,2.787315,0.009159314,-0.0053964853,89.0,83.0,89.0,78.0,20.560751,20.219065,23.818207,23.129189,0.012350813,0.011816251,-2.8148058E-4,-2.8095234E-4,1007.66187,0.0,0.0,0.0,0.0,0.0,0.0,0.0,0.0,0.0,0.0,0.0,0.0,0.0,27.575388,0.46976718,-74.10059,0.022207296,0.032415237,-0.021621991,525379.9,0.0,0.013789587,0.01215871,8379.196,9121.1875,6634.835,6770.718,0.3051014,0.0,0.0,0.0
226.8086,25780.223,2.883,0.0,0.0,284.635,10194.0,100.0,0.0,-0.54807544,0.0,8.0,0.0,0.0,771277.0,112.0,20.0,0.0,0.0,19.98167,0.0,0.0,-253.21123,5.051414,-306.75305,0.2583987,0.002535589,-0.40906253,288.36163,288.33044,284.45758,284.64453,196.0,196.0,252.0,250.0,55.0,51.0,46.0,40.0,1.5425284,0.94295156,2.6171126,0.96004474,0.044843424,0.047120526,0.052288383,0.052719288,0.0,0.0,0.0,0.0,-6206.4697,-4674.3794,-3467.1301,-2217.3015,3255.3508,213385.84,0.0,0.0,1.0,2.7888908,0.011327248,-0.006240487,89.0,83.0,89.0,78.0,20.561039,20.219582,23.817888,23.1291,0.013533949,0.012794216,-2.711462E-4,-2.8136236E-4,1009.5281,0.0,0.0,0.0,0.0,0.0,0.0,0.0,0.0,0.0,0.0,0.0,0.0,0.0,27.458021,0.43028405,-74.14304,0.022233635,0.03214562,-0.037690878,525836.56,0.0,0.015185398,0.014883955,7008.9697,7871.4775,5309.8735,5560.627,0.30728722,0.0,0.0,0.0
230.76172,25784.176,2.933,0.0,0.0,284.659,10182.0,100.0,0.0,-0.41254967,0.0,8.0,0.0,0.0,774760.94,112.0,20.0,0.0,0.0,19.980349,0.0,0.0,-251.84126,5.0730705,-310.46152,0.24270234,0.008034512,0.3501064,287.99435,287.99686,284.47876,284.6421,195.0,195.0,251.0,249.0,55.0,51.0,46.0,40.0,1.5425284,0.94295156,2.6171126,0.96004474,0.046920884,0.050378684,0.0538421,0.054087527,0.0,0.0,0.0,0.0,3707.912,3915.0322,-247.82271,-3.232269,3255.3508,216869.73,0.0,0.0,1.0,2.7903912,0.014355375,-0.008120537,89.0,83.0,89.0,78.0,20.561415,20.220171,23.817715,23.129162,0.012061554,0.011590216,-3.025633E-4,-2.9649795E-4,1007.20734,0.0,0.0,0.0,0.0,0.0,0.0,0.0,0.0,0.0,0.0,0.0,0.0,0.0,27.347456,0.49232638,-74.19061,0.0967062,0.026755538,-0.043476664,525246.06,0.0,0.008772775,0.008338285,8730.52,9435.583,7401.8223,7506.5283,0.30111217,0.0,0.0,0.0
234.71484,25788.129,2.983,0.0,0.0,284.66824,10178.0,100.0,0.0,-0.43369922,0.0,8.0,0.0,0.0,778241.3,112.0,20.0,0.0,0.0,19.979027,0.0,0.0,-250.47661,5.107004,-314.17212,0.22110665,-0.0044306554,0.63026804,287.88864,287.86865,284.50366,284.6506,194.0,194.0,251.0,248.0,54.0,51.0,46.0,40.0,1.5427921,0.94329894,2.6171126,0.96004474,0.04971368,0.05102099,0.055029653,0.054449443,0.0,0.0,0.0,0.0,-3812.2366,-503.55786,-895.7638,-263.31244,3255.3508,220350.1,0.0,0.0,1.0,2.7916496,0.017091393,-0.010574818,89.0,83.0,89.0,78.0,20.561987,20.221033,23.81769,23.129322,0.011500509,0.011010372,-3.0382004E-4,-3.003719E-4,1006.438,0.0,0.0,0.0,0.0,0.0,0.0,0.0,0.0,0.0,0.0,0.0,0.0,0.0,27.244083,0.8382081,-74.228264,0.048656773,0.024829702,-0.066870235,525051.1,0.0,0.0054572704,0.0055667013,9434.29,10377.508,7742.3467,7439.5254,0.29806805,0.0,0.0,0.0
238.66992,25792.084,3.033,0.0,0.0,284.6702,10185.0,100.0,0.0,-0.35048375,0.0,8.0,0.0,0.0,781723.25,112.0,20.0,0.0,0.0,19.977705,0.0,0.0,-249.11691,5.1538796,-317.8844,0.1990472,0.0076983087,0.19904225,288.1246,288.03162,284.51242,284.6422,194.0,193.0,250.0,248.0,54.0,51.0,46.0,40.0,1.5427921,0.94329894,2.6171126,0.96004474,0.047663458,0.049466603,0.054674264,0.0539126,0.0,0.0,0.0,0.0,975.479,730.2044,-237.79124,-396.1756,3255.3508,223832.06,0.0,0.0,1.0,2.7927787,0.021619009,-0.012236357,89.0,83.0,89.0,78.0,20.562405,20.22174,23.817608,23.129393,0.012348978,0.011638908,-3.0327958E-4,-2.8857557E-4,1007.77,0.0,0.0,0.0,0.0,0.0,0.0,0.0,0.0,0.0,0.0,0.0,0.0,0.0,27.149136,0.99820364,-74.26165,0.07582924,0.021190837,-0.07219346,525384.7,0.0,0.0035971145,0.0064783767,8269.371,9423.41,7289.4893,6911.9775,0.29692268,0.0,0.0,0.0
242.62305,25796.037,3.083,0.0,0.0,284.4829,10152.0,99.77264,9.501858,-0.096014075,0.0,8.0,0.0,0.0,787750.2,112.0,20.0,0.0,0.0,19.976385,0.0,0.0,-247.76172,5.2076206,-321.5976,0.14696409,-0.24032402,0.4219836,287.2082,287.0958,283.67688,283.7026,196.0,196.0,251.0,249.0,54.0,51.0,46.0,40.0,1.5429816,0.9435452,2.6171255,0.96004474,0.049006537,0.050957613,0.0547568,0.053412776,0.0,0.0,0.0,0.0,-4640.838,-4387.785,-4761.1484,-1182.0627,5803.419,227310.88,0.0,0.0,1.0,2.79349,0.02766147,-0.014548302,89.0,83.0,89.0,78.0,20.56283,20.222467,23.817528,23.12942,0.009727229,0.009168749,-0.002809905,-0.0029025201,1001.4301,0.0,0.0,0.0,0.0,0.0,0.0,0.0,0.0,0.0,0.0,0.0,0.0,0.0,27.058514,1.1712455,-74.23682,0.065797254,0.010176434,-0.117359005,523776.53,0.0,0.004646546,0.003771345,8692.886,9993.727,7307.4414,6787.4824,0.2960024,0.0,0.0,0.0
246.5664,25799.98,3.133,0.0,0.0,283.027,10019.0,71.88068,30.117863,0.0443085,0.0,8.0,0.0,0.0,796620.56,112.0,20.0,0.0,0.0,19.975273,0.0,0.0,-246.41301,5.2677946,-325.30145,0.061789155,-1.0982934,-0.09714578,281.9567,281.90262,280.7002,280.54504,210.0,210.0,264.0,262.0,54.0,51.0,46.0,40.0,1.5429816,0.9435452,2.6171255,0.96004474,0.046011124,0.04814668,0.053486783,0.052246567,0.0,0.0,0.0,0.0,-731.51886,291.1132,-705.3806,-399.66245,11802.669,230181.98,0.0,0.0,1.0,2.793535,0.033172026,-0.013319135,89.0,83.0,89.0,78.0,20.563086,20.223015,23.817327,23.12933,0.0014238539,0.0013299468,-0.008385537,-0.008841849,975.9537,0.0,0.0,0.0,0.0,0.0,0.0,0.0,0.0,0.0,0.0,0.0,0.0,0.0,26.881287,1.1970563,-73.87049,-0.009540871,-0.0030833017,-0.11291971,517227.78,0.0,0.010079469,0.010414441,7399.876,8364.34,6858.7656,6305.208,0.30148125,0.0,0.0,0.0
250.47852,25803.893,3.183,0.0,0.0,280.45895,9916.0,44.556343,36.822384,0.39140376,0.0,8.0,0.0,0.0,804396.44,112.0,20.0,0.0,0.0,19.97457,0.0,0.0,-245.07532,5.3246083,-328.97784,-0.051142752,-1.5568922,-0.2454435,279.49637,279.42844,277.7298,277.46255,230.0,230.0,282.0,280.0,54.0,51.0,46.0,40.0,1.5431112,0.94365937,2.6172533,0.9601643,0.041175593,0.04447253,0.0529305,0.051986407,0.0,0.0,0.0,0.0,993.40936,152.06816,415.1791,191.93886,17801.92,231958.55,0.0,0.0,1.0,2.7928693,0.03837149,-0.010812521,89.0,83.0,89.0,78.0,20.56316,20.22329,23.817083,23.129217,-0.0034730248,-0.0032599932,-0.010058831,-0.010500783,952.00793,0.0,0.0,0.0,0.0,0.0,0.0,0.0,0.0,0.0,0.0,0.0,0.0,0.0,26.641758,1.0764958,-73.20033,-0.005437281,-0.02148802,-0.1000355,509777.97,0.0,0.013676396,0.01878792,6750.638,7299.707,6883.7793,6458.2217,0.30741787,0.0,0.0,0.0
254.35156,25807.766,3.233,0.0,0.0,277.13965,9720.0,18.933395,48.56408,0.8747966,0.0,8.0,0.0,0.0,811353.2,112.0,20.0,0.0,0.0,19.974255,0.0,0.0,-243.74965,5.3758607,-332.61554,-0.20469481,-2.0698774,-0.2759766,274.41357,274.25198,273.6433,273.08047,254.0,254.0,303.0,301.0,54.0,51.0,46.0,40.0,1.5431112,0.94365937,2.6172533,0.9601643,0.03870519,0.041435074,0.05305519,0.051739708,0.0,0.0,0.0,0.0,-1123.1348,-1061.5245,-1966.488,-1507.4012,23801.17,232916.05,0.0,0.0,1.0,2.7910419,0.04201201,-0.009813905,89.0,83.0,89.0,78.0,20.563175,20.223461,23.816874,23.129118,-0.010048335,-0.009657824,-0.013398675,-0.01431125,905.20844,0.0,0.0,0.0,0.0,0.0,0.0,0.0,0.0,0.0,0.0,0.0,0.0,0.0,26.393965,0.9709313,-72.31068,0.006762728,-0.049281918,-0.054999653,494492.06,0.0,0.013187076,0.02172558,6554.907,6824.3174,6915.925,6311.3896,0.30923557,0.0,0.0,0.0
258.16992,25811.584,3.283,0.0,0.0,272.64044,9490.0,3.6270697,66.69812,1.3835595,0.0,8.0,0.0,0.0,817631.7,111.0,20.0,0.0,0.0,19.974222,0.0,0.0,-242.4372,5.4241347,-336.20032,-0.38496923,-2.8128483,0.2394848,268.20197,267.9433,268.10492,267.13657,285.0,285.0,332.0,330.0,54.0,51.0,46.0,40.0,1.5435979,0.94396484,2.6176515,0.96056706,0.040050644,0.041430585,0.054514587,0.05203646,0.0,0.0,0.0,0.0,778.41724,1710.6858,-465.41687,-16.267603,29800.42,233210.0,0.0,0.0,1.0,2.7878175,0.04502397,-0.009969473,89.0,83.0,89.0,78.0,20.56322,20.223612,23.816801,23.129084,-0.016766587,-0.016207576,-0.017556526,-0.019417176,851.2559,0.0,0.0,0.0,0.0,0.0,0.0,0.0,0.0,0.0,0.0,0.0,0.0,0.0,26.112259,0.99621063,-71.08244,0.0429966,-0.078607835,-0.05802603,476289.44,0.0,0.009057194,0.019100135,7363.954,7390.392,8568.953,7386.3447,0.30573082,0.0,0.0,0.0
261.91797,25815.332,3.333,0.0,0.0,267.20816,10963.0,0.6790264,75.36519,1.8276207,0.0,8.0,0.0,0.0,825884.44,111.0,20.0,0.0,0.0,19.97333,0.0,0.0,-241.13918,5.4759974,-339.71548,-0.5734894,-3.1716082,0.22743547,261.8794,261.52673,261.99637,260.41312,320.0,320.0,366.0,364.0,54.0,51.0,46.0,41.0,1.5435979,0.94396484,2.6176515,0.96056706,0.041199137,0.04152682,0.054746747,0.051432285,0.0,0.0,0.0,0.0,-1632.4458,-704.643,-105.839935,-197.65198,35799.67,235517.81,0.0,0.0,1.0,2.7831054,0.048466127,-0.010214448,89.0,83.0,89.0,78.0,20.563248,20.223707,23.816744,23.129004,-0.020814434,-0.020107297,-0.02063964,-0.02418034,1133.5693,0.0,0.0,0.0,0.0,0.0,0.0,0.0,0.0,0.0,0.0,0.0,0.0,0.0,25.826904,1.0761256,-69.57793,0.02369459,-0.1059079,-0.07644836,549029.5,0.0,0.0074270833,0.017915161,7290.2827,7017.032,8571.171,6983.8784,0.30399132,0.0,0.0,0.0
265.5879,25819.002,3.383,0.0,0.0,261.4199,10422.0,0.0,82.74106,2.3006318,0.0,7.0,0.0,0.0,831441.25,111.0,20.0,0.0,0.0,19.97333,0.0,0.0,-239.85446,5.530737,-343.15204,-0.7510226,-3.3603058,0.034947105,255.38878,254.93288,255.31561,252.71823,356.0,356.0,401.0,399.0,54.0,51.0,46.0,41.0,1.5444647,0.94444615,2.618436,0.9614719,0.039668962,0.03944789,0.05426427,0.0504258,0.0,0.0,0.0,0.0,-548.0959,-1282.109,-319.19623,-150.99493,41798.92,235517.81,0.0,0.0,1.0,2.7771075,0.052223116,-0.009624004,89.0,83.0,89.0,78.0,20.56318,20.223677,23.816626,23.128826,-0.024097797,-0.023275904,-0.024697972,-0.031373944,1054.1953,0.0,0.0,0.0,0.0,0.0,0.0,0.0,0.0,0.0,0.0,0.0,0.0,0.0,25.577932,1.0946604,-67.95401,7.750839E-4,-0.12814313,-0.07700571,537089.94,0.0,0.008939835,0.020333752,6805.7666,6204.7803,8132.1533,6357.13,0.30534077,0.0,0.0,0.0
269.17578,25822.59,3.433,0.0,0.0,255.25842,10142.0,0.0,86.461296,3.3468974,0.0,7.0,0.0,0.0,837010.8,111.0,20.0,0.0,0.0,19.97333,0.0,0.0,-238.58131,5.5846515,-346.50378,-0.97453797,-3.4877048,-0.021462984,248.58322,247.98677,248.89949,245.04941,390.0,390.0,436.0,433.0,54.0,51.0,47.0,42.0,1.5444647,0.94444615,2.618436,0.9614719,0.037154242,0.036097705,0.054368824,0.049476128,0.0,0.0,0.0,0.0,-1732.5726,-716.6054,-1674.3956,-773.026,47798.17,235517.81,0.0,0.0,1.0,2.7698162,0.05599084,-0.007759452,89.0,83.0,89.0,78.0,20.563028,20.223518,23.816483,23.128561,-0.027611751,-0.026530769,-0.026540242,-0.037358742,999.46387,0.0,0.0,0.0,0.0,0.0,0.0,0.0,0.0,0.0,0.0,0.0,0.0,0.0,25.371119,1.0625075,-66.202065,-0.008406434,-0.16509743,-0.083185196,523263.56,0.0,0.011847445,0.025784427,6283.8184,5565.486,8278.29,6008.232,0.30988693,0.0,0.0,0.0
